Time,Longitude,Latitude,Altitude,Roll,Pitch,Yaw,AOA,AOS,TAS
0.0,-128.17821059,0.57422818,26.0,-10.935645,18.578638,63.504593,11.5,3.2,204.0
0.2,-128.17812357,0.57427439,27.0,-11.454412,17.643723,63.266083,9.9,3.2,206.0
0.4,-128.1780354,0.57432291,29.0,-12.75158,15.787931,62.961105,7.7,3.0,207.0
0.6,-128.17794837,0.57437027,30.0,-14.385559,13.657716,62.480179,5.8,2.7,209.0
0.8,-128.17786249,0.57441764,31.0,-16.197083,11.6373,61.753632,4.4,2.1,211.0
1.0,-128.17777318,0.57446731,33.0,-18.295753,10.111355,60.685196,3.6,1.2,213.0
1.2,-128.17768386,0.57451929,34.0,-20.718122,9.243633,59.378387,3.7,0.5,214.0
1.4,-128.17759111,0.57457243,35.0,-23.134586,9.01009,57.972473,4.5,-0.0,217.0
1.6,-128.17750066,0.57462671,36.0,-25.018175,9.305178,56.663773,5.5,-0.2,219.0
1.8,-128.17740906,0.574681,37.0,-25.673702,9.826484,55.633102,6.4,-0.1,221.0
2.0,-128.17731975,0.5747376,38.0,-24.425383,10.266105,55.047012,6.9,0.1,222.0
2.2,-128.17722472,0.57479881,39.0,-20.599894,10.540354,54.880692,7.0,0.3,224.0
2.4,-128.17713884,0.5748554,39.0,-15.31383,10.528169,55.031876,6.9,0.3,226.0
2.6,-128.17704038,0.57492123,40.0,-8.174196,10.569389,55.310059,6.7,0.1,228.0
2.8,-128.17695107,0.57498243,41.0,-2.477196,11.126549,55.623474,7.1,-0.1,230.0
3.0,-128.17686062,0.57504364,42.0,2.351461,12.269421,56.171646,8.0,-0.2,232.0
3.2,-128.17676445,0.57510947,43.0,6.886454,13.441637,57.14798,8.7,-0.1,233.0
3.4,-128.17667171,0.57517183,44.0,11.557014,13.902155,58.359711,8.7,0.0,235.0
3.6,-128.17657782,0.5752342,46.0,16.767916,13.777283,59.695312,8.3,0.2,236.0
3.8,-128.1764805,0.57529656,47.0,22.396883,13.367332,61.131622,7.8,0.3,238.0
4.0,-128.17637974,0.57535893,48.0,28.483273,12.885056,62.656204,7.4,0.4,239.0
4.2,-128.17629043,0.57541322,50.0,33.817677,12.422717,64.082611,7.2,0.4,240.0
4.4,-128.17618967,0.57547098,51.0,39.647717,11.861359,65.743225,7.1,0.3,242.0
4.6,-128.17607745,0.57553221,53.0,45.486732,11.364978,67.912521,7.3,0.3,243.0
4.8,-128.17597324,0.57558535,55.0,49.720085,11.019723,70.335632,7.8,0.4,245.0
5.0,-128.17586903,0.57563504,56.0,53.260925,10.628852,73.144608,8.5,0.7,246.0
5.2,-128.17576253,0.57568127,57.0,56.435455,10.096243,76.343933,9.3,1.2,247.0
5.4,-128.17564686,0.57572635,59.0,58.943752,9.395682,80.139191,10.2,1.9,249.0
5.6,-128.17553233,0.57576567,60.0,60.381828,8.528665,83.938751,11.0,3.0,250.0
5.8,-128.17542009,0.57579807,61.0,61.014225,7.36085,87.104736,11.1,4.0,251.0
6.0,-128.17530097,0.57582701,63.0,60.78233,5.914009,89.669403,10.4,5.1,252.0
6.2,-128.17517955,0.57585019,64.0,59.768539,4.715061,91.968079,9.7,6.0,253.0
6.4,-128.17506042,0.57586759,65.0,58.31712,4.003911,94.068878,9.2,6.4,254.0
6.6,-128.17492983,0.57588155,66.0,56.247261,3.719511,96.196594,8.7,6.6,256.0
6.8,-128.17481069,0.57588974,67.0,54.005745,3.902383,97.970612,8.5,6.4,257.0
7.0,-128.17468926,0.57589331,68.0,50.992531,4.58095,99.78125,8.5,6.0,258.0
7.2,-128.17455636,0.57589228,69.0,46.958305,5.841078,101.808197,8.8,5.6,260.0
7.4,-128.17443148,0.57588778,70.0,42.475952,7.390672,103.654297,9.3,5.4,261.0
7.6,-128.17430316,0.57587867,71.0,37.580521,9.15452,105.424316,9.7,5.3,262.0
7.8,-128.17417942,0.57586494,73.0,32.740135,10.949022,106.973236,10.0,5.4,263.0
8.0,-128.17405109,0.57584776,74.0,27.546951,12.920196,108.367981,10.3,5.6,264.0
8.2,-128.17393537,0.57582941,76.0,22.861946,14.715555,109.376221,10.4,6.0,264.0
8.4,-128.1738013,0.57580416,78.0,17.301788,16.906475,110.210449,10.4,6.4,265.0
8.6,-128.17368214,0.57578121,80.0,12.545578,18.867676,110.610077,10.3,6.6,265.0
8.8,-128.17355838,0.57575479,83.0,8.098531,20.779041,110.641815,10.2,6.8,265.0
9.0,-128.1734415,0.57572837,86.0,4.463169,22.316013,110.288483,9.9,6.7,265.0
9.2,-128.17331546,0.57569966,89.0,0.102306,23.668949,109.419067,9.4,6.4,265.0
9.4,-128.17319514,0.57567209,93.0,-4.571447,24.764221,108.172241,8.8,5.9,265.0
9.6,-128.17307482,0.57564452,97.0,-9.783593,25.82103,106.590454,8.4,5.4,264.0
9.8,-128.17295221,0.57561811,102.0,-15.483007,26.778961,104.694489,8.2,4.9,264.0
10.0,-128.17283304,0.57559284,106.0,-21.629642,27.631033,102.63327,8.0,4.5,264.0
10.2,-128.17271388,0.57556988,111.0,-28.049459,28.432573,100.451019,8.0,4.3,263.0
10.4,-128.17259356,0.57554924,116.0,-34.0228,28.995182,98.292633,7.8,4.3,263.0
10.6,-128.17247555,0.57553089,121.0,-38.882759,29.25598,96.297638,7.6,4.3,262.0
10.8,-128.17235868,0.57551716,126.0,-43.001915,29.395464,94.29895,7.3,4.3,262.0
11.0,-128.17224296,0.57550573,132.0,-47.226452,29.543161,92.136047,7.3,4.4,261.0
11.2,-128.17211693,0.57549662,137.0,-51.802994,29.731617,89.561005,7.4,4.5,260.0
11.4,-128.17200351,0.57549326,142.0,-55.512558,29.881721,87.094482,7.6,4.7,260.0
11.6,-128.17189009,0.57549337,148.0,-59.019432,29.999496,84.503937,7.9,4.9,259.0
11.8,-128.17177209,0.57549809,153.0,-62.201836,30.0658,81.675903,8.2,5.1,259.0
12.0,-128.17165753,0.57550627,158.0,-65.058144,30.091618,78.763702,8.5,5.4,258.0
12.2,-128.17153725,0.57552022,164.0,-67.773651,30.046116,75.510254,8.9,5.6,257.0
12.4,-128.17142499,0.57553877,168.0,-70.013428,29.897217,72.449844,9.3,5.8,256.0
12.6,-128.17131274,0.57556194,174.0,-72.028076,29.613245,69.339432,9.5,6.0,256.0
12.8,-128.17119591,0.57559203,179.0,-73.691422,29.170841,66.183716,9.7,6.1,255.0
13.0,-128.17108367,0.57562674,183.0,-74.928734,28.549421,63.286301,9.7,6.1,254.0
13.2,-128.17097487,0.57566605,188.0,-75.830383,27.777166,60.622253,9.5,6.0,254.0
13.4,-128.17086722,0.57571113,193.0,-76.593567,26.816883,58.062729,9.2,5.8,253.0
13.6,-128.17075957,0.57576197,197.0,-77.218475,25.675598,55.700745,8.9,5.6,253.0
13.8,-128.17066568,0.57581165,201.0,-77.627426,24.569738,53.769608,8.4,5.3,252.0
14.0,-128.17056148,0.57587287,205.0,-77.875565,23.183804,51.822891,7.8,4.9,252.0
14.2,-128.17046186,0.57593639,210.0,-77.812027,21.732864,50.122604,7.2,4.4,252.0
14.4,-128.17036454,0.57600453,213.0,-77.558517,20.215801,48.596359,6.6,4.0,253.0
14.6,-128.17026952,0.57607612,217.0,-77.287849,18.636457,47.216049,6.0,3.5,253.0
14.8,-128.17017221,0.57615348,220.0,-77.014252,17.084465,45.812897,5.4,3.0,254.0
15.0,-128.17007948,0.57623314,223.0,-76.365486,15.591013,44.370972,5.1,2.7,255.0
15.2,-128.16999478,0.57631049,225.0,-75.405319,14.326136,42.995575,4.9,2.3,255.0
15.4,-128.16990549,0.57639592,228.0,-74.143806,13.099936,41.571335,4.7,2.1,257.0
15.6,-128.16981736,0.57648596,230.0,-72.769341,11.97809,40.174377,4.6,2.0,258.0
15.8,-128.1697361,0.57657253,232.0,-71.520592,11.086717,38.890289,4.5,1.9,259.0
16.0,-128.1696514,0.57666834,234.0,-70.20433,10.222836,37.554474,4.4,2.0,261.0
16.2,-128.16956901,0.57676644,236.0,-68.814056,9.498781,36.192093,4.4,2.2,262.0
16.4,-128.1694889,0.57686801,237.0,-67.351669,8.901426,34.821808,4.4,2.3,264.0
16.6,-128.16941109,0.57697188,238.0,-65.849968,8.27475,33.638687,4.3,2.5,265.0
16.8,-128.16933557,0.5770769,239.0,-64.189629,7.599455,32.626175,4.1,2.7,267.0
17.0,-128.1692612,0.57718538,240.0,-62.356358,6.880389,31.597778,3.9,2.7,269.0
17.2,-128.16919142,0.57729385,241.0,-60.528683,6.2083,30.441391,3.9,2.7,271.0
17.4,-128.16912278,0.57740463,241.0,-59.068466,5.717532,28.970917,4.1,2.6,273.0
17.6,-128.16905186,0.57752695,242.0,-57.843296,5.444396,27.069077,4.7,2.5,275.0
17.8,-128.16898781,0.57764349,242.0,-57.126625,5.51615,25.029755,5.5,2.6,277.0
18.0,-128.16892719,0.57775888,242.0,-56.667793,5.860152,22.902008,6.3,2.7,279.0
18.2,-128.16886545,0.57788926,242.0,-56.260498,6.454198,20.582794,7.0,3.1,281.0
18.4,-128.16881171,0.57801156,242.0,-55.859047,7.199833,18.460205,7.6,3.5,283.0
18.6,-128.16876027,0.57814194,242.0,-55.417965,8.055109,16.274048,8.2,4.0,284.0
18.8,-128.16871342,0.57827346,242.0,-55.014259,8.905025,14.156921,8.6,4.4,286.0
19.0,-128.16867115,0.57840728,242.0,-54.720024,9.54181,12.246735,8.6,4.8,287.0
19.2,-128.16863347,0.57854571,242.0,-54.4841,9.687561,10.714584,8.0,5.1,289.0
19.4,-128.16860152,0.57868299,242.0,-54.968578,9.361229,9.346527,7.1,5.1,290.0
19.6,-128.16857529,0.5788168,243.0,-56.450077,8.825806,7.803223,6.5,4.9,292.0
19.8,-128.16855136,0.57895752,243.0,-58.619961,8.19131,5.858154,6.1,4.6,293.0
20.0,-128.16853202,0.5791017,243.0,-60.989082,7.565207,3.571243,6.1,4.3,295.0
20.2,-128.16851725,0.57924704,244.0,-63.277557,6.971071,1.044952,6.3,3.9,296.0
20.4,-128.16850822,0.57939236,244.0,-65.612366,6.458233,-1.564606,6.5,3.7,298.0
20.6,-128.16850262,0.57953768,244.0,-67.774368,6.038175,-4.24823,6.8,3.6,299.0
20.8,-128.1685039,0.57967954,244.0,-69.374298,5.747471,-6.869781,7.1,3.7,301.0
21.0,-128.16851092,0.57983754,244.0,-70.495239,5.528289,-9.760773,7.5,3.9,303.0
21.2,-128.1685248,0.57998169,243.0,-71.011711,5.403999,-12.35759,7.7,4.1,304.0
21.4,-128.16854325,0.58012353,243.0,-71.207741,5.326344,-14.926437,7.9,4.3,306.0
21.6,-128.16856974,0.58027113,243.0,-71.141129,5.251251,-17.591644,8.0,4.5,307.0
21.8,-128.1686031,0.58041988,242.0,-70.84874,5.150231,-20.266678,8.2,4.6,309.0
22.0,-128.16864333,0.58056747,241.0,-70.395096,5.022517,-22.960342,8.2,4.6,310.0
22.2,-128.16868929,0.58071043,241.0,-69.868004,4.865081,-25.642899,8.3,4.6,312.0
22.4,-128.16874326,0.58085455,240.0,-69.474518,4.645678,-28.320709,8.3,4.5,313.0
22.6,-128.16880641,0.58099981,239.0,-69.462303,4.356584,-31.055771,8.3,4.4,315.0
22.8,-128.16887068,0.58113123,238.0,-69.950706,4.062992,-33.64505,8.2,4.3,316.0
23.0,-128.16894872,0.58127417,237.0,-70.698685,3.750869,-36.614929,8.2,4.3,318.0
23.2,-128.16902674,0.58140211,236.0,-71.112106,3.495567,-39.378342,8.3,4.3,319.0
23.4,-128.16911163,0.58152659,235.0,-71.329681,3.2396,-42.088135,8.3,4.2,321.0
23.6,-128.16921143,0.58166028,234.0,-71.585068,2.957053,-45.05043,8.2,4.2,322.0
23.8,-128.16930891,0.58177668,233.0,-71.894012,2.708494,-47.743454,8.2,4.2,324.0
24.0,-128.16941098,0.58188961,232.0,-72.378914,2.433586,-50.420151,8.1,4.3,325.0
24.2,-128.16952909,0.58200714,230.0,-73.00399,2.098906,-53.32457,8.0,4.3,327.0
24.4,-128.16964375,0.58210968,229.0,-73.650436,1.750703,-56.008484,7.9,4.4,328.0
24.6,-128.16976872,0.5822122,227.0,-74.348671,1.328569,-58.81266,7.8,4.4,330.0
24.8,-128.16989826,0.58230781,226.0,-74.899071,0.871257,-61.572685,7.7,4.4,332.0
25.0,-128.17003353,0.58239764,224.0,-75.320023,0.34087,-64.286476,7.6,4.3,333.0
25.2,-128.17017223,0.58248055,222.0,-75.656013,-0.230623,-66.963196,7.4,4.2,335.0
25.4,-128.1703178,0.58255769,220.0,-75.987206,-0.845318,-69.700333,7.3,4.1,337.0
25.6,-128.17046451,0.58262675,218.0,-76.345108,-1.436627,-72.40834,7.2,4.0,339.0
25.8,-128.17060891,0.58268659,216.0,-76.708939,-1.993244,-75.031517,7.2,3.9,341.0
26.0,-128.17077394,0.58274641,213.0,-76.902023,-2.607118,-77.834747,7.0,3.8,343.0
26.2,-128.17092635,0.5827924,210.0,-76.752449,-3.189256,-80.194237,6.7,3.7,345.0
26.4,-128.1710822,0.58283262,207.0,-76.104843,-3.781319,-82.380142,6.4,3.6,347.0
26.6,-128.17125523,0.58286937,204.0,-73.799118,-4.449361,-84.540947,6.1,3.3,349.0
26.8,-128.17141679,0.58289575,201.0,-69.832428,-5.092464,-86.101074,5.5,2.8,352.0
27.0,-128.17158063,0.5829152,198.0,-63.923885,-5.532978,-87.839409,5.3,2.2,354.0
27.2,-128.17175937,0.58293118,194.0,-55.570377,-5.461338,-90.039024,5.6,1.4,356.0
27.4,-128.1719255,0.58294025,191.0,-47.333561,-4.795789,-91.984497,5.9,0.8,358.0
27.6,-128.1720962,0.58294355,188.0,-38.870941,-3.570663,-93.563766,6.3,0.3,361.0
27.8,-128.17227034,0.58294109,185.0,-30.597017,-1.918593,-94.555412,6.5,0.1,363.0
28.0,-128.17244562,0.58293516,183.0,-22.390709,-0.025666,-94.86451,6.6,0.3,364.0
28.2,-128.17262089,0.58292577,181.0,-14.241308,1.780883,-94.491234,6.6,0.6,366.0
28.4,-128.17280304,0.58291291,179.0,-5.333891,3.326401,-93.539795,6.4,1.0,367.0
28.6,-128.17296571,0.58290123,179.0,3.10457,4.423156,-92.397385,6.2,1.3,368.0
28.8,-128.17314671,0.58288953,178.0,12.00963,5.297088,-90.986443,5.9,1.4,369.0
29.0,-128.17334031,0.58287782,179.0,21.935459,6.037843,-89.368675,5.7,1.4,370.0
29.2,-128.17351674,0.58287073,179.0,29.872452,6.558997,-87.804527,5.6,1.4,371.0
29.4,-128.17369316,0.58286711,180.0,35.664513,7.222713,-85.966797,5.6,1.4,371.0
29.6,-128.17386959,0.5828681,182.0,39.537876,7.970694,-83.785057,6.0,1.6,372.0
29.8,-128.17405405,0.58287369,184.0,42.650322,8.621355,-81.278351,6.3,2.0,372.0
30.0,-128.17423392,0.58288621,186.0,44.694561,9.318002,-78.563911,6.6,2.4,372.0
30.2,-128.17442068,0.58290565,188.0,45.991497,10.028807,-75.603119,7.0,3.0,372.0
30.4,-128.1745937,0.58293086,191.0,46.887135,10.677851,-72.897865,7.2,3.5,372.0
30.6,-128.1747713,0.58296414,194.0,47.804287,11.409847,-70.236526,7.3,3.8,372.0
30.8,-128.1749386,0.58300204,198.0,48.458057,12.175129,-67.846527,7.3,3.9,371.0
31.0,-128.17510705,0.58304687,201.0,48.761539,13.142956,-65.481483,7.3,3.8,371.0
31.2,-128.17527895,0.58310207,205.0,48.861061,14.239089,-63.195969,7.4,3.6,370.0
31.4,-128.17544512,0.58316188,210.0,48.948483,15.319166,-61.086632,7.2,3.4,369.0
31.6,-128.17561016,0.58322977,215.0,48.699799,16.346563,-59.096466,7.0,3.1,368.0
31.8,-128.1757603,0.58329768,220.0,48.094589,17.271776,-57.272705,6.8,2.9,367.0
32.0,-128.17592306,0.58338057,225.0,47.154774,18.341572,-55.132568,6.7,2.7,366.0
32.2,-128.17606863,0.58346116,231.0,46.308876,19.273481,-53.110435,6.7,2.7,365.0
32.4,-128.1762142,0.58354868,237.0,45.829487,20.035326,-51.164246,6.4,2.8,364.0
32.6,-128.17635635,0.58364081,243.0,45.742744,20.524216,-49.487396,6.0,2.8,363.0
32.8,-128.17649506,0.58373987,249.0,46.485111,20.646385,-48.264771,5.2,2.6,362.0
33.0,-128.1766269,0.58383777,256.0,48.102989,20.689816,-47.328476,4.4,2.3,360.0
33.2,-128.17675072,0.58393684,263.0,49.97963,20.7505,-46.482239,3.8,1.9,360.0
33.4,-128.17688601,0.58405089,270.0,52.397575,20.784176,-45.548492,3.4,1.4,359.0
33.6,-128.17700525,0.58415689,276.0,54.757195,20.739847,-44.621933,3.0,0.9,358.0
33.8,-128.17712794,0.58427095,283.0,57.14212,20.626953,-43.39566,2.9,0.6,357.0
34.0,-128.17723573,0.5843781,289.0,59.188862,20.418129,-42.037552,2.9,0.6,356.0
34.2,-128.17735155,0.58449679,296.0,61.6012,20.023134,-40.251419,3.1,0.7,355.0
34.4,-128.17746279,0.58461778,302.0,64.463196,19.476744,-38.150238,3.3,0.9,354.0
34.6,-128.17756944,0.58474108,308.0,67.870651,18.811956,-35.774658,3.8,1.3,354.0
34.8,-128.17766923,0.58486439,314.0,71.142159,18.05727,-33.196304,4.4,1.6,353.0
35.0,-128.17776902,0.58499693,320.0,74.566032,17.121475,-30.219147,5.1,2.1,352.0
35.2,-128.17786309,0.58513178,327.0,78.062622,15.985647,-27.117432,5.8,2.5,351.0
35.4,-128.17795028,0.58527009,332.0,81.483673,14.716688,-24.063293,6.3,2.8,350.0
35.6,-128.17803175,0.58541303,337.0,84.908241,13.316036,-21.170456,6.7,3.1,349.0
35.8,-128.17810635,0.58556058,343.0,88.758469,11.810385,-18.526978,6.7,3.1,348.0
36.0,-128.17817409,0.5857116,347.0,93.243095,10.247814,-16.087296,6.7,3.0,348.0
36.2,-128.1782361,0.58586839,352.0,98.14077,8.508248,-13.467957,6.9,2.7,347.0
36.4,-128.17828894,0.58602519,356.0,102.851601,6.45696,-10.562622,7.4,2.5,347.0
36.6,-128.17833492,0.58619007,359.0,106.942627,3.856809,-7.326157,7.9,2.4,347.0
36.8,-128.17837288,0.58635611,361.0,109.800026,0.8517,-3.954895,8.7,2.5,346.0
37.0,-128.17840167,0.58651985,363.0,111.786804,-2.485649,-0.617447,9.5,3.0,346.0
37.2,-128.17842129,0.58668244,364.0,113.243744,-6.049843,2.687088,10.1,3.6,347.0
37.4,-128.17843291,0.58686119,364.0,114.476028,-10.109847,6.114441,10.6,4.4,347.0
37.6,-128.17843307,0.58702842,363.0,115.490273,-13.782471,9.237976,10.8,5.0,348.0
37.8,-128.17842291,0.58719797,361.0,116.532852,-17.399549,12.505203,10.9,5.4,348.0
38.0,-128.17840587,0.58735368,358.0,117.404404,-20.591478,15.780975,11.2,5.5,350.0
38.2,-128.17837738,0.58751862,354.0,117.956635,-23.869194,19.50856,11.4,5.3,351.0
38.4,-128.17833972,0.58767666,349.0,117.736885,-26.918459,23.504181,11.6,5.1,353.0
38.6,-128.17829061,0.58783817,342.0,116.362534,-30.162064,28.045959,11.8,4.9,355.0
38.8,-128.17823461,0.587987,335.0,113.33065,-32.867111,32.595718,11.8,4.8,357.0
39.0,-128.17816944,0.58813007,327.0,108.457214,-34.933575,36.931152,11.2,5.0,360.0
39.2,-128.17809053,0.5882743,317.0,101.972229,-36.694038,42.183167,10.8,5.1,363.0
39.4,-128.1780093,0.58839894,307.0,95.619461,-37.907463,47.72081,10.9,5.2,366.0
39.6,-128.17791662,0.58851897,296.0,89.173241,-38.675247,53.8302,11.2,5.2,370.0
39.8,-128.17781476,0.58863093,284.0,83.327019,-38.899429,59.943665,11.5,5.2,373.0
40.0,-128.17770258,0.58873253,273.0,77.884064,-38.622322,65.945129,11.6,5.0,376.0
40.2,-128.17759153,0.58881682,262.0,73.041405,-37.949036,71.286011,11.6,4.9,380.0
40.4,-128.17745528,0.58890114,249.0,67.920715,-36.771603,77.06842,11.6,4.6,383.0
40.6,-128.17731786,0.58896931,236.0,63.43483,-35.322674,82.251862,11.6,4.4,387.0
40.8,-128.17718158,0.58902019,224.0,59.789696,-33.787777,86.815674,11.6,4.2,390.0
41.0,-128.17702352,0.58906531,211.0,56.429192,-32.008827,91.439606,11.4,4.0,393.0
41.2,-128.17687003,0.58909314,199.0,53.530861,-30.187057,95.567505,11.2,3.9,396.0
41.4,-128.17670966,0.58911059,188.0,50.786732,-28.216263,99.656006,11.2,3.9,399.0
41.6,-128.17653552,0.58911421,176.0,47.928371,-25.863085,103.886322,11.2,3.9,402.0
41.8,-128.17636825,0.58910514,166.0,45.663475,-23.66136,107.681763,11.3,4.0,405.0
42.0,-128.17620212,0.58908454,155.0,43.929756,-21.35533,111.221771,11.3,4.1,407.0
42.2,-128.17601534,0.58904781,145.0,42.664253,-18.72168,114.985321,11.3,4.1,409.0
42.4,-128.17584001,0.58899953,137.0,42.136013,-16.214634,118.403076,11.4,4.0,411.0
42.6,-128.17566238,0.58893857,128.0,42.310856,-13.586648,121.863403,11.4,3.7,412.0
42.8,-128.17548589,0.58886493,121.0,42.788795,-11.039968,125.351135,11.5,3.5,413.0
43.0,-128.17531625,0.58878205,115.0,42.2089,-8.565018,128.684753,11.5,3.5,414.0
43.2,-128.1751489,0.58868648,110.0,40.307068,-5.961476,131.92514,11.5,3.8,414.0
43.4,-128.1749758,0.58857362,106.0,37.181885,-2.919733,135.248779,11.5,4.3,414.0
43.6,-128.17481416,0.58845498,103.0,33.504154,0.707608,138.469238,11.9,4.9,414.0
43.8,-128.17466397,0.58833287,101.0,30.081966,4.78512,141.400757,12.4,5.4,413.0
44.0,-128.17451606,0.58820153,100.0,26.797606,9.129464,143.870209,12.9,5.8,411.0
44.2,-128.17436584,0.58805405,101.0,23.206663,13.983471,145.81488,13.1,5.9,409.0
44.4,-128.17423053,0.58791347,103.0,19.011925,18.465908,146.823273,12.9,5.8,406.0
44.6,-128.17410094,0.58777058,107.0,12.912174,22.649529,146.800751,12.2,5.6,403.0
44.8,-128.17397707,0.58762654,113.0,5.378031,26.918922,145.937408,11.7,5.5,400.0
45.0,-128.17385436,0.5874848,119.0,-3.389829,31.49765,144.252106,11.7,5.5,396.0
45.2,-128.17373967,0.58735227,128.0,-12.581264,35.937016,141.689697,12.0,5.7,392.0
45.4,-128.17363072,0.58723012,136.0,-22.119467,40.111458,138.172119,12.4,6.1,388.0
45.6,-128.17350458,0.58709992,147.0,-34.033714,44.284451,132.69519,12.6,6.6,383.0
45.8,-128.1733945,0.58699622,157.0,-44.956135,46.982918,126.558167,12.7,6.9,378.0
46.0,-128.17328329,0.58690406,169.0,-56.643143,48.61982,119.381531,12.6,7.2,373.0
46.2,-128.17315833,0.58681537,182.0,-70.080055,48.797207,111.274139,12.2,7.2,367.0
46.4,-128.17304142,0.58674744,194.0,-82.35302,47.566685,104.206757,11.6,7.1,362.0
46.6,-128.1729119,0.58668643,207.0,-96.175339,44.896812,96.731995,11.5,6.8,357.0
46.8,-128.17278698,0.58664042,218.0,-108.368416,41.343761,90.550903,11.6,6.7,352.0
47.0,-128.17265749,0.58660709,230.0,-119.471298,37.035652,85.631287,11.7,6.8,347.0
47.2,-128.17252687,0.586583,240.0,-129.151398,32.388187,82.06485,11.5,6.9,343.0
47.4,-128.17238021,0.58656814,250.0,-138.903992,26.863121,79.381714,11.2,7.0,339.0
47.6,-128.17223356,0.58656136,259.0,-147.955658,20.946672,77.658997,11.1,7.0,335.0
47.8,-128.17208577,0.58656265,267.0,-155.996872,15.109571,76.702606,11.0,7.1,333.0
48.0,-128.17192997,0.58656971,273.0,-163.980774,8.78648,76.361694,11.1,7.1,330.0
48.2,-128.17177647,0.58658024,278.0,-171.757645,2.454576,76.6828,11.3,7.2,328.0
48.4,-128.17162067,0.58659307,281.0,-55.709274,-3.850056,77.666748,11.4,7.3,327.0
48.6,-128.17146602,0.58660705,282.0,172.45636,-10.039388,79.328278,11.6,7.4,326.0
48.8,-128.17131366,0.58661988,282.0,164.520828,-15.596567,81.660583,11.7,7.6,326.0
49.0,-128.17114526,0.58663042,281.0,155.043381,-21.457329,85.087128,11.7,7.6,327.0
49.2,-128.1709906,0.58663633,277.0,145.944183,-26.030155,89.015564,11.6,7.6,328.0
49.4,-128.17084167,0.58663762,273.0,136.451614,-29.689171,93.603668,11.4,7.4,329.0
49.6,-128.17067554,0.58663086,267.0,124.339966,-32.871666,99.55957,11.1,7.1,332.0
49.8,-128.17053347,0.58661715,260.0,113.58168,-34.521812,105.154724,10.9,6.8,334.0
50.0,-128.17039368,0.58659421,252.0,101.882477,-35.349243,111.227509,10.9,6.6,337.0
50.2,-128.17025732,0.58656435,244.0,89.860466,-35.247227,117.391632,11.0,6.4,340.0
50.4,-128.17010834,0.58651836,235.0,76.787827,-34.066719,123.896454,11.3,6.4,343.0
50.6,-128.16997081,0.58646428,225.0,64.93074,-31.989176,129.326233,11.4,6.6,347.0
50.8,-128.16984359,0.58640097,216.0,54.854546,-29.361767,133.673706,11.5,6.7,350.0
51.0,-128.16971864,0.58632843,206.0,45.756481,-26.18022,137.150482,11.6,6.8,353.0
51.2,-128.16958452,0.58623744,196.0,36.949272,-22.315054,139.865295,11.5,6.8,356.0
51.4,-128.16946414,0.58614413,188.0,29.262609,-18.345709,141.511871,11.5,6.6,358.0
51.6,-128.16934261,0.5860416,180.0,21.830549,-14.073114,142.454956,11.6,6.4,360.0
51.8,-128.16921992,0.58592984,173.0,14.6609,-9.686569,142.717224,11.8,6.3,362.0
52.0,-128.16909952,0.58581347,167.0,8.244827,-5.445087,142.378906,11.9,6.1,363.0
52.2,-128.16897797,0.58569249,162.0,4.297615,-1.453361,141.727234,12.0,5.7,365.0
52.4,-128.16885297,0.58556574,158.0,3.29642,1.8981,140.981506,11.7,4.7,365.0
52.6,-128.16873715,0.5854459,155.0,3.375533,4.55513,140.284607,11.2,3.8,366.0
52.8,-128.16860642,0.58530993,153.0,3.184371,6.784863,139.557953,10.3,2.8,366.0
53.0,-128.16849175,0.58518894,153.0,2.784843,8.439129,139.08728,9.3,2.2,367.0
53.2,-128.16835987,0.58504951,153.0,2.126993,10.599588,138.879578,8.8,1.9,367.0
53.4,-128.16824519,0.58492737,154.0,1.81641,12.909496,139.074768,8.8,2.0,368.0
53.6,-128.16812592,0.58479946,156.0,2.405767,16.109465,139.718262,9.5,2.4,367.0
53.8,-128.16799978,0.58466349,159.0,4.61288,19.614126,140.941406,10.4,2.9,366.0
54.0,-128.16787822,0.58453097,163.0,9.00563,22.740461,142.648651,10.8,3.2,365.0
54.2,-128.16776239,0.5844019,168.0,14.967455,25.185303,144.662872,10.9,3.3,363.0
54.4,-128.16765917,0.58428205,173.0,21.413338,27.285957,146.806488,11.0,3.1,361.0
54.6,-128.16754677,0.58414491,180.0,29.320988,29.650246,149.760284,11.2,2.7,358.0
54.8,-128.16745501,0.58402621,187.0,36.405262,31.236946,152.70929,11.3,2.4,356.0
55.0,-128.16735635,0.58388559,197.0,45.508728,32.513615,156.717407,11.2,2.0,352.0
55.2,-128.16727833,0.58376111,205.0,53.875576,32.985126,160.586395,11.1,1.8,350.0
55.4,-128.16720719,0.58363431,213.0,62.677773,32.794048,164.633698,10.9,1.7,347.0
55.6,-128.16714405,0.58350058,223.0,72.2995,31.808548,169.080383,10.8,1.7,343.0
55.8,-128.16709238,0.58336915,232.0,81.57943,30.098112,173.131805,10.8,1.8,340.0
56.0,-128.16704872,0.58323079,242.0,91.057076,27.628258,176.961609,10.7,2.0,337.0
56.2,-128.16701651,0.58309127,251.0,100.516251,24.493097,-179.750699,10.6,2.2,334.0
56.4,-128.16699347,0.58295059,259.0,109.728981,20.949053,-177.162926,10.5,2.4,331.0
56.6,-128.16697959,0.58280413,267.0,119.723785,16.731373,-175.29581,10.2,2.6,329.0
56.8,-128.16697487,0.58265305,274.0,129.285141,12.375186,-174.00374,10.1,2.9,326.0
57.0,-128.16697702,0.58250196,280.0,138.463409,7.732786,-173.173425,10.2,3.1,325.0
57.2,-128.16698605,0.58234856,285.0,147.246262,2.822806,-172.824173,10.4,3.4,323.0
57.4,-128.16699852,0.58220554,288.0,155.32222,-1.753241,-173.058063,10.6,3.7,323.0
57.6,-128.1670167,0.58204867,290.0,164.679413,-6.772733,-173.936429,10.7,4.0,322.0
57.8,-128.16703718,0.5818895,291.0,174.059692,-11.212193,-175.476514,10.8,4.2,323.0
58.0,-128.16705766,0.58173263,290.0,-174.265594,-15.365305,-177.613157,10.8,4.4,323.0
58.2,-128.16707928,0.58156999,287.0,-162.998383,-19.04151,179.548828,10.8,4.3,325.0
58.4,-128.16709633,0.58141889,284.0,-150.574463,-21.964422,176.416473,10.8,4.2,326.0
58.6,-128.16710879,0.58126433,278.0,-137.026123,-24.410032,172.656464,10.9,3.9,329.0
58.8,-128.16711437,0.58110978,272.0,-123.70961,-26.075989,168.487335,11.0,3.6,332.0
59.0,-128.16711195,0.58096216,265.0,-110.737427,-26.967577,164.200714,11.2,3.3,335.0
59.2,-128.16709921,0.5808157,256.0,-98.358353,-27.059542,159.870728,11.3,3.1,338.0
59.4,-128.16707847,0.58068193,247.0,-86.867935,-26.408731,156.058502,11.5,2.9,341.0
59.6,-128.16704281,0.58052742,237.0,-73.752289,-24.795359,152.016418,11.6,2.7,345.0
59.8,-128.16700145,0.58039944,228.0,-63.298508,-22.861162,149.152618,11.7,2.6,348.0
60.0,-128.1669406,0.58025072,217.0,-51.453941,-19.994926,146.530914,11.8,2.4,352.0
60.2,-128.16687288,0.58011584,209.0,-41.883007,-17.115761,144.906799,11.8,2.3,355.0
60.4,-128.16679715,0.57998098,200.0,-33.488266,-14.079746,143.890656,11.7,2.3,358.0
60.6,-128.16671798,0.57985649,192.0,-26.452829,-11.254821,143.454346,11.6,2.4,361.0
60.8,-128.16662506,0.57971933,185.0,-19.4014,-8.333785,143.454681,11.4,2.6,363.0
61.0,-128.1665287,0.57958333,179.0,-12.132265,-5.479487,143.907623,11.2,2.6,365.0
61.2,-128.16642432,0.57944272,174.0,-5.378497,-2.7251,144.707611,11.0,2.6,366.0
61.4,-128.16632109,0.57930672,169.0,-1.476632,-0.714114,145.554321,10.2,2.8,368.0
61.6,-128.16621212,0.5791615,166.0,0.695987,0.827986,146.342224,9.1,3.2,369.0
61.8,-128.16610315,0.57901513,163.0,1.961895,1.88802,146.918488,7.8,3.5,371.0
62.0,-128.16600106,0.57887914,161.0,2.849678,2.79843,147.212708,6.9,3.5,372.0
62.2,-128.16589438,0.57873392,160.0,3.598342,3.480601,147.264069,5.9,3.3,373.0
62.4,-128.16578655,0.57858639,160.0,4.132402,3.989392,147.058136,5.0,2.9,374.0
62.6,-128.16567873,0.57843656,160.0,4.240421,4.455659,146.693726,4.2,2.4,375.0
62.8,-128.1655709,0.57828672,160.0,3.761115,4.664754,146.269745,3.4,1.8,377.0
63.0,-128.16546078,0.57813228,161.0,2.225334,4.861874,145.893463,2.8,1.4,378.0
63.2,-128.16535295,0.57798014,162.0,-0.038165,5.062644,145.668823,2.3,1.2,379.0
63.4,-128.16524626,0.57782915,163.0,-2.883757,5.299268,145.612732,2.0,1.2,380.0
63.6,-128.16513843,0.57767932,164.0,-6.285204,5.796351,145.68866,2.0,1.5,381.0
63.8,-128.1650329,0.57753064,166.0,-10.778052,6.69226,145.815399,2.3,2.0,382.0
64.0,-128.16492393,0.57737965,167.0,-16.40947,8.05071,145.849121,2.8,2.7,383.0
64.2,-128.16481151,0.57722636,169.0,-21.302032,9.535567,145.668304,3.1,3.6,383.0
