Time,Longitude,Latitude,Altitude,Roll,Pitch,Yaw,AOA,AOS,TAS
20.1,-128.12212945,0.47623209,2409.0,56.011272,2.47117,-40.288437,2.1,-0.0,667.0
20.15,-128.12218564,0.476294905,2409.5,54.8960245,2.6284205,-39.938782,2.1,0.05,667.0
20.2,-128.12224183,0.47635772,2410.0,53.780777,2.785671,-39.589127,2.1,0.1,667.0
20.25,-128.12228884,0.476410165,2410.0,52.5107745,3.03446,-39.1333925,2.1500000000000004,0.1,667.0
20.3,-128.12233585,0.47646261,2410.0,51.240772,3.283249,-38.677658,2.2,0.1,667.0
20.35,-128.12239433500002,0.47653004,2410.5,50.379997,3.4518705,-38.3687745,2.2,0.1,666.5
20.4,-128.12245282,0.47659747,2411.0,49.519222,3.620492,-38.059891,2.2,0.1,666.0
20.45,-128.12250041,0.47665453,2411.5,48.4344765,3.9393565,-37.597069000000005,2.2,0.1,666.0
20.5,-128.122548,0.47671159,2412.0,47.349731,4.258221,-37.134247,2.2,0.1,666.0
20.55,-128.122603615,0.476777865,2412.0,46.4440265,4.533407,-36.7416385,2.3,0.1,666.0
20.6,-128.12265923,0.47684414,2412.0,45.538322,4.808593,-36.34903,2.4,0.1,666.0
20.65,-128.12271198500002,0.476912155,2413.0,44.746439,5.0456255,-36.069115,2.4,0.15,665.5
20.7,-128.12276474,0.47698017,2414.0,43.954556,5.282658,-35.7892,2.4,0.2,665.0
20.75,-128.12280545,0.477031465,2414.5,43.03737099999999,5.552679,-35.5451125,2.4,0.2,665.0
20.8,-128.12284616,0.47708276,2415.0,42.120186,5.8227,-35.301025,2.4,0.2,665.0
20.85,-128.12290178,0.477156535,2415.5,41.414738,6.0303855,-35.113273500000005,2.35,0.2,665.0
20.9,-128.1229574,0.47723031,2416.0,40.70929,6.238071,-34.925522,2.3,0.2,665.0
20.95,-128.12300442,0.477293135,2417.0,39.930216,6.4911525,-34.671593,2.25,0.15,665.0
21.0,-128.12305144,0.47735596,2418.0,39.151142,6.744234,-34.417664,2.2,0.1,665.0
21.05,-128.123068645,0.477379015,2418.0,38.789549,6.863251999999999,-34.296753,2.2,0.1,665.0
21.1,-128.12308585,0.47740207,2418.0,38.427956,6.98227,-34.175842,2.2,0.1,665.0
21.15,-128.12316556000002,0.4775133099999999,2419.5,37.707056,7.243986,-33.90979,2.1500000000000004,0.05,664.5
21.2,-128.12324527,0.47762455,2421.0,36.986156,7.505702,-33.643738,2.1,-0.0,664.0
21.25,-128.12328828,0.477685075,2422.0,36.2960945,7.813131500000001,-33.330841,2.1,0.0,663.5
21.3,-128.12333129,0.4777456,2423.0,35.606033,8.120561,-33.017944,2.1,-0.0,663.0
21.35,-128.12337889000003,0.477816495,2424.0,35.13529,8.3302815,-32.804512,2.1,0.0,663.0
21.4,-128.12342649,0.47788739,2425.0,34.664547,8.540002,-32.59108,2.1,0.0,663.0
21.45,-128.123467205,0.47794676,2426.0,33.9740945,8.84588,-32.3217315,2.05,0.05,662.5
21.5,-128.12350792,0.47800613,2427.0,33.283642,9.151758,-32.052383,2.0,0.1,662.0
21.55,-128.12355724000005,0.478081065,2428.5,32.6154225,9.447558999999998,-31.7974315,2.0,0.1,662.0
21.6,-128.12360656,0.478156,2430.0,31.947203,9.74336,-31.54248,2.0,0.1,662.0
21.65,-128.123640975,0.478209605,2431.0,31.2836305,9.9586655,-31.360939,2.0,0.1,662.0
21.7,-128.12367539,0.47826321,2432.0,30.620058,10.173971,-31.179398,2.0,0.1,662.0
21.75,-128.12371668,0.478326615,2433.0,30.024245,10.3308035,-31.049721,1.95,0.15,661.5
21.8,-128.12375797,0.47839002,2434.0,29.428432,10.487636,-30.920044,1.9,0.2,661.0
21.85,-128.12381303,0.478478215,2436.5,28.850739,10.6396975,-30.7942885,1.7999999999999998,0.2,661.0
21.9,-128.12386809,0.47856641,2439.0,28.273046,10.791759,-30.668533,1.7,0.2,661.0
21.95,-128.1239048,0.4786257849999999,2440.0,27.4337125,11.033426,-30.4586715,1.7,0.25,660.5
22.0,-128.12394151,0.47868516,2441.0,26.594379,11.275093,-30.24881,1.7,0.3,660.0
22.05,-128.12398682,0.4787589399999999,2443.0,25.834609,11.495573,-30.056595,1.7,0.3,659.5
22.1,-128.12403213,0.47883272,2445.0,25.074839,11.716053,-29.86438,1.7,0.3,659.0
22.15,-128.124071135,0.4788984349999999,2446.5,24.404129,11.9439945,-29.71756,1.65,0.3,659.0
22.2,-128.12411014,0.47896415,2448.0,23.733419,12.171936,-29.57074,1.6,0.3,659.0
22.25,-128.124154305,0.47903851,2450.0,22.7151515,12.554722,-29.373108,1.65,0.3,658.5
22.3,-128.12419847,0.47911287,2452.0,21.696884,12.937508,-29.175476,1.7,0.3,658.0
22.35,-128.12423575000005,0.479175705,2453.5,21.1937705,13.1266375,-29.077835,1.75,0.35,657.5
22.4,-128.12427303,0.47923854,2455.0,20.690657,13.315767,-28.980194,1.8,0.4,657.0
22.45,-128.12430802,0.47929964,2457.0,19.7403425,13.683657,-28.835098,1.8,0.45,657.0
22.5,-128.12434301,0.47936074,2459.0,18.790028,14.051547,-28.690002,1.8,0.5,657.0
22.55,-128.12438718,0.47943741,2461.0,17.9115505,14.3927145,-28.5598675,1.85,0.55,656.5
22.6,-128.12443135,0.47951408,2463.0,17.033073,14.733882,-28.429733,1.9,0.6,656.0
22.65,-128.12446519000002,0.479573455,2465.0,16.4159315,14.977962,-28.360481,1.9,0.6,655.5
22.7,-128.12449903,0.47963283,2467.0,15.79879,15.222042,-28.291229,1.9,0.6,655.0
22.75,-128.12453976,0.47970604,2469.0,14.7746435,15.63379,-28.210022,1.9,0.6,654.5
22.8,-128.12458049,0.47977925,2471.0,13.750497,16.045538,-28.128815,1.9,0.6,654.0
22.85,-128.124617775,0.47984554,2473.5,13.220345,16.2586825,-28.086777,1.9,0.6,653.5
22.9,-128.12465506,0.47991183,2476.0,12.690193,16.471827,-28.044739,1.9,0.6,653.0
22.95,-128.124692345,0.479979275,2478.5,11.7510235,16.800837,-28.052208,1.85,0.55,652.5
23.0,-128.12472963,0.48004672,2481.0,10.811854,17.129847,-28.059677,1.8,0.5,652.0
23.05,-128.124765195,0.480111285,2483.0,10.1186705,17.367676000000003,-28.073631,1.8,0.45,651.5
23.1,-128.12480076,0.48017585,2485.0,9.425487,17.605505,-28.087585,1.8,0.4,651.0
23.15,-128.12483862,0.480245025,2487.5,8.739907500000001,17.757828500000002,-28.1303555,1.7000000000000002,0.4,650.5
23.2,-128.12487648,0.4803142,2490.0,8.054328,17.910152,-28.173126,1.6,0.4,650.0
23.25,-128.124912045,0.48037934,2492.5,7.2113575,18.004975,-28.258026,1.4500000000000002,0.35,649.5
23.3,-128.12494761,0.48044448,2495.0,6.368387,18.099798,-28.342926,1.3,0.3,649.0
23.35,-128.12498088,0.480505005,2497.5,5.882232500000001,18.1544845,-28.3918915,1.2000000000000002,0.25,649.0
23.4,-128.12501415,0.48056553,2500.0,5.396078,18.209171,-28.440857,1.1,0.2,649.0
23.45,-128.12505316,0.48063759,2503.0,4.4571075,18.185457,-28.572113,0.95,0.2,648.5
23.5,-128.12509217,0.48070965,2506.0,3.518137,18.161743,-28.703369,0.8,0.2,648.0
23.55,-128.12512543999998,0.480770755,2508.5,2.799999,18.125287,-28.8089445,0.6000000000000001,0.15,647.5
23.6,-128.12515871,0.48083186,2511.0,2.081861,18.088831,-28.91452,0.4,0.1,647.0
23.65,-128.125183375,0.480876245,2512.5,1.509712,18.074445,-28.995918,0.35,0.05,646.5
23.7,-128.12520804,0.48092063,2514.0,0.937563,18.060059,-29.077316,0.3,-0.0,646.0
23.75,-128.12523844499998,0.480977125,2516.0,0.1285254999999999,18.0614245,-29.188408,0.25,-0.05,646.0
23.8,-128.12526885,0.48103362,2518.0,-0.680512,18.06279,-29.2995,0.2,-0.1,646.0
23.85,-128.12530097500002,0.4810924199999999,2520.0,-1.182812,18.063637,-29.368462,0.2,-0.2,645.5
23.9,-128.1253331,0.48115122,2522.0,-1.685112,18.064484,-29.437424,0.2,-0.3,645.0
23.95,-128.125379565,0.481234805,2526.5,-2.2004305,18.25923,-29.5710375,0.15,-0.35,644.0
24.0,-128.12542603,0.48131839,2531.0,-2.715749,18.453976,-29.704651,0.1,-0.4,643.0
24.05,-128.12547077,0.481399095,2534.5,-3.1157060000000003,18.668421,-29.8288805,0.2,-0.5,642.5
24.1,-128.12551551,0.4814798,2538.0,-3.515663,18.882866,-29.95311,0.3,-0.6,642.0
24.15,-128.12555337,0.481547245,2541.5,-3.480179,19.038193,-30.035454,0.4,-0.6499999999999999,641.5
24.2,-128.12559123,0.48161469,2545.0,-3.444695,19.19352,-30.117798,0.5,-0.7,641.0
24.25,-128.12562737000002,0.481679825,2547.5,-2.311704,19.4978305,-30.254234500000003,0.55,-0.8,640.5
24.3,-128.12566351,0.48174496,2550.0,-1.178713,19.802141,-30.390671,0.6,-0.9,640.0
24.35,-128.12570309,0.481815865,2553.5,-0.4843524999999999,19.9886395,-30.4743045,0.6,-1.0,639.0
24.4,-128.12574267,0.48188677,2557.0,0.210008,20.175138,-30.557938,0.6,-1.1,638.0
24.45,-128.12577479499998,0.481943265,2559.5,2.4909995,20.767167,-30.466408,0.75,-1.15,637.5
24.5,-128.12580692,0.48199976,2562.0,4.771991,21.359196,-30.374878,0.9,-1.2,637.0
24.55,-128.1258465,0.48207124,2565.5,7.1130495,21.965799500000003,-30.2629625,1.2,-1.2999999999999998,636.0
24.6,-128.12588608,0.48214272,2569.0,9.454108,22.572403,-30.151047,1.5,-1.4,635.0
24.65,-128.12591935,0.482201515,2572.0,11.186303,23.05507,-29.9526065,1.75,-1.6,634.5
24.7,-128.12595262,0.48226031,2575.0,12.918498,23.537737,-29.754166,2.0,-1.8,634.0
24.75,-128.12598990499998,0.482327755,2578.5,17.07136,24.8106765,-28.8826755,2.4,-1.95,633.5
24.8,-128.12602719,0.4823952,2582.0,21.224222,26.083616,-28.011185,2.8,-2.1,633.0
24.85,-128.12606103500002,0.48245919,2585.5,23.5405665,26.793624,-27.525085500000003,3.2,-2.3,631.5
24.9,-128.12609488,0.48252318,2589.0,25.856911,27.503632,-27.038986,3.6,-2.5,630.0
24.95,-128.12612414,0.48258025,2592.0,29.7167895,28.414611,-25.798874,3.85,-2.65,629.5
25.0,-128.1261534,0.48263732,2595.0,33.576668,29.32559,-24.558762,4.1,-2.8,629.0
25.05,-128.12618552499998,0.48270073,2599.0,36.7970695,30.061514,-23.485962,4.4,-2.85,628.0
25.1,-128.12621765,0.48276414,2603.0,40.017471,30.797438,-22.413162,4.7,-2.9,627.0
25.15,-128.12624921,0.48283332,2607.0,43.486168,31.289163,-21.1658705,4.9,-3.05,625.5
25.2,-128.12628077,0.4829025,2611.0,46.954865,31.780888,-19.918579,5.1,-3.2,624.0
25.25,-128.126307165,0.48296015,2614.5,50.6187385,32.0956365,-18.5387115,5.199999999999999,-3.2,622.5
25.3,-128.12633356,0.4830178,2618.0,54.282612,32.410385,-17.158844,5.3,-3.2,621.0
25.35,-128.126359965,0.48308583,2622.5,56.8620625,32.631977,-16.1873705,5.449999999999999,-3.25,620.0
25.4,-128.12638637,0.48315386,2627.0,59.441513,32.853569,-15.215897,5.6,-3.3,619.0
25.45,-128.12640646,0.4832080549999999,2630.5,63.3032455,32.650345,-14.055504,5.55,-3.25,617.5
25.5,-128.12642655,0.48326225,2634.0,67.164978,32.447121,-12.895111,5.5,-3.2,616.0
25.55,-128.12644721499998,0.483319905,2637.5,70.217022,32.251303,-11.9973375,5.45,-3.05,615.0
25.6,-128.12646788,0.48337756,2641.0,73.269066,32.055485,-11.099564,5.4,-2.9,614.0
25.65,-128.126488555,0.483448475,2645.5,76.137558,31.732668,-10.3040695,5.300000000000001,-2.8,612.5
25.7,-128.12650923,0.48351939,2650.0,79.00605,31.409851,-9.508575,5.2,-2.7,611.0
25.75,-128.126526465,0.48358051,2654.0,82.489891,30.778907500000003,-8.625526,5.050000000000001,-2.55,610.0
25.8,-128.1265437,0.48364163,2658.0,85.973732,30.147964,-7.742477,4.9,-2.4,609.0
25.85,-128.12655979,0.483710245,2662.5,88.2394945,29.737623,-7.1681595,4.75,-2.2,608.0
25.9,-128.12657588,0.48377886,2667.0,90.505257,29.327282,-6.593842,4.6,-2.0,607.0
25.95,-128.12659025,0.4838440149999999,2670.5,93.377594,28.483676000000003,-5.572205,4.55,-1.8,606.0
26.0,-128.12660462,0.48390917,2674.0,96.249931,27.64007,-4.550568,4.5,-1.6,605.0
26.05,-128.126615545,0.483964525,2677.5,97.991333,27.102357,-3.907341,4.55,-1.4,604.5
26.1,-128.12662647,0.48401988,2681.0,99.732735,26.564644,-3.264114,4.6,-1.2,604.0
26.15,-128.126636835,0.484090225,2685.0,100.9798965,26.0744775,-2.853752,4.5,-1.0,602.5
26.2,-128.1266472,0.48416057,2689.0,102.227058,25.584311,-2.44339,4.4,-0.8,601.0
26.25,-128.12665584,0.484223425,2692.5,103.0165785,25.043364,-2.293991,4.15,-0.7,600.0
26.3,-128.12666448,0.48428628,2696.0,103.806099,24.502417,-2.144592,3.9,-0.6,599.0
26.35,-128.126672555,0.484359515,2700.0,104.3286475,24.1443855,-2.0457075,3.65,-0.4,598.5
26.4,-128.12668063,0.48443275,2704.0,104.851196,23.786354,-1.946823,3.4,-0.2,598.0
26.45,-128.12668583,0.48449099,2707.0,103.586952,23.538828,-2.199852,3.0,-0.1,597.0
26.5,-128.12669103,0.48454923,2710.0,102.322708,23.291302,-2.452881,2.6,0.0,596.0
26.55,-128.126697385,0.484623045,2713.5,100.958759,23.090602,-2.725052,2.0,0.1,595.5
26.6,-128.12670374,0.48469686,2717.0,99.59481,22.889902,-2.997223,1.4,0.2,595.0
26.65,-128.12670780000002,0.484759715,2720.0,98.0645025,22.7693755,-3.034416,1.15,0.25,594.5
26.7,-128.12671186,0.48482257,2723.0,96.534195,22.648849,-3.071609,0.9,0.3,594.0
26.75,-128.12671706999998,0.484895805,2727.0,93.080353,22.490653,-2.8638305,0.7,0.35,593.0
26.8,-128.12672228,0.48496904,2731.0,89.626511,22.332457,-2.656052,0.5,0.4,592.0
26.85,-128.12672519,0.485025555,2733.5,88.0483975,22.260174,-2.5611420000000003,0.4,0.4,591.5
26.9,-128.1267281,0.48508207,2736.0,86.470284,22.187891,-2.466232,0.3,0.4,591.0
26.95,-128.12673158500002,0.48515185,2739.5,82.0335965,22.05917,-2.202751,0.2,0.45,590.5
27.0,-128.12673507,0.48522163,2743.0,77.596909,21.930449,-1.93927,0.1,0.5,590.0
27.05,-128.12673798499998,0.4852885249999999,2746.0,74.1667865,21.8373795,-1.73584,0.05,0.5,589.5
27.1,-128.1267409,0.48535542,2749.0,70.736664,21.74431,-1.53241,-0.0,0.5,589.0
27.15,-128.12674324,0.485418855,2752.0,67.585739,21.6552425,-1.3841555,-0.05,0.5,588.5
27.2,-128.12674558,0.48548229,2755.0,64.434814,21.566175,-1.235901,-0.1,0.5,588.0
27.25,-128.12674793000002,0.485557835,2758.5,58.823265000000006,21.402208,-1.029648,-0.2,0.55,587.0
27.3,-128.12675028,0.48563338,2762.0,53.211716,21.238241,-0.823395,-0.3,0.6,586.0
27.35,-128.12675147,0.485693355,2764.5,50.6520445,21.163448,-0.729309,-0.35,0.6499999999999999,585.5
27.4,-128.12675266,0.48575333,2767.0,48.092373,21.088655,-0.635223,-0.4,0.7,585.0
27.45,-128.12675385,0.485813305,2770.0,43.0139715,20.968869,-0.4335859999999999,-0.45,0.75,584.5
27.5,-128.12675504,0.48587328,2773.0,37.93557,20.849083,-0.231949,-0.5,0.8,584.0
27.55,-128.12675624500002,0.4859482499999999,2776.0,33.1972755,20.740155,-0.0423355,-0.6,0.8500000000000001,583.5
27.6,-128.12675745,0.48602322,2779.0,28.458981,20.631227,0.147278,-0.7,0.9,583.0
27.65,-128.12675864,0.486084345,2782.0,24.959557,20.5873115,0.281929,-0.7,1.0,582.5
27.7,-128.12675983,0.48614547,2785.0,21.460133,20.543396,0.41658,-0.7,1.1,582.0
27.75,-128.12676103,0.48621871,2788.0,15.475953,20.529462,0.63784,-0.7,1.15,581.5
27.8,-128.12676223,0.48629195,2791.0,9.491773,20.515528,0.8591,-0.7,1.2,581.0
27.85,-128.12676284999998,0.4863501999999999,2794.0,6.796327,20.5092525,0.958763,-0.75,1.2999999999999998,580.5
27.9,-128.12676347,0.48640845,2797.0,4.100881,20.502977,1.058426,-0.8,1.4,580.0
27.95,-128.126764095,0.486477075,2800.0,-0.9195289999999998,20.590797,1.1338195,-0.8,1.45,579.5
28.0,-128.12676472,0.4865457,2803.0,-5.939939,20.678617,1.209213,-0.8,1.5,579.0
28.05,-128.12676534000002,0.48660683,2805.5,-9.187325,20.744503,1.2479170000000002,-0.8,1.5,578.5
28.1,-128.12676596,0.48666796,2808.0,-12.434711,20.810389,1.286621,-0.8,1.5,578.0
28.15,-128.12676716,0.48673947,2811.0,-15.632504,20.8863395,1.268852,-0.8,1.55,577.0
28.2,-128.12676836,0.48681098,2814.0,-18.830297,20.96229,1.251083,-0.8,1.6,576.0
28.25,-128.12676898,0.486874415,2817.0,-22.2406995,21.0558475,1.168762,-0.8,1.65,575.5
28.3,-128.1267696,0.48693785,2820.0,-25.651102,21.149405,1.086441,-0.8,1.7,575.0
28.35,-128.12677079999995,0.48701051,2823.0,-27.875285,21.210421,1.0327455,-0.8,1.75,574.5
28.4,-128.126772,0.48708317,2826.0,-30.099468,21.271437,0.97905,-0.8,1.8,574.0
28.45,-128.12677319,0.4871414149999999,2829.0,-32.777908,21.297473,0.820702,-0.8,1.8,573.5
28.5,-128.12677438,0.48719966,2832.0,-35.456348,21.323509,0.662354,-0.8,1.8,573.0
28.55,-128.12677558,0.487274055,2835.0,-37.747335,21.341669000000003,0.518784,-0.8,1.75,572.5
28.6,-128.12677678,0.48734845,2838.0,-40.038322,21.359829,0.375214,-0.8,1.7,572.0
28.65,-128.12677854499998,0.48740554,2840.5,-41.6392535,21.336006,0.2735215,-0.8,1.7,572.0
28.7,-128.12678031,0.48746263,2843.0,-43.240185,21.312183,0.171829,-0.8,1.7,572.0
28.75,-128.12678207,0.4875208749999999,2845.5,-45.3559535,21.2330225,0.0356675,-0.8500000000000001,1.6,571.5
28.8,-128.12678383,0.48757912,2848.0,-47.471722,21.153862,-0.100494,-0.9,1.5,571.0
28.85,-128.12678501,0.48761949,2849.5,-48.662325,21.109317,-0.177116,-0.95,1.5,571.0
28.9,-128.12678619,0.48765986,2851.0,-49.852928,21.064772,-0.253738,-1.0,1.5,571.0
28.95,-128.126789115,0.487740595,2854.5,-52.2190685,20.970899000000003,-0.419746,-1.05,1.4,570.0
29.0,-128.12679204,0.48782133,2858.0,-54.585209,20.877026,-0.585754,-1.1,1.3,569.0
29.05,-128.12679437999998,0.487886495,2860.5,-56.378647,20.8053095,-0.713028,-1.15,1.25,568.5
29.1,-128.12679672,0.48795166,2863.0,-58.172085,20.733593,-0.840302,-1.2,1.2,568.0
29.15,-128.12680021,0.488024895,2866.5,-59.3635465,20.684573,-0.930489,-1.25,1.2,567.5
29.2,-128.1268037,0.48809813,2870.0,-60.555008,20.635553,-1.020676,-1.3,1.2,567.0
29.25,-128.12680719500003,0.488174255,2873.5,-63.0331575,20.5205565,-1.2615815,-1.3,1.2,566.5
29.3,-128.12681069,0.48825038,2877.0,-65.511307,20.40556,-1.502487,-1.3,1.2,566.0
29.35,-128.1268136,0.488308045,2879.0,-66.595486,20.3552485,-1.607872,-1.3,1.15,566.0
29.4,-128.12681651,0.48836571,2881.0,-67.679665,20.304937,-1.713257,-1.3,1.1,566.0
29.45,-128.12681999,0.488420495,2883.5,-69.192936,20.2181225,-1.9396745,-1.25,1.1,565.5
29.5,-128.12682347,0.48847528,2886.0,-70.706207,20.131308,-2.166092,-1.2,1.1,565.0
29.55,-128.12682753,0.488543325,2888.5,-72.15571600000001,20.043894,-2.4033205,-1.2,1.1,565.0
29.6,-128.12683159,0.48861137,2891.0,-73.605225,19.95648,-2.640549,-1.2,1.1,565.0
29.65,-128.12683737499998,0.488686915,2894.0,-74.6446115,19.883527,-2.855812,-1.15,1.1,564.5
29.7,-128.12684316,0.48876246,2897.0,-75.683998,19.810574,-3.071075,-1.1,1.1,564.0
29.75,-128.126847215,0.4888189699999999,2899.0,-76.84968950000001,19.6933235,-3.4682235,-1.05,1.1,563.5
29.8,-128.12685127,0.48887548,2901.0,-78.015381,19.576073,-3.865372,-1.0,1.1,563.0
29.85,-128.12685532,0.48892738,2903.0,-78.67536150000001,19.5096895,-4.0902175,-0.95,1.1,563.0
29.9,-128.12685937,0.48897928,2905.0,-79.335342,19.443306,-4.315063,-0.9,1.1,563.0
29.95,-128.12686687500002,0.489060015,2908.5,-80.42461,19.290162,-4.8095775,-0.8,1.1,562.5
30.0,-128.12687438,0.48914075,2912.0,-81.513878,19.137018,-5.304092,-0.7,1.1,562.0
30.05,-128.126880735,0.489205335,2914.5,-82.281418,19.0171985,-5.6862715,-0.6,1.1,561.5
30.1,-128.12688709,0.48926992,2917.0,-83.048958,18.897379,-6.068451,-0.5,1.1,561.0
30.15,-128.126894585,0.48933796,2919.5,-83.73622900000001,18.783223,-6.441307,-0.4,1.1,560.5
30.2,-128.12690208,0.489406,2922.0,-84.4235,18.669067,-6.814163,-0.3,1.1,560.0
30.25,-128.126909575,0.489467705,2924.0,-85.364273,18.5008945,-7.377769499999999,-0.2,1.1,560.0
30.3,-128.12691707,0.48952941,2926.0,-86.305046,18.332722,-7.941376,-0.1,1.1,560.0
30.35,-128.12692629,0.48959918,2928.5,-86.902931,18.2258425,-8.2995605,0.0,1.1,559.5
30.4,-128.12693551,0.48966895,2931.0,-87.500816,18.118963,-8.657745,0.1,1.1,559.0
30.45,-128.126944725,0.489735265,2933.5,-88.511871,17.907647,-9.3245925,0.2,1.1,558.5
30.5,-128.12695394,0.48980158,2936.0,-89.522926,17.696331,-9.99144,0.3,1.1,558.0
30.55,-128.12696258,0.48985982,2938.0,-90.2175255,17.5487415,-10.4543915,0.4,1.1,557.5
30.6,-128.12697122,0.48991806,2940.0,-90.912125,17.401152,-10.917343,0.5,1.1,557.0
30.65,-128.12698445,0.489990135,2942.5,-91.60886,17.2175485,-11.4733505,0.6,1.15,557.0
30.7,-128.12699768,0.49006221,2945.0,-92.305595,17.033945,-12.029358,0.7,1.2,557.0
30.75,-128.127008035,0.4901221799999999,2947.0,-93.0697515,16.7801695,-12.774208,0.85,1.2,556.5
30.8,-128.12701839,0.49018215,2949.0,-93.833908,16.526394,-13.519058,1.0,1.2,556.0
30.85,-128.12703334,0.490253645,2951.0,-94.355648,16.3531245,-14.027603,1.2,1.15,555.5
30.9,-128.12704829,0.49032514,2953.0,-94.877388,16.179855,-14.536148,1.4,1.1,555.0
30.95,-128.12706036,0.49038107,2955.0,-95.4664,15.862229,-15.401497,1.6,1.1,554.5
31.0,-128.12707243,0.490437,2957.0,-96.055412,15.544603,-16.266846,1.8,1.1,554.0
31.05,-128.12708795,0.490504465,2959.0,-96.5598675,15.2569905,-17.045174000000003,2.0,1.05,554.0
31.1,-128.12710347,0.49057193,2961.0,-97.064323,14.969378,-17.823502,2.2,1.0,554.0
31.15,-128.12712013,0.49063362,2963.0,-97.4225845,14.721639,-18.4519655,2.35,1.0,553.5
31.2,-128.12713679,0.49069531,2965.0,-97.780846,14.4739,-19.080429,2.5,1.0,553.0
31.25,-128.12715459999998,0.49076277,2967.0,-98.2533875,14.0701265,-20.0434495,2.7,1.0,552.5
31.3,-128.12717241,0.49083023,2969.0,-98.725929,13.666353,-21.00647,2.9,1.0,552.0
31.35,-128.12719021499998,0.490886735,2970.5,-98.957935,13.4681115,-21.479294,3.0,1.0,552.0
31.4,-128.12720802,0.49094324,2972.0,-99.189941,13.26987,-21.952118,3.1,1.0,552.0
31.45,-128.127230985,0.491014155,2974.0,-99.518459,12.842692499999998,-22.884598,3.2,0.95,551.5
31.5,-128.12725395,0.49108507,2976.0,-99.846977,12.415515,-23.817078,3.3,0.9,551.0
31.55,-128.1272729,0.49114157,2977.5,-100.030956,12.1597265,-24.3690185,3.35,0.9,550.5
31.6,-128.12729185,0.49119807,2979.0,-100.214935,11.903938,-24.920959,3.4,0.9,550.0
31.65,-128.12731825,0.4912649449999999,2980.5,-100.3730315,11.6065885,-25.557167,3.45,0.9,549.5
31.7,-128.12734465,0.49133182,2982.0,-100.531128,11.309239,-26.193375,3.5,0.9,549.0
31.75,-128.12736474000002,0.4913854399999999,2983.0,-100.6567305,10.9533985,-26.948578,3.55,0.8500000000000001,549.0
31.8,-128.12738483,0.49143906,2984.0,-100.782333,10.597558,-27.703781,3.6,0.8,549.0
31.85,-128.12741123,0.49149959,2985.5,-100.8635595,10.367428,-28.192177,3.65,0.8,548.5
31.9,-128.12743763,0.49156012,2987.0,-100.944786,10.137298,-28.680573,3.7,0.8,548.0
31.95,-128.12746632,0.491624115,2988.5,-101.0075875,9.7300985,-29.5206835,3.7,0.75,548.0
32.0,-128.12749501,0.49168811,2990.0,-101.070389,9.322899,-30.360794,3.7,0.7,548.0
32.05,-128.12752312499998,0.491748065,2991.5,-101.107235,9.0350215,-30.952461,3.7,0.7,548.0
32.1,-128.12755124,0.49180802,2993.0,-101.144081,8.747144,-31.544128,3.7,0.7,548.0
32.15,-128.127582795,0.491869125,2994.0,-101.1423645,8.49022,-32.0306395,3.7,0.7,547.5
32.2,-128.12761435,0.49193023,2995.0,-101.140648,8.233296,-32.517151,3.7,0.7,547.0
32.25,-128.12764246,0.491984415,2996.0,-101.0840875,7.913442499999999,-33.0574875,3.65,0.7,547.0
32.3,-128.12767057,0.4920386,2997.0,-101.027527,7.593589,-33.597824,3.6,0.7,547.0
32.35,-128.12770613499998,0.492100855,2998.0,-100.9906275,7.3849415,-33.9503095,3.55,0.7,547.0
32.4,-128.1277417,0.49216311,2999.0,-100.953728,7.176294,-34.302795,3.5,0.7,547.0
32.45,-128.12777440000002,0.4922196,3000.0,-100.7531055,6.90278,-34.650619500000005,3.3,0.7,546.5
32.5,-128.1278071,0.49227609,3001.0,-100.552483,6.629266,-34.998444,3.1,0.7,546.0
32.55,-128.127844955,0.492338345,3002.0,-100.3784985,6.412815500000001,-35.262276,2.9000000000000004,0.75,546.0
32.6,-128.12788281,0.4924006,3003.0,-100.204514,6.196365,-35.526108,2.7,0.8,546.0
32.65,-128.1279155,0.492451325,3003.5,-100.025429,6.0364945,-35.7212145,2.55,0.8,546.0
32.7,-128.12794819,0.49250205,3004.0,-99.846344,5.876624,-35.916321,2.4,0.8,546.0
32.75,-128.12798031,0.492552195,3004.5,-99.5081255,5.645594,-36.198685,2.25,0.8,546.0
32.8,-128.12801243,0.49260234,3005.0,-99.169907,5.414564,-36.481049,2.1,0.8,546.0
32.85,-128.12805200000005,0.492660555,3006.0,-98.949318,5.263886,-36.6651995,1.95,0.75,546.0
32.9,-128.12809157,0.49271877,3007.0,-98.728729,5.113208,-36.84935,1.8,0.7,546.0
32.95,-128.1281277,0.4927700699999999,3007.5,-98.315174,4.883525000000001,-37.248024,1.7000000000000002,0.75,546.0
33.0,-128.12816383,0.49282137,3008.0,-97.901619,4.653842,-37.646698,1.6,0.8,546.0
33.05,-128.12820569500002,0.4928807349999999,3008.5,-97.5381545,4.4560390000000005,-38.001236,1.55,0.8,546.0
33.1,-128.12824756,0.4929401,3009.0,-97.17469,4.258236,-38.355774,1.5,0.8,546.0
33.15,-128.128288275,0.492994855,3009.5,-96.842674,4.0864425,-38.710747,1.45,0.8,546.0
33.2,-128.12832899,0.49304961,3010.0,-96.510658,3.914649,-39.06572,1.4,0.8,546.0
33.25,-128.12836569,0.49309918,3010.5,-96.024017,3.674623,-39.627274,1.45,0.8500000000000001,546.5
33.3,-128.12840239,0.49314875,3011.0,-95.537376,3.434597,-40.188828,1.5,0.9,547.0
33.35,-128.128445395,0.4932035,3011.5,-95.227806,3.2819075,-40.546028500000006,1.55,0.9,547.0
33.4,-128.1284884,0.49325825,3012.0,-94.918236,3.129218,-40.903229,1.6,0.9,547.0
33.45,-128.1285251,0.493303205,3012.0,-94.473713,2.9205305,-41.3131105,1.6,0.9,547.0
33.5,-128.1285618,0.49334816,3012.0,-94.02919,2.711843,-41.722992,1.6,0.9,547.0
33.55,-128.128601935,0.4933982999999999,3012.5,-93.6369245,2.52904,-42.0714875,1.55,0.9,547.0
33.6,-128.12864207,0.49344844,3013.0,-93.244659,2.346237,-42.419983,1.5,0.9,547.0
33.65,-128.12869080500002,0.49350492,3013.0,-92.8722305,2.1791715,-42.7212295,1.45,0.8500000000000001,547.0
33.7,-128.12873954,0.4935614,3013.0,-92.499802,2.012106,-43.022476,1.4,0.8,547.0
33.75,-128.12878082499998,0.49360923,3013.0,-92.02792,1.810728,-43.3572005,1.35,0.8,547.5
33.8,-128.12882211,0.49365706,3013.0,-91.556038,1.60935,-43.691925,1.3,0.8,548.0
33.85,-128.128872565,0.493712385,3013.5,-91.2382925,1.4737495,-43.917328,1.2000000000000002,0.8,548.0
33.9,-128.12892302,0.49376771,3014.0,-90.920547,1.338149,-44.142731,1.1,0.8,548.0
33.95,-128.12896487,0.49381266,3014.0,-90.4231145,1.150782,-44.5176165,1.05,0.8,548.0
34.0,-128.12900672,0.49385761,3014.0,-89.925682,0.963415,-44.892502,1.0,0.8,548.0
34.05,-128.12905603000002,0.493910625,3014.0,-89.49338549999999,0.8027120000000001,-45.2201845,1.0,0.8,548.5
34.1,-128.12910534,0.49396364,3014.0,-89.061089,0.642009,-45.547867,1.0,0.8,549.0
34.15,-128.129146615,0.49400571,3014.0,-88.749466,0.5299435,-45.8298875,1.0,0.75,549.0
34.2,-128.12918789,0.49404778,3014.0,-88.437843,0.417878,-46.111908,1.0,0.7,549.0
34.25,-128.12923949,0.49410022,3013.5,-87.87801350000001,0.2248345,-46.719078,1.05,0.7,549.0
34.3,-128.12929109,0.49415266,3013.0,-87.318184,0.031791,-47.326248,1.1,0.7,549.0
34.35,-128.12933523,0.4941953,3013.0,-87.0544165,-0.0591665,-47.6123275,1.15,0.75,549.5
34.4,-128.12937937,0.49423794,3013.0,-86.790649,-0.150124,-47.898407,1.2,0.8,550.0
34.45,-128.12942981999998,0.49428634,3013.0,-86.5332105,-0.2829565,-48.911331,1.4,0.8,550.0
34.5,-128.12948027,0.49433474,3013.0,-86.275772,-0.415789,-49.924255,1.6,0.8,550.0
34.55,-128.12952613,0.49437796,3013.0,-86.11301399999999,-0.50996,-50.734367000000006,1.85,0.8500000000000001,550.0
34.6,-128.12957199,0.49442118,3013.0,-85.950256,-0.604131,-51.544479,2.1,0.9,550.0
34.65,-128.1296253,0.49446785,3012.5,-86.031574,-0.6929730000000001,-52.2972905,2.35,0.95,550.5
34.7,-128.12967861,0.49451452,3012.0,-86.112892,-0.781815,-53.050102,2.6,1.0,551.0
34.75,-128.129726765,0.49455658,3011.5,-86.839985,-0.9264695,-54.246803,2.9000000000000004,1.05,551.0
34.8,-128.12977492,0.49459864,3011.0,-87.567078,-1.071124,-55.443504,3.2,1.1,551.0
34.85,-128.12982994499998,0.494643,3011.0,-88.0076565,-1.1587785,-56.168659,3.45,1.2000000000000002,551.0
34.9,-128.12988497,0.49468736,3011.0,-88.448235,-1.246433,-56.893814,3.7,1.3,551.0
34.95,-128.129939425,0.49472942,3010.5,-90.9294665,-1.589033,-57.909382,3.85,1.4500000000000002,551.0
35.0,-128.12999388,0.49477148,3010.0,-93.410698,-1.931633,-58.92495,4.0,1.6,551.0
35.05,-128.130044895,0.4948100749999999,3009.5,-95.1606295,-2.170336,-59.5818485,4.05,1.75,551.0
35.1,-128.13009591,0.49484867,3009.0,-96.910561,-2.409039,-60.238747,4.1,1.9,551.0
35.15,-128.13015380000002,0.49488842,3008.5,-98.8857195,-2.789223,-60.9539265,4.199999999999999,2.05,551.0
35.2,-128.13021169,0.49492817,3008.0,-100.860878,-3.169407,-61.669106,4.3,2.2,551.0
35.25,-128.130262125,0.4949633049999999,3007.5,-103.801533,-3.879576,-62.699669,4.35,2.3,551.0
35.3,-128.13031256,0.49499844,3007.0,-106.742188,-4.589745,-63.730232,4.4,2.4,551.0
35.35,-128.130375035,0.49503761,3006.0,-108.7902225,-5.084346,-64.4479675,4.550000000000001,2.45,551.0
35.4,-128.13043751,0.49507678,3005.0,-110.838257,-5.578947,-65.165703,4.7,2.5,551.0
35.45,-128.13048909,0.495107305,3004.5,-112.4895785,-6.515092,-66.3629455,4.95,2.45,551.5
35.5,-128.13054067,0.49513783,3004.0,-114.1409,-7.451237,-67.560188,5.2,2.4,552.0
35.55,-128.13059798,0.49517181,3003.0,-115.480904,-8.328976,-68.6676405,5.6,2.3,552.0
35.6,-128.13065529,0.49520579,3002.0,-116.820908,-9.206715,-69.775093,6.0,2.2,552.0
35.65,-128.13071087999998,0.4952339999999999,3001.0,-117.5529025,-9.9830765,-70.6738355,6.25,2.1,552.0
35.7,-128.13076647,0.49526221,3000.0,-118.284897,-10.759438,-71.572578,6.5,2.0,552.0
35.75,-128.130829505,0.49529446,2998.5,-118.863785,-12.196638,-73.09796499999999,6.95,1.8,552.0
35.8,-128.13089254,0.49532671,2997.0,-119.442673,-13.633838,-74.623352,7.4,1.6,552.0
35.85,-128.130922915,0.4953411,2996.0,-119.664078,-14.183521,-75.2067605,7.6,1.5,552.0
35.9,-128.13095329,0.49535549,2995.0,-119.885483,-14.733204,-75.790169,7.8,1.4,552.0
35.95,-128.131043255,0.495392905,2992.5,-120.013054,-16.254016,-77.2423325,8.05,1.15,551.5
36.0,-128.13113322,0.49543032,2990.0,-120.140625,-17.774828,-78.694496,8.3,0.9,551.0
36.05,-128.13119052500002,0.49545392,2988.5,-120.1698495,-18.669236,-79.5332335,8.45,0.7,551.0
36.1,-128.13124783,0.49547752,2987.0,-120.199074,-19.563644,-80.371971,8.6,0.5,551.0
36.15,-128.1313206,0.4955011099999999,2984.0,-120.228012,-20.4955755,-81.25259,8.85,0.4,551.0
36.2,-128.13139337,0.4955247,2981.0,-120.25695,-21.427507,-82.133209,9.1,0.3,551.0
36.25,-128.1314415,0.49554023,2979.5,-120.284439,-22.374747,-83.0367775,9.2,0.25,551.0
36.3,-128.13148963,0.49555576,2978.0,-120.311928,-23.321987,-83.940346,9.3,0.2,551.0
36.35,-128.13152859500002,0.495567265,2976.5,-120.3286285,-23.897538,-84.4893645,9.35,0.15,551.0
36.4,-128.13156756,0.49557877,2975.0,-120.345329,-24.473089,-85.038383,9.4,0.1,551.0
36.45,-128.13165637,0.49560004,2970.5,-120.274685,-25.601567000000003,-86.2836795,9.3,0.05,551.0
36.5,-128.13174518,0.49562131,2966.0,-120.204041,-26.730045,-87.528976,9.2,0.0,551.0
36.55,-128.131800755,0.49563395,2963.5,-120.1335755,-27.4451675,-88.360096,9.2,0.05,551.5
36.6,-128.13185633,0.49564659,2961.0,-120.06311,-28.16029,-89.191216,9.2,0.1,552.0
36.65,-128.131906745,0.495654625,2959.0,-119.8830605,-28.6546585,-89.807892,9.25,0.1,552.0
36.7,-128.13195716,0.49566266,2957.0,-119.703011,-29.149027,-90.424568,9.3,0.1,552.0
36.75,-128.13202133,0.49567299,2953.0,-118.7244225,-29.8864355,-91.5721055,9.2,0.2,552.5
36.8,-128.1320855,0.49568332,2949.0,-117.745834,-30.623844,-92.719643,9.1,0.3,553.0
36.85,-128.13215596499998,0.495690765,2944.5,-117.1387325,-31.0813285,-93.4315645,9.0,0.3,553.5
36.9,-128.13222643,0.49569821,2940.0,-116.531631,-31.538813,-94.143486,8.9,0.3,554.0
36.95,-128.132279135,0.4957022049999999,2937.0,-114.538391,-31.882987,-95.270031,8.8,0.3,554.5
37.0,-128.13233184,0.4957062,2934.0,-112.545151,-32.227161,-96.396576,8.7,0.3,555.0
37.05,-128.132390275,0.49571019,2930.5,-110.667908,-32.502628,-97.406647,8.6,0.25,556.0
37.1,-128.13244871,0.49571418,2927.0,-108.790665,-32.778095,-98.416718,8.5,0.2,557.0
37.15,-128.132510005,0.495713555,2922.5,-107.077717,-32.940031000000005,-99.3542485,7.9,-0.2,557.0
37.2,-128.1325713,0.49571293,2918.0,-105.364769,-33.101967,-100.291779,7.3,-0.6,557.0
37.25,-128.132625145,0.49571231,2914.5,-101.9915125,-33.146330000000006,-102.186699,6.8,-0.8,558.0
37.3,-128.13267899,0.49571169,2911.0,-98.618256,-33.190693,-104.081619,6.3,-1.0,559.0
37.35,-128.132737995,0.4957076099999999,2907.0,-96.47052,-33.218933,-105.288105,6.3,-1.1,559.5
37.4,-128.132797,0.49570353,2903.0,-94.322784,-33.247173,-106.494591,6.3,-1.2,560.0
37.45,-128.132849695,0.495698295,2899.0,-91.456005,-33.001907,-108.4244045,6.8,-1.15,560.5
37.5,-128.13290239,0.49569306,2895.0,-88.589226,-32.756641,-110.354218,7.3,-1.1,561.0
37.55,-128.13296139,0.495686095,2891.0,-85.964508,-32.482774500000005,-112.1767275,7.949999999999999,-1.05,561.5
37.6,-128.13302039,0.49567913,2887.0,-83.33979,-32.208908,-113.999237,8.6,-1.0,562.0
37.65,-128.13307423,0.495666975,2883.0,-81.8075255,-32.023658,-115.032997,8.85,-1.0,561.5
37.7,-128.13312807,0.49565482,2879.0,-80.275261,-31.838408,-116.066757,9.1,-1.0,561.0
37.75,-128.13319107,0.495640935,2874.0,-77.7928275,-31.330562,-117.4943065,9.2,-0.9,561.5
37.8,-128.13325407,0.49562705,2869.0,-75.310394,-30.822716,-118.921856,9.3,-0.8,562.0
37.85,-128.13330274999998,0.49561259,2865.5,-74.195667,-30.5946695,-119.562893,9.3,-0.75,562.0
37.9,-128.13335143,0.49559813,2862.0,-73.08094,-30.366623,-120.20393,9.3,-0.7,562.0
37.95,-128.13340985000002,0.49557848,2857.5,-71.435539,-30.050175,-120.786854,9.15,-0.6499999999999999,562.5
38.0,-128.13346827,0.49555883,2853.0,-69.790138,-29.733727,-121.369778,9.0,-0.6,563.0
38.05,-128.133523245,0.4955391799999999,2849.0,-68.57447049999999,-29.503936,-121.7282145,8.65,-0.55,564.0
38.1,-128.13357822,0.49551953,2845.0,-67.358803,-29.274145,-122.086651,8.3,-0.5,565.0
38.15,-128.13362747000002,0.495497575,2841.0,-66.3553505,-29.1308,-122.221327,8.0,-0.5,565.0
38.2,-128.13367672,0.49547562,2837.0,-65.351898,-28.987455,-122.356003,7.7,-0.5,565.0
38.25,-128.13373284,0.49545078,2832.5,-62.931944,-28.7690105,-122.238102,7.15,-0.5,565.5
38.3,-128.13378896,0.49542594,2828.0,-60.51199,-28.550566,-122.120201,6.6,-0.5,566.0
38.35,-128.13384164,0.495400525,2824.0,-59.261345,-28.437671,-122.059265,6.1,-0.45,567.0
38.4,-128.13389432,0.49537511,2820.0,-58.0107,-28.324776,-121.998329,5.6,-0.4,568.0
38.45,-128.13395273,0.495345075,2815.5,-54.798889,-28.3061705,-121.577753,5.0,-0.4,569.0
38.5,-128.13401114,0.49531504,2811.0,-51.587078,-28.287565,-121.157177,4.4,-0.4,570.0
38.55,-128.13406153,0.49528905,2807.5,-49.433241,-28.290699,-120.859949,3.85,-0.3,571.0
38.6,-128.13411192,0.49526306,2804.0,-47.279404,-28.293833,-120.562721,3.3,-0.2,572.0
38.65,-128.13416975500002,0.4952312949999999,2799.5,-44.847073,-28.3365605,-120.319677,2.8,-0.1,573.0
38.7,-128.13422759,0.49519953,2795.0,-42.414742,-28.379288,-120.076633,2.3,-0.0,574.0
38.75,-128.13427912499998,0.495171235,2791.0,-38.9388585,-28.489116,-119.844585,1.9,0.1,575.0
38.8,-128.13433066,0.49514294,2787.0,-35.462975,-28.598944,-119.612537,1.5,0.2,576.0
38.85,-128.134387345,0.495111175,2783.0,-33.2840275,-28.6677925,-119.467073,1.2,0.25,577.0
38.9,-128.13444403,0.49507941,2779.0,-31.10508,-28.736641,-119.321609,0.9,0.3,578.0
38.95,-128.1344927,0.49505169,2775.0,-28.093614,-28.540067,-119.360708,0.8500000000000001,0.3,579.0
39.0,-128.13454137,0.49502397,2771.0,-25.082148,-28.343493,-119.399807,0.8,0.3,580.0
39.05,-128.134597485,0.49499221,2767.0,-22.161908500000003,-28.104293,-119.4777125,0.9,0.35,581.0
39.1,-128.1346536,0.49496045,2763.0,-19.241669,-27.865093,-119.555618,1.0,0.4,582.0
39.15,-128.134711435,0.494927535,2759.0,-17.128536,-27.510749500000003,-119.635149,1.15,0.4,583.5
39.2,-128.13476927,0.49489462,2755.0,-15.015403,-27.156406,-119.71468,1.3,0.4,585.0
39.25,-128.13481622,0.49486748,2751.5,-12.9147825,-26.4989995,-119.8327295,1.5,0.4,585.5
39.3,-128.13486317,0.49484034,2748.0,-10.814162,-25.841593,-119.950779,1.7,0.4,586.0
39.35,-128.13491241499997,0.49481204,2745.0,-9.4378415,-25.410862,-120.028122,2.0,0.35,587.0
39.4,-128.13496166,0.49478374,2742.0,-8.061521,-24.980131,-120.105465,2.3,0.3,588.0
39.45,-128.13501835,0.494751405,2738.0,-6.740475,-24.2693385,-120.156517,2.5,0.25,588.5
39.5,-128.13507504,0.49471907,2734.0,-5.419429,-23.558546,-120.207569,2.7,0.2,589.0
39.55,-128.13513573,0.494683265,2730.0,-4.281532,-22.829198,-120.2424165,2.95,0.15,590.0
39.6,-128.13519642,0.49464746,2726.0,-3.143635,-22.09985,-120.277264,3.2,0.1,591.0
39.65,-128.13524681,0.494618585,2722.5,-2.4984145,-21.718112,-120.2822325,3.3,0.05,591.5
39.7,-128.1352972,0.49458971,2719.0,-1.853194,-21.336374,-120.287201,3.4,-0.0,592.0
39.75,-128.135359615,0.49455333,2715.5,-0.84386,-20.8716925,-120.2333985,3.35,-0.05,593.0
39.8,-128.13542203,0.49451695,2712.0,0.165474,-20.407011,-120.179596,3.3,-0.1,594.0
39.85,-128.13547355999998,0.494486925,2709.0,0.6026944999999999,-20.20572,-120.156292,3.25,-0.1,594.5
39.9,-128.13552509,0.4944569,2706.0,1.039915,-20.004429,-120.132988,3.2,-0.1,595.0
39.95,-128.135589795,0.494419365,2702.5,1.7576155,-19.8980905,-120.0484655,3.0,-0.1,596.0
40.0,-128.1356545,0.49438183,2699.0,2.475316,-19.791752,-119.963943,2.8,-0.1,597.0
40.05,-128.13571004,0.49434949,2696.0,2.998866,-19.756469,-119.8935545,2.55,-0.1,598.0
