Time,Longitude,Latitude,Altitude,Roll,Pitch,Yaw,AOA,AOS,TAS
120.1,-128.13108359,0.50086049,320.0,82.565659,-1.738465,-26.047607,2.4,-0.9,622.0
120.15,-128.13108067000002,0.5007901349999999,319.5,82.7248345,-1.7896299999999998,-57.0328825,2.45,-0.9,621.5
120.2,-128.13107775,0.50071978,319.0,82.88401,-1.840795,-88.018158,2.5,-0.9,621.0
120.25,-128.13107367499998,0.500639625,318.5,83.1207275,-1.9971165,-107.4453585,2.45,-0.8500000000000001,621.0
120.3,-128.1310696,0.50055947,318.0,83.357445,-2.153438,-126.872559,2.4,-0.8,621.0
120.35,-128.131068395,0.50047931,317.5,83.4962005,-2.246739,-137.7059805,2.35,-0.8,621.0
120.4,-128.13106719,0.50039915,317.0,83.634956,-2.34004,-148.539402,2.3,-0.8,621.0
120.45,-128.13106885500002,0.500333405,316.5,83.7259445,-2.4269405,-153.3328655,2.3,-0.8,621.0
120.5,-128.13107052,0.50026766,316.0,83.816933,-2.513841,-158.126329,2.3,-0.8,621.0
120.55,-128.131071605,0.500190385,315.5,83.90831,-2.6233950000000004,-160.9376295,2.25,-0.8,621.5
120.6,-128.13107269,0.50011311,315.0,83.999687,-2.732949,-163.74893,2.2,-0.8,622.0
120.65,-128.13108007,0.500028905,314.5,84.0486295,-2.7994075,-165.299729,2.2,-0.8500000000000001,621.5
120.7,-128.13108745,0.4999447,314.0,84.097572,-2.865866,-166.850528,2.2,-0.9,621.0
120.75,-128.131093125,0.499873765,313.5,84.0834845,-2.9332435,-166.9056825,2.1500000000000004,-0.9,621.0
120.8,-128.1310988,0.49980283,313.0,84.069397,-3.000621,-166.960837,2.1,-0.9,621.0
120.85,-128.13110905,0.499722085,312.5,84.060097,-3.0450805,-166.997231,2.1500000000000004,-0.95,621.5
120.9,-128.1311193,0.49964134,312.0,84.050797,-3.08954,-167.033625,2.2,-1.0,622.0
120.95,-128.131129555,0.49957213,311.0,83.9606175,-3.104845,-166.572791,2.2,-1.0,622.0
121.0,-128.13113981,0.49950292,310.0,83.870438,-3.12015,-166.111957,2.2,-1.0,622.0
121.05,-128.131151785,0.49942736,309.5,83.730999,-3.123214,-165.3591245,2.25,-1.05,622.5
121.1,-128.13116376,0.4993518,309.0,83.59156,-3.126278,-164.606292,2.3,-1.1,623.0
121.15,-128.13117974,0.4992797,308.5,83.5184895,-3.127884,-164.211768,2.3,-1.15,622.5
121.2,-128.13119572,0.4992076,308.0,83.445419,-3.12949,-163.817244,2.3,-1.2,622.0
121.25,-128.131211705,0.4991372349999999,307.0,83.00387549999999,-3.028459,-162.404625,2.4,-1.2,622.0
121.3,-128.13122769,0.49906687,306.0,82.562332,-2.927428,-160.992006,2.5,-1.2,622.0
121.35,-128.131248825,0.49898669,305.5,82.26449199999999,-2.8592765,-160.039111,2.7,-1.25,622.0
121.4,-128.13126996,0.49890651,305.0,81.966652,-2.791125,-159.086216,2.9,-1.3,622.0
121.45,-128.131291105,0.498838445,304.5,81.4273985,-2.661747,-158.08329500000002,3.05,-1.3,622.0
121.5,-128.13131225,0.49877038,304.0,80.888145,-2.532369,-157.080374,3.2,-1.3,622.0
121.55,-128.131335105,0.498697125,303.0,80.121635,-2.346754,-155.86155050000002,3.35,-1.35,622.0
121.6,-128.13135796,0.49862387,302.0,79.355125,-2.161139,-154.642727,3.5,-1.4,622.0
121.65,-128.13138369,0.49855926,301.5,78.972721,-2.068538,-154.034669,3.6,-1.4,621.5
121.7,-128.13140942,0.49849465,301.0,78.590317,-1.975937,-153.426611,3.7,-1.4,621.0
121.75,-128.131441435,0.498416195,300.5,77.259468,-1.676536,-152.29526800000002,3.7,-1.45,621.0
121.8,-128.13147345,0.49833774,300.0,75.928619,-1.377135,-151.163925,3.7,-1.5,621.0
121.85,-128.131502615,0.49827255,299.0,75.251667,-1.225024,-150.5964115,3.65,-1.5,621.0
121.9,-128.13153178,0.49820736,298.0,74.574715,-1.072913,-150.028898,3.6,-1.5,621.0
121.95,-128.13157010499998,0.49813063,297.5,73.466061,-0.839474,-149.3967275,3.45,-1.5,621.0
122.0,-128.13160843,0.4980539,297.0,72.357407,-0.606035,-148.764557,3.3,-1.5,621.0
122.05,-128.131638745,0.4979933199999999,296.5,71.4671975,-0.4222475,-148.326269,3.2,-1.55,621.0
122.1,-128.13166906,0.49793274,296.0,70.576988,-0.23846,-147.887981,3.1,-1.6,621.0
122.15,-128.13170739,0.49786697,296.0,69.9939115,-0.11808,-147.600906,3.0,-1.6,621.0
122.2,-128.13174572,0.4978012,296.0,69.410835,0.0023,-147.313831,2.9,-1.6,621.0
122.25,-128.13178176,0.49773889,295.5,68.374588,0.1181615,-147.114193,2.65,-1.65,621.0
122.3,-128.1318178,0.49767658,295.0,67.338341,0.234023,-146.914555,2.4,-1.7,621.0
122.35,-128.13186071,0.4976061899999999,294.5,66.6124305,0.313276,-146.7807545,2.1,-1.75,621.5
122.4,-128.13190362,0.4975358,294.0,65.88652,0.392529,-146.646954,1.8,-1.8,622.0
122.45,-128.131940235,0.497478675,294.0,65.234058,0.468773,-146.406891,1.7000000000000002,-1.8,622.0
122.5,-128.13197685,0.49742155,294.0,64.581596,0.545017,-146.166828,1.6,-1.8,622.0
122.55,-128.13201919,0.497354625,293.5,63.785755,0.640965,-145.8034705,1.4,-1.85,622.5
122.6,-128.13206153,0.4972877,293.0,62.989914,0.736913,-145.440113,1.2,-1.9,623.0
122.65,-128.13210387499998,0.49722538,293.0,62.5892355,0.78522,-145.25717550000002,1.1,-1.95,623.0
122.7,-128.13214622,0.49716306,293.0,62.188557,0.833527,-145.074238,1.0,-2.0,623.0
122.75,-128.13219485500002,0.49709209,292.5,61.3177455,1.379959,-143.67979250000002,1.25,-2.05,623.0
122.8,-128.13224349,0.49702112,292.0,60.446934,1.926391,-142.285347,1.5,-2.1,623.0
122.85,-128.132282405,0.496968035,292.0,60.0626985,2.1675,-141.670061,1.75,-2.1,623.0
122.9,-128.13232132,0.49691495,292.0,59.678463,2.408609,-141.054775,2.0,-2.1,623.0
122.95,-128.13236653,0.496855515,292.0,59.263853,2.8065550000000004,-140.2793405,2.15,-2.1,622.5
123.0,-128.13241174,0.49679608,292.0,58.849243,3.204501,-139.503906,2.3,-2.1,622.0
123.05,-128.132460955,0.49673203,292.0,58.4096395,3.735356,-138.5935685,2.45,-2.05,622.0
123.1,-128.13251017,0.49666798,292.0,57.970036,4.266211,-137.683231,2.6,-2.0,622.0
123.15,-128.13255424,0.49661662,292.0,57.766415,4.512095,-137.26157949999998,2.8,-2.0,621.5
123.2,-128.13259831,0.49656526,292.0,57.562794,4.757979,-136.839928,3.0,-2.0,621.0
123.25,-128.13265325499998,0.49650178,292.5,57.2610115,5.3898315,-135.4753705,3.2,-2.0,621.0
123.3,-128.1327082,0.4964383,293.0,56.959229,6.021684,-134.110813,3.4,-2.0,621.0
123.35,-128.132753415,0.49638867,293.0,56.813164,6.3329925,-133.435177,3.5,-1.95,620.5
123.4,-128.13279863,0.49633904,293.0,56.667099,6.644301,-132.759541,3.6,-1.9,620.0
123.45,-128.13285072,0.49628652,293.5,56.617866500000005,7.11112,-131.8479215,3.7,-1.9,619.5
123.5,-128.13290281,0.496234,294.0,56.568634,7.577939,-130.936302,3.8,-1.9,619.0
123.55,-128.13295948,0.496176285,295.0,56.60095,8.28364,-129.622011,4.1,-1.85,618.5
123.6,-128.13301615,0.49611857,296.0,56.633266,8.989341,-128.30772,4.4,-1.8,618.0
123.65,-128.133066525,0.496074125,296.5,56.648258,9.316837,-127.6977975,4.550000000000001,-1.8,617.5
123.7,-128.1331169,0.49602968,297.0,56.66325,9.644333,-127.087875,4.7,-1.8,617.0
123.75,-128.13318159,0.4959731149999999,298.0,57.313919,9.8959845,-126.4556675,4.45,-1.75,616.0
123.8,-128.13324628,0.49591655,299.0,57.964588,10.147636,-125.82346,4.2,-1.7,615.0
123.85,-128.133305245,0.49586806,300.0,58.3798465,10.2738815,-125.483574,3.95,-1.65,614.5
123.9,-128.13336421,0.49581957,301.0,58.795105,10.400127,-125.143688,3.7,-1.6,614.0
123.95,-128.133418025,0.49577801,302.0,59.6136265,10.340352,-124.741722,3.55,-1.55,614.0
124.0,-128.13347184,0.49573645,303.0,60.432148,10.280577,-124.339756,3.4,-1.5,614.0
124.05,-128.13353710500002,0.495686225,304.5,61.4871465,10.13384,-123.8821795,3.05,-1.4,614.0
124.1,-128.13360237,0.495636,306.0,62.542145,9.987103,-123.424603,2.7,-1.3,614.0
124.15,-128.13365676,0.49559732,307.0,63.0095655,9.922089499999998,-123.2218725,2.5,-1.25,613.5
124.2,-128.13371115,0.49555864,308.0,63.476986,9.857076,-123.019142,2.3,-1.2,613.0
124.25,-128.133779285,0.4955107199999999,309.5,64.5413875,9.912774,-121.6576995,2.3,-1.1,613.0
124.3,-128.13384742,0.4954628,311.0,65.605789,9.968472,-120.296257,2.3,-1.0,613.0
124.35,-128.133904105,0.49542527,312.0,66.1247975,9.997894,-119.6224215,2.45,-0.95,612.5
124.4,-128.13396079,0.49538774,313.0,66.643806,10.027316,-118.948586,2.6,-0.9,612.0
124.45,-128.134022055,0.49535021,314.0,66.9622875,10.1802795,-117.8685075,2.75,-0.8500000000000001,611.5
124.5,-128.13408332,0.49531268,315.0,67.280769,10.333243,-116.788429,2.9,-0.8,611.0
124.55,-128.13414859,0.4952716849999999,316.5,67.46984850000001,10.5538025,-115.5061265,3.2,-0.7,610.5
124.6,-128.13421386,0.49523069,318.0,67.658928,10.774362,-114.223824,3.5,-0.6,610.0
124.65,-128.134271125,0.49520123,319.0,67.75443250000001,10.885772,-113.5760995,3.65,-0.55,609.5
124.7,-128.13432839,0.49517177,320.0,67.849937,10.997182,-112.928375,3.8,-0.5,609.0
124.75,-128.13439825,0.495135385,321.5,67.454628,11.4936415,-111.15118,4.05,-0.45,608.5
124.8,-128.13446811,0.495099,323.0,67.059319,11.990101,-109.373985,4.3,-0.4,608.0
124.85,-128.134528235,0.49507012,324.5,66.83587299999999,12.257382,-108.4315415,4.5,-0.4,607.5
124.9,-128.13458836,0.49504124,326.0,66.612427,12.524663,-107.489098,4.7,-0.4,607.0
124.95,-128.134666245,0.495008885,327.5,66.05515700000001,13.0430365,-106.0750965,4.9,-0.3,605.5
125.0,-128.13474413,0.49497653,329.0,65.497887,13.56141,-104.661095,5.1,-0.2,604.0
125.05,-128.13480483,0.494951105,330.5,64.959412,14.0327485,-103.481495,5.3,-0.2,603.5
125.1,-128.13486553,0.49492568,332.0,64.420937,14.504087,-102.301895,5.5,-0.2,603.0
125.15,-128.13493769500002,0.494903135,334.0,63.9796085,14.872848,-101.422783,5.75,-0.0499999999999999,602.0
125.2,-128.13500986,0.49488059,336.0,63.53828,15.241609,-100.543671,6.0,0.1,601.0
125.25,-128.13507342999998,0.494860355,338.0,62.390951,16.0238035,-99.1402435,6.15,0.15,600.0
125.3,-128.135137,0.49484012,340.0,61.243622,16.805998,-97.736816,6.3,0.2,599.0
125.35,-128.135198855,0.49482335,341.5,60.6097625,17.238130499999997,-96.9614675,6.4,0.25,598.0
125.4,-128.13526071,0.49480658,343.0,59.975903,17.670263,-96.186119,6.5,0.3,597.0
125.45,-128.135337455,0.494789795,345.5,58.4873375,18.42321,-95.1647035,6.55,0.4,595.5
125.5,-128.1354142,0.49477301,348.0,56.998772,19.176157,-94.143288,6.6,0.5,594.0
125.55,-128.13548121500003,0.4947585399999999,350.0,55.5116025,19.8710955,-93.2977335,6.6,0.5,593.5
125.6,-128.13554823,0.49474407,352.0,54.024433,20.566034,-92.452179,6.6,0.5,593.0
125.65,-128.13561868,0.4947342099999999,355.0,52.9591485,21.06027,-91.886261,6.699999999999999,0.75,591.5
125.7,-128.13568913,0.49472435,358.0,51.893864,21.554506,-91.320343,6.8,1.0,590.0
125.75,-128.13575385500002,0.4947156499999999,360.5,49.7116775,22.5282265,-90.593395,6.9,1.2,589.0
125.8,-128.13581858,0.49470695,363.0,47.529491,23.501947,-89.866447,7.0,1.4,588.0
125.85,-128.13587701,0.4947005599999999,365.0,46.3886085,24.011027,-89.48639299999999,7.05,1.5499999999999998,587.0
125.9,-128.13593544,0.49469417,367.0,45.247726,24.520107,-89.106339,7.1,1.7,586.0
125.95,-128.13600818499998,0.494688925,370.5,43.5439775,25.033342,-88.92641449999999,6.949999999999999,1.9,584.5
126.0,-128.13608093,0.49468368,374.0,41.840229,25.546577,-88.74649,6.8,2.1,583.0
126.05,-128.13613936000002,0.494679595,376.5,40.174221,25.9360015,-88.74700899999999,6.449999999999999,2.2,582.5
126.1,-128.13619779,0.49467551,379.0,38.508213,26.325426,-88.747528,6.1,2.3,582.0
126.15,-128.136271685,0.49467257,382.5,37.3282755,26.6012315,-88.74789050000001,5.85,2.35,581.0
126.2,-128.13634558,0.49466963,386.0,36.148338,26.877037,-88.748253,5.6,2.4,580.0
126.25,-128.136408015,0.494667275,389.5,33.9737545,27.1665905,-88.75295249999999,5.3,2.45,579.0
126.3,-128.13647045,0.49466492,393.0,31.799171,27.456144,-88.757652,5.0,2.5,578.0
126.35,-128.13653862,0.494663715,396.5,30.3992585,27.6425485,-88.7606735,4.4,2.05,577.0
126.4,-128.13660679,0.49466251,400.0,28.999346,27.828953,-88.763695,3.8,1.6,576.0
126.45,-128.136665795,0.4946618849999999,403.5,27.847909,28.327609,-88.5350535,3.3,0.65,575.5
126.5,-128.1367248,0.49466126,407.0,26.696472,28.826265,-88.306412,2.8,-0.3,575.0
126.55,-128.136788385,0.494660635,410.0,25.521735,29.5518685,-87.92801299999999,2.55,-1.4,574.5
126.6,-128.13685197,0.49466001,413.0,24.346998,30.277472,-87.549614,2.3,-2.5,574.0
126.65,-128.136911545,0.49466054,417.0,23.7307385,30.6581195,-87.351101,2.5,-2.35,573.0
126.7,-128.13697112,0.49466107,421.0,23.114479,31.038767,-87.152588,2.7,-2.2,572.0
126.75,-128.13704043500002,0.49466217,425.0,22.3377675,32.561166,-86.38770299999999,3.1500000000000004,-1.95,571.0
126.8,-128.13710975,0.49466327,429.0,21.561056,34.083565,-85.622818,3.6,-1.7,570.0
126.85,-128.137165315,0.49466438,433.0,21.1842575,34.840227,-85.242813,4.0,-1.5,569.0
126.9,-128.13722088,0.49466549,437.0,20.807459,35.596889,-84.862808,4.4,-1.3,568.0
126.95,-128.13728218,0.494668325,441.0,20.17955,36.699739,-84.405159,4.65,-1.25,566.5
127.0,-128.13734348,0.49467116,445.0,19.551641,37.802589,-83.94751,4.9,-1.2,565.0
127.05,-128.13739389,0.494673425,449.0,18.9939065,38.739582,-83.588314,5.050000000000001,-1.15,564.0
127.1,-128.1374443,0.49467569,453.0,18.436172,39.676575,-83.229118,5.2,-1.1,563.0
127.15,-128.137506745,0.49467968,458.0,17.902181499999998,40.3441505,-82.99034850000001,5.25,-1.0,561.5
127.2,-128.13756919,0.49468367,463.0,17.368191,41.011726,-82.751579,5.3,-0.9,560.0
127.25,-128.137620175,0.49468709,467.5,15.366904,41.451698,-82.801117,5.05,-0.8500000000000001,558.5
127.3,-128.13767116,0.49469051,472.0,13.365617,41.89167,-82.850655,4.8,-0.8,557.0
127.35,-128.137721,0.49469451,476.0,12.155088,42.1577985,-82.880619,4.55,-0.7,556.0
127.4,-128.13777084,0.49469851,480.0,10.944559,42.423927,-82.910583,4.3,-0.6,555.0
127.45,-128.137827555,0.494703075,485.5,8.4639565,42.5383565,-83.05076550000001,4.05,-0.4,554.0
127.5,-128.13788427,0.49470764,491.0,5.983354,42.652786,-83.190948,3.8,-0.2,553.0
127.55,-128.13792953,0.494711645,495.0,3.3653005,42.6510925,-83.361282,3.45,-0.0499999999999999,552.0
127.6,-128.13797479,0.49471565,499.0,0.747247,42.649399,-83.531616,3.1,0.1,551.0
127.65,-128.13803093,0.49471964,504.5,-1.04118,42.648243,-83.6479645,2.85,0.25,549.5
127.7,-128.13808707,0.49472363,510.0,-2.829607,42.647087,-83.764313,2.6,0.4,548.0
127.75,-128.13813405000002,0.49472763,514.5,-6.516731500000001,43.0449045,-84.3259355,2.55,0.5,547.0
127.8,-128.13818103,0.49473163,519.0,-10.203856,43.442722,-84.887558,2.5,0.6,546.0
127.85,-128.13823087,0.494735055,524.0,-12.550912,43.695959,-85.2450675,2.5,0.6,545.0
127.9,-128.13828071,0.49473848,529.0,-14.897968,43.949196,-85.602577,2.5,0.6,544.0
127.95,-128.13833284,0.49474132,534.5,-17.6774825,44.5617735,-86.395111,2.7,0.6,543.0
128.0,-128.13838497,0.49474416,540.0,-20.456997,45.174351,-87.187645,2.9,0.6,542.0
128.05,-128.13842908,0.49474701,544.5,-22.9537145,45.861277,-88.0609055,3.25,0.55,540.5
128.1,-128.13847319,0.49474986,549.0,-25.450432,46.548203,-88.934166,3.6,0.5,539.0
128.15,-128.138520165,0.494750975,554.0,-27.031087,46.9830935,-89.4870225,3.4000000000000004,1.3,537.5
128.2,-128.13856714,0.49475209,559.0,-28.611742,47.417984,-90.039879,3.2,2.1,536.0
128.25,-128.13861927,0.494753205,565.0,-31.646081,48.2768765,-91.4157715,2.6500000000000004,3.05,534.5
128.3,-128.1386714,0.49475432,571.0,-34.68042,49.135769,-92.791664,2.1,4.0,533.0
128.35,-128.138714935,0.49475371,576.0,-36.271673,49.586508,-93.5174445,1.95,4.25,532.5
128.4,-128.13875847,0.4947531,581.0,-37.862926,50.037247,-94.243225,1.8,4.5,532.0
128.45,-128.138803725,0.4947519099999999,586.5,-39.8996675,50.4351275,-95.1804465,2.05,4.15,530.5
128.5,-128.13884898,0.49475072,592.0,-41.936409,50.833008,-96.117668,2.3,3.8,529.0
128.55,-128.138890225,0.494748955,597.0,-43.9321175,51.1519605,-97.039276,2.45,3.45,528.0
128.6,-128.13893147,0.49474719,602.0,-45.927826,51.470913,-97.960884,2.6,3.1,527.0
128.65,-128.138975575,0.49474312,607.5,-47.1466445,51.665699,-98.523716,2.7,2.95,525.5
128.7,-128.13901968,0.49473905,613.0,-48.365463,51.860485,-99.086548,2.8,2.8,524.0
128.75,-128.139059205,0.494734985,618.5,-51.680313,52.129469,-100.7251205,2.9,2.65,522.5
128.8,-128.13909873,0.49473092,624.0,-54.995163,52.398453,-102.363693,3.0,2.5,521.0
128.85,-128.139139395,0.49472512,629.0,-56.9695795,52.5586665,-103.339672,3.1,2.45,520.0
128.9,-128.13918006,0.49471932,634.0,-58.943996,52.71888,-104.315651,3.2,2.4,519.0
128.95,-128.13922531,0.49471121,640.5,-62.7457675,52.805355,-105.869522,3.25,2.45,517.0
129.0,-128.13927056,0.4947031,647.0,-66.547539,52.89183,-107.423393,3.3,2.5,515.0
129.05,-128.139306645,0.49469673,652.0,-69.93798100000001,52.9225765,-108.741184,3.3,2.55,514.0
129.1,-128.13934273,0.49469036,657.0,-73.328423,52.953323,-110.058975,3.3,2.6,513.0
129.15,-128.13938282,0.49467937,662.5,-75.6371575,52.9742565,-110.956329,3.4,2.7,511.5
129.2,-128.13942291,0.49466838,668.0,-77.945892,52.99519,-111.853683,3.5,2.8,510.0
129.25,-128.13946357,0.494656815,674.0,-84.0679625,52.563368,-114.0628125,3.55,2.9,509.0
129.3,-128.13950423,0.49464525,680.0,-90.190033,52.131546,-116.271942,3.6,3.0,508.0
129.35,-128.139540885,0.49463311,685.0,-93.411213,51.9003905,-117.432924,3.6,3.05,506.5
129.4,-128.13957754,0.49462097,690.0,-96.632393,51.669235,-118.593906,3.6,3.1,505.0
129.45,-128.139609035,0.49460826,694.5,-100.1664695,51.117357,-119.8097495,3.65,3.2,503.5
129.5,-128.13964053,0.49459555,699.0,-103.700546,50.565479,-121.025593,3.7,3.3,502.0
129.55,-128.139680045,0.494580525,704.5,-107.9397085,49.7608525,-122.4563105,3.75,3.25,501.0
129.6,-128.13971956,0.4945655,710.0,-112.178871,48.956226,-123.887028,3.8,3.2,500.0
129.65,-128.13975678,0.49454644,715.5,-114.3439595,48.5452765,-124.6177465,3.85,3.2,498.5
129.7,-128.139794,0.49452738,721.0,-116.509048,48.134327,-125.348465,3.9,3.2,497.0
129.75,-128.139831795,0.494507745,726.0,-120.290222,46.6819895,-126.741865,4.05,3.05,495.5
129.8,-128.13986959,0.49448811,731.0,-124.071396,45.229652,-128.135265,4.2,2.9,494.0
129.85,-128.13990509,0.494467895,736.0,-126.211815,44.3979815,-128.9255425,4.35,2.8,492.5
129.9,-128.13994059,0.49444768,741.0,-128.352234,43.566311,-129.71582,4.5,2.7,491.0
129.95,-128.139977805,0.49442401,745.5,-130.7020495,42.204666,-130.618248,4.75,2.55,489.5
130.0,-128.14001502,0.49440034,750.0,-133.051865,40.843021,-131.520676,5.0,2.4,488.0
130.05,-128.14004823,0.494378975,754.5,-134.851517,39.652643,-132.2232745,5.25,2.25,487.5
130.1,-128.14008144,0.49435761,759.0,-136.651169,38.462265,-132.925873,5.5,2.1,487.0
130.15,-128.14012151499998,0.49432759,764.0,-137.83531950000005,37.679004500000005,-133.38817999999998,5.6,1.95,485.0
130.2,-128.14016159,0.49429757,769.0,-139.01947,36.895744,-133.850487,5.7,1.8,483.0
130.25,-128.14019537,0.494271595,773.0,-140.85198200000002,35.2135125,-134.505806,5.75,1.65,482.0
130.3,-128.14022915,0.49424562,777.0,-142.684494,33.531281,-135.161125,5.8,1.5,481.0
130.35,-128.14026865,0.49421387,781.0,-143.916214,32.400571,-135.6015985,5.949999999999999,1.35,480.0
130.4,-128.14030815,0.49418212,785.0,-145.147934,31.269861,-136.042072,6.1,1.2,479.0
130.45,-128.140341925,0.494152685,788.5,-146.3693925,29.964689,-136.4565255,6.199999999999999,1.1,477.5
130.5,-128.1403757,0.49412325,792.0,-147.590851,28.659517,-136.870979,6.3,1.0,476.0
130.55,-128.140411765,0.49409208,796.0,-148.731949,27.3805625,-137.2509095,6.35,0.9,475.0
130.6,-128.14044783,0.49406091,800.0,-149.873047,26.101608,-137.63084,6.4,0.8,474.0
130.65,-128.140482175,0.49402801,803.0,-150.47225200000003,25.4300165,-137.830343,6.4,0.75,473.0
130.7,-128.14051652,0.49399511,806.0,-151.071457,24.758425,-138.029846,6.4,0.7,472.0
130.75,-128.14055544500002,0.493957595,809.5,-152.0227355,23.1549095,-138.47551149999998,6.35,0.6,471.0
130.8,-128.14059437,0.49392008,813.0,-152.974014,21.551394,-138.921177,6.3,0.5,470.0
130.85,-128.140627,0.4938871849999999,815.5,-153.4527205,20.7367555,-139.147301,6.25,0.45,469.5
130.9,-128.14065963,0.49385429,818.0,-153.931427,19.922117,-139.373425,6.2,0.4,469.0
130.95,-128.140699125,0.493813315,821.0,-154.4885485,18.7296695,-139.707867,6.2,0.4,467.5
131.0,-128.14073862,0.49377234,824.0,-155.04567,17.537222,-140.042309,6.2,0.4,466.0
131.05,-128.140776965,0.49373194,827.0,-155.5053485,16.443567,-140.3502715,6.1,0.4,465.5
131.1,-128.14081531,0.49369154,830.0,-155.965027,15.349912,-140.658234,6.0,0.4,465.0
131.15,-128.14084679,0.49365634,832.0,-156.189743,14.8152875,-140.80877900000002,6.0,0.4,464.5
131.2,-128.14087827,0.49362114,834.0,-156.414459,14.280663,-140.959324,6.0,0.4,464.0
131.25,-128.140915475,0.49357959,836.0,-157.019058,12.8899105,-141.332886,5.9,0.35,463.5
131.3,-128.14095268,0.49353804,838.0,-157.623657,11.499158,-141.706448,5.8,0.3,463.0
131.35,-128.14098473,0.493501685,839.5,-157.91094950000002,10.8382595,-141.8839645,5.699999999999999,0.3,462.5
131.4,-128.14101678,0.49346533,841.0,-158.198242,10.177361,-142.061481,5.6,0.3,462.0
131.45,-128.14105455499998,0.49342032,843.0,-158.57486699999998,9.251664,-142.293024,5.5,0.35,461.5
131.5,-128.14109233,0.49337531,845.0,-158.951492,8.325967,-142.524567,5.4,0.4,461.0
131.55,-128.141130675,0.4933297199999999,846.5,-159.34142300000002,7.339027,-142.763733,5.2,0.4,460.5
131.6,-128.14116902,0.49328413,848.0,-159.731354,6.352087,-143.002899,5.0,0.4,460.0
131.65,-128.14120107000002,0.493244315,849.0,-159.916771,5.8828355000000006,-143.1166115,4.95,0.4,459.5
131.7,-128.14123312,0.4932045,850.0,-160.102188,5.413584,-143.230324,4.9,0.4,459.0
131.75,-128.14127089,0.49315776,851.0,-160.73242950000002,4.1983565,-143.4746725,4.75,0.45,459.0
131.8,-128.14130866,0.49311102,852.0,-161.362671,2.983129,-143.719021,4.6,0.5,459.0
131.85,-128.141340135,0.4930712,853.0,-161.6662065,2.397822,-143.83670999999998,4.5,0.5,459.0
131.9,-128.14137161,0.49303138,854.0,-161.969742,1.812515,-143.954399,4.4,0.5,459.0
131.95,-128.141408235,0.492984065,854.5,-162.5191805,0.9122865,-144.096998,4.35,0.55,459.0
132.0,-128.14144486,0.49293675,855.0,-163.068619,0.012058,-144.239597,4.3,0.6,459.0
132.05,-128.141476335,0.49289636,855.5,-163.59491000000003,-0.8045329999999999,-144.35595899999998,4.199999999999999,0.6,459.0
132.1,-128.14150781,0.49285597,856.0,-164.121201,-1.621124,-144.472321,4.1,0.6,459.0
132.15,-128.14153986000002,0.4928132699999999,856.0,-164.4219895,-2.087827,-144.53882449999998,4.0,0.6,459.0
132.2,-128.14157191,0.49277057,856.0,-164.722778,-2.55453,-144.605328,3.9,0.6,459.0
132.25,-128.141609675,0.49272037,856.0,-165.209816,-3.751399,-144.745457,3.85,0.6,459.0
132.3,-128.14164744,0.49267017,856.0,-165.696854,-4.948268,-144.885586,3.8,0.6,459.0
132.35,-128.14167777,0.492628625,856.0,-165.936348,-5.5427645,-144.9549275,3.75,0.55,459.0
132.4,-128.1417081,0.49258708,856.0,-166.175842,-6.137261,-145.024269,3.7,0.5,459.0
132.45,-128.14174301,0.492539765,855.5,-166.3787995,-7.071369000000001,-145.1317365,3.7,0.5,459.5
132.5,-128.14177792,0.49249245,855.0,-166.581757,-8.005477,-145.239204,3.7,0.5,460.0
132.55,-128.141807675,0.49245148,855.0,-166.7098545,-8.830305500000001,-145.33366,3.7,0.45,460.5
132.6,-128.14183743,0.49241051,855.0,-166.837952,-9.655134,-145.428116,3.7,0.4,461.0
132.65,-128.14187233500002,0.492361465,854.0,-166.93104549999998,-10.275254,-145.499525,3.65,0.4,461.0
132.7,-128.14190724,0.49231242,853.0,-167.024139,-10.895374,-145.570934,3.6,0.4,461.0
132.75,-128.14193928499998,0.492267415,852.0,-167.157455,-11.990466,-145.700853,3.6,0.35,461.5
132.8,-128.14197133,0.49222241,851.0,-167.290771,-13.085558,-145.830772,3.6,0.3,462.0
132.85,-128.142001085,0.49217971,850.0,-167.36717950000002,-13.7132555,-145.9052425,3.55,0.25,462.5
132.9,-128.14203084,0.49213701,849.0,-167.443588,-14.340953,-145.979713,3.5,0.2,463.0
132.95,-128.14206231,0.492092005,847.5,-167.501915,-15.135034,-146.0804325,3.5,0.2,463.5
133.0,-128.14209378,0.492047,846.0,-167.560242,-15.929115,-146.181152,3.5,0.2,464.0
133.05,-128.14212411,0.492003725,845.0,-167.602051,-16.760762999999997,-146.289915,3.5,0.15,464.5
133.1,-128.14215444,0.49196045,844.0,-167.64386,-17.592411,-146.398678,3.5,0.1,465.0
133.15,-128.14218705500002,0.49191256,842.0,-167.669617,-18.1046455,-146.465668,3.45,0.1,465.5
133.2,-128.14221967,0.49186467,840.0,-167.695374,-18.61688,-146.532658,3.4,0.1,466.0
133.25,-128.14224542,0.49182659,838.5,-167.72292349999998,-19.3973015,-146.64232850000002,3.3,0.1,466.5
133.3,-128.14227117,0.49178851,837.0,-167.750473,-20.177723,-146.751999,3.2,0.1,467.0
133.35,-128.142307215,0.49173543,835.0,-167.77115650000002,-20.7636815,-146.8343485,3.05,0.05,467.5
133.4,-128.14234326,0.49168235,833.0,-167.79184,-21.34964,-146.916698,2.9,0.0,468.0
133.45,-128.14237129499998,0.49163965,831.0,-167.79354899999998,-21.8103675,-146.97878450000002,2.75,0.0,469.0
133.5,-128.14239933,0.49159695,829.0,-167.795258,-22.271095,-147.040871,2.6,0.0,470.0
133.55,-128.142431375,0.49154906,826.5,-167.787865,-22.801776,-147.110657,2.3,0.0,471.0
133.6,-128.14246342,0.49150117,824.0,-167.780472,-23.332457,-147.180443,2.0,0.0,472.0
133.65,-128.142490885,0.49145963,822.0,-167.776848,-23.591933500000003,-147.21456899999998,1.85,0.0,473.0
133.7,-128.14251835,0.49141809,820.0,-167.773224,-23.85141,-147.248695,1.7,0.0,474.0
133.75,-128.142552105,0.49136616,817.0,-167.5023955,-24.451248,-147.33612399999998,1.5499999999999998,0.0,475.0
133.8,-128.14258586,0.49131423,814.0,-167.231567,-25.051086,-147.423553,1.4,0.0,476.0
133.85,-128.14261218,0.491273265,811.5,-167.0997235,-25.3370065,-147.4653145,1.2999999999999998,0.0,476.5
133.9,-128.1426385,0.4912323,809.0,-166.96788,-25.622927,-147.507076,1.2,0.0,477.0
133.95,-128.142668825,0.49118499,806.0,-166.4152145,-26.0105285,-147.54859900000002,1.05,0.0,478.5
134.0,-128.14269915,0.49113768,803.0,-165.862549,-26.39813,-147.590122,0.9,0.0,480.0
134.05,-128.14272318000002,0.491100755,800.5,-165.3627475,-26.6791245,-147.6162225,0.75,0.0,480.5
134.1,-128.14274721,0.49106383,798.0,-164.862946,-26.960119,-147.642323,0.6,0.0,481.0
134.15,-128.14277868,0.49101421,794.5,-164.50606549999998,-27.160753,-147.6609575,0.4,0.0,482.5
134.2,-128.14281015,0.49096459,791.0,-164.149185,-27.361387,-147.679592,0.2,0.0,484.0
134.25,-128.14283761500002,0.49092132,788.0,-162.9445725,-27.655626,-147.669693,0.0499999999999999,0.0,485.0
134.3,-128.14286508,0.49087805,785.0,-161.73996,-27.949865,-147.659794,-0.1,0.0,486.0
134.35,-128.142891395,0.49083593,782.0,-161.018135,-28.126185,-147.653864,-0.3,0.0,487.0
134.4,-128.14291771,0.49079381,779.0,-160.29631,-28.302505,-147.647934,-0.5,0.0,488.0
134.45,-128.14294517500002,0.49074996,775.5,-159.0457305,-28.5282455,-147.647011,-0.6,0.0,489.0
134.5,-128.14297264,0.49070611,772.0,-157.795151,-28.753986,-147.646088,-0.7,0.0,490.0
134.55,-128.14299896,0.490663995,769.0,-156.49485800000002,-28.966748000000003,-147.64770349999998,-0.85,0.0,491.0
134.6,-128.14302528,0.49062188,766.0,-155.194565,-29.17951,-147.649319,-1.0,0.0,492.0
134.65,-128.143054455,0.490574565,762.5,-154.38584150000003,-29.311837,-147.650324,-1.1,0.0,493.5
134.7,-128.14308363,0.49052725,759.0,-153.577118,-29.444164,-147.651329,-1.2,0.0,495.0
134.75,-128.14310995,0.490484555,755.5,-151.958557,-29.7821415,-147.74723799999998,-1.25,0.0,496.0
134.8,-128.14313627,0.49044186,752.0,-150.339996,-30.120119,-147.843147,-1.3,0.0,497.0
134.85,-128.14316602000002,0.49039282,748.0,-149.22518150000002,-30.3540365,-147.9106575,-1.3,0.05,498.5
134.9,-128.14319577,0.49034378,744.0,-148.110367,-30.587954,-147.978168,-1.3,0.1,500.0
134.95,-128.14322037,0.490303395,740.5,-146.8521425,-30.879681,-148.079435,-1.3,0.1,501.0
135.0,-128.14324497,0.49026301,737.0,-145.593918,-31.171408,-148.180702,-1.3,0.1,502.0
135.05,-128.14327358000003,0.4902157,733.0,-144.121559,-31.5230915,-148.30852399999998,-1.3,0.05,503.5
135.1,-128.14330219,0.49016839,729.0,-142.6492,-31.874775,-148.436346,-1.3,0.0,505.0
135.15,-128.143325645,0.49012858,725.5,-141.987152,-32.0329115,-148.493822,-1.3,0.0,506.0
135.2,-128.1433491,0.49008877,722.0,-141.325104,-32.191048,-148.551298,-1.3,0.0,507.0
135.25,-128.14337712999998,0.490040885,718.0,-139.14662950000002,-32.641821,-148.6982525,-1.3,0.0,508.0
135.3,-128.14340516,0.489993,714.0,-136.968155,-33.092594,-148.845207,-1.3,0.0,509.0
135.35,-128.143430335,0.48995088,710.0,-135.809601,-33.331663,-148.922961,-1.3,0.0,510.5
135.4,-128.14345551,0.48990876,706.0,-134.651047,-33.570732,-149.000715,-1.3,0.0,512.0
135.45,-128.14348353999998,0.489859145,701.5,-132.745743,-33.90925,-149.114741,-1.3,0.0,513.0
135.5,-128.14351157,0.48980953,697.0,-130.840439,-34.247768,-149.228767,-1.3,0.0,514.0
135.55,-128.143537885,0.489763955,693.0,-129.0288315,-34.5536515,-149.33313750000002,-1.3,0.0,515.5
135.6,-128.1435642,0.48971838,689.0,-127.217224,-34.859535,-149.437508,-1.3,0.0,517.0
135.65,-128.14358708499998,0.489677415,685.0,-126.266197,-35.020113,-149.4922975,-1.3,0.0,518.0
135.7,-128.14360997,0.48963645,681.0,-125.31517,-35.180691,-149.547087,-1.3,0.0,519.0
135.75,-128.143636285,0.48958972,676.5,-122.496273,-35.587555,-149.738498,-1.25,0.0,520.5
135.8,-128.1436626,0.48954299,672.0,-119.677376,-35.994419,-149.929909,-1.2,-0.0,522.0
135.85,-128.143684335,0.489502605,668.0,-118.168545,-36.210983,-150.032875,-1.2,-0.05,523.0
135.9,-128.14370607,0.48946222,664.0,-116.659714,-36.427547,-150.135841,-1.2,-0.1,524.0
135.95,-128.14373353000002,0.4894114499999999,659.0,-114.2234115,-36.741676,-150.333427,-1.2,-0.1,525.5
136.0,-128.14376099,0.48936068,654.0,-111.787109,-37.055805,-150.531013,-1.2,-0.1,527.0
136.05,-128.14378387,0.48931914,650.0,-109.651054,-37.3199445,-150.71418649999998,-1.2,-0.1,528.5
136.1,-128.14380675,0.4892776,646.0,-107.514999,-37.584084,-150.89736,-1.2,-0.1,530.0
136.15,-128.14383192000005,0.4892291399999999,641.0,-106.074085,-37.7622685,-151.02092199999998,-1.2,-0.15,531.5
136.2,-128.14385709,0.48918068,636.0,-104.633171,-37.940453,-151.144484,-1.2,-0.2,533.0
136.25,-128.14387825,0.48913972,632.0,-101.827057,-38.241274,-151.47729700000002,-1.2,-0.25,534.0
136.3,-128.14389941,0.48909876,628.0,-99.020943,-38.542095,-151.81011,-1.2,-0.3,535.0
136.35,-128.14392400499997,0.489049725,623.0,-97.135025,-38.74427,-152.03378750000002,-1.2,-0.3,536.5
136.4,-128.1439486,0.48900069,618.0,-95.249107,-38.946445,-152.257465,-1.2,-0.3,538.0
136.45,-128.143969765,0.488958575,613.5,-93.556099,-39.1107955,-152.543681,-1.2,-0.3,539.0
136.5,-128.14399093,0.48891646,609.0,-91.863091,-39.275146,-152.829897,-1.2,-0.3,540.0
136.55,-128.144015525,0.488865695,604.0,-89.9327165,-39.454185,-153.197856,-1.15,-0.3,541.5
136.6,-128.14404012,0.48881493,599.0,-88.002342,-39.633224,-153.565815,-1.1,-0.3,543.0
136.65,-128.144062995,0.488767045,594.0,-86.969143,-39.729057,-153.7627575,-1.05,-0.3,544.5
136.7,-128.14408587,0.48871916,589.0,-85.935944,-39.82489,-153.9597,-1.0,-0.3,546.0
136.75,-128.144105885,0.48867647,584.5,-83.9193765,-39.9724045,-154.37259,-0.95,-0.25,547.5
136.8,-128.1441259,0.48863378,580.0,-81.902809,-40.119919,-154.78548,-0.9,-0.2,549.0
136.85,-128.144147635,0.488585325,575.0,-80.598156,-40.215355,-155.05260650000002,-0.8500000000000001,-0.2,550.5
136.9,-128.14416937,0.48853687,570.0,-79.293503,-40.310791,-155.319733,-0.8,-0.2,552.0
136.95,-128.14418881,0.4884924499999999,565.5,-77.780701,-40.393751,-155.6625175,-0.8,-0.2,553.0
137.0,-128.14420825,0.48844803,561.0,-76.267899,-40.476711,-156.005302,-0.8,-0.2,554.0
137.05,-128.14423055499998,0.488398415,555.5,-74.486847,-40.5629365,-156.4225175,-0.8,-0.2,555.0
137.1,-128.14425286,0.4883488,550.0,-72.705795,-40.649162,-156.839733,-0.8,-0.2,556.0
137.15,-128.144271725,0.488302655,545.0,-71.746349,-40.69561349999999,-157.0644855,-0.75,-0.2,557.5
137.2,-128.14429059,0.48825651,540.0,-70.786903,-40.742065,-157.289238,-0.7,-0.2,559.0
137.25,-128.144310605,0.488207475,535.0,-68.531498,-40.6488855,-158.3231965,-0.5,-0.2,560.5
137.3,-128.14433062,0.48815844,530.0,-66.276093,-40.555706,-159.357155,-0.3,-0.2,562.0
137.35,-128.144348345,0.48811402,525.5,-65.140709,-40.5087985,-159.877658,-0.15,-0.25,563.5
137.4,-128.14436607,0.4880696,521.0,-64.005325,-40.461891,-160.398161,0.0,-0.3,565.0
137.45,-128.144384935,0.488017685,515.5,-62.7107945,-40.25609,-161.2179145,0.15,-0.3,566.0
137.5,-128.1444038,0.48796577,510.0,-61.416264,-40.050289,-162.037668,0.3,-0.3,567.0
137.55,-128.14442323499998,0.4879127,504.5,-60.129324,-39.7579955,-162.9829015,0.55,-0.3,569.0
137.6,-128.14444267,0.48785963,499.0,-58.842384,-39.465702,-163.928135,0.8,-0.3,571.0
137.65,-128.14445867,0.48780945,494.0,-58.174625000000006,-39.3140375,-164.418591,0.95,-0.25,572.0
137.7,-128.14447467,0.48775927,489.0,-57.506866,-39.162373,-164.909047,1.1,-0.2,573.0
137.75,-128.14449181499998,0.4877033149999999,483.5,-56.3376655,-38.725321,-165.8981335,1.25,-0.2,574.5
137.8,-128.14450896,0.48764736,478.0,-55.168465,-38.288269,-166.88722,1.4,-0.2,576.0
137.85,-128.14452267,0.487599485,473.5,-54.5968345,-38.0745925,-167.3707905,1.5,-0.15,577.0
137.9,-128.14453638,0.48755161,469.0,-54.025204,-37.860916,-167.854361,1.6,-0.1,578.0
137.95,-128.14455123,0.48749278,463.5,-53.12677,-37.5546475,-168.5340175,1.65,-0.1,579.0
138.0,-128.14456608,0.48743395,458.0,-52.228336,-37.248379,-169.213674,1.7,-0.1,580.0
138.05,-128.1445775,0.48738838,454.0,-51.489002,-37.005186,-169.748952,1.7,-0.1,581.0
138.1,-128.14458892,0.48734281,450.0,-50.749668,-36.761993,-170.28423,1.7,-0.1,582.0
138.15,-128.144601475,0.48728052,444.0,-50.177597,-36.568531,-170.70066150000002,1.7,-0.1,583.0
138.2,-128.14461403,0.48721823,438.0,-49.605526,-36.375069,-171.117093,1.7,-0.1,584.0
138.25,-128.144625445,0.48716344,433.5,-48.7549055,-36.028187,-171.7615255,1.75,-0.1,585.5
138.3,-128.14463686,0.48710865,429.0,-47.904285,-35.681305,-172.405958,1.8,-0.1,587.0
138.35,-128.144647125,0.48704924,423.5,-47.365667,-35.461656500000004,-172.814014,1.8,-0.1,588.0
138.4,-128.14465739,0.48698983,418.0,-46.827049,-35.242008,-173.22207,1.8,-0.1,589.0
138.45,-128.1446648,0.48694023,414.0,-46.201141,-34.98328,-173.6640295,1.8,-0.1,590.0
138.5,-128.14467221,0.48689063,410.0,-45.575233,-34.724552,-174.105989,1.8,-0.1,591.0
138.55,-128.144681335,0.486832955,405.0,-44.731771,-34.3742635,-174.68644949999998,1.85,-0.1,592.0
138.6,-128.14469046,0.48677528,400.0,-43.888309,-34.023975,-175.26691,1.9,-0.1,593.0
138.65,-128.144697855,0.48671069,395.0,-43.336,-33.7945155,-175.6416285,1.9,-0.15,594.5
138.7,-128.14470525,0.4866461,390.0,-42.783691,-33.565056,-176.016347,1.9,-0.2,596.0
138.75,-128.14471093999998,0.486591885,385.5,-41.8568645,-33.1791725,-176.5917225,1.85,-0.2,597.0
138.8,-128.14471663,0.48653767,381.0,-40.930038,-32.793289,-177.167098,1.8,-0.2,598.0
138.85,-128.14472231000002,0.4864736549999999,376.0,-40.304506,-32.532846500000005,-177.555431,1.75,-0.2,599.0
138.9,-128.14472799,0.48640964,371.0,-39.678974,-32.272404,-177.943764,1.7,-0.2,600.0
138.95,-128.14473252,0.48634447,366.5,-38.7117765,-31.476693500000003,-136.80381799999998,1.95,-0.25,601.0
139.0,-128.14473705,0.4862793,362.0,-37.744579,-30.680983,-95.663872,2.2,-0.3,602.0
139.05,-128.14474102,0.48622682,358.0,-36.787809,-29.7781565,-42.679783,2.6500000000000004,-0.3,603.0
139.1,-128.14474499,0.48617434,354.0,-35.831039,-28.87533,10.304306,3.1,-0.3,604.0
139.15,-128.144746085,0.486109175,349.5,-35.153236,-28.235739,47.8399735,3.5,-0.35,604.0
139.2,-128.14474718,0.48604401,345.0,-34.475433,-27.596148,85.375641,3.9,-0.4,604.0
139.25,-128.14474771,0.48598692,341.5,-33.8818835,-26.737553,103.475159,4.45,-0.45,604.0
139.3,-128.14474824,0.48592983,338.0,-33.288334,-25.878958,121.574677,5.0,-0.5,604.0
139.35,-128.144747615,0.4858612049999999,333.5,-32.2766325,-24.0098905,132.3557435,5.8,-0.55,605.0
139.4,-128.14474699,0.48579258,329.0,-31.264931,-22.140823,143.13681,6.6,-0.6,606.0
139.45,-128.14474293,0.485724535,325.5,-30.6179495,-20.6972435,148.1821745,6.949999999999999,-0.55,605.0
139.5,-128.14473887,0.48565649,322.0,-29.970968,-19.253664,153.227539,7.3,-0.5,604.0
139.55,-128.14473308499998,0.48557864,318.0,-29.353606,-17.6369745,156.26062000000002,7.55,-0.5,603.5
139.6,-128.1447273,0.48550079,314.0,-28.736244,-16.020285,159.293701,7.8,-0.5,603.0
139.65,-128.14471923000002,0.485435635,311.0,-28.431347,-15.2218445,160.7916715,8.05,-0.5,602.5
139.7,-128.14471116,0.48537048,308.0,-28.12645,-14.423404,162.289642,8.3,-0.5,602.0
139.75,-128.144701365,0.48529667,305.5,-27.58167,-12.4392635,162.778076,8.3,-0.45,601.5
139.8,-128.14469157,0.48522286,303.0,-27.03689,-10.455123,163.26651,8.3,-0.4,601.0
139.85,-128.14468236,0.4851651999999999,301.0,-26.782446,-9.5220395,163.46958899999998,8.2,-0.35,601.0
139.9,-128.14467315,0.48510754,299.0,-26.528002,-8.588956,163.672668,8.1,-0.3,601.0
139.95,-128.14465876999998,0.48502912,296.5,-26.246919,-7.268756,163.492538,7.949999999999999,-0.3,600.5
140.0,-128.14464439,0.4849507,294.0,-25.965836,-5.948556,163.312408,7.8,-0.3,600.0
140.05,-128.14462886500002,0.484872285,292.0,-25.7264255,-4.655731,162.92369050000002,7.699999999999999,-0.25,600.0
