Time,Longitude,Latitude,Altitude,Roll,Pitch,Yaw,AOA,AOS,TAS
140.1,-128.14461334,0.48479387,290.0,-25.487015,-3.362906,162.534973,7.6,-0.2,600.0
140.15,-128.144598975,0.484735635,289.0,-25.380107,-2.785597,162.3614045,7.6,-0.2,599.5
140.2,-128.14458461,0.4846774,288.0,-25.273199,-2.208288,162.187836,7.6,-0.2,599.0
140.25,-128.14456852,0.48461052,287.0,-25.120038,-0.8052954999999999,161.5471805,7.55,-0.2,598.5
140.3,-128.14455243,0.48454364,286.0,-24.966877,0.597697,160.906525,7.5,-0.2,598.0
140.35,-128.144532325,0.48446811,285.0,-24.859935,1.6094035,160.437378,7.5,-0.2,597.5
140.4,-128.14451222,0.48439258,284.0,-24.752993,2.62111,159.968231,7.5,-0.2,597.0
140.45,-128.14449269,0.484326275,283.5,-24.7076505,3.545277,159.5115965,7.4,-0.2,596.0
140.5,-128.14447316,0.48425997,283.0,-24.662308,4.469444,159.054962,7.3,-0.2,595.0
140.55,-128.14444961499998,0.48417983,282.5,-24.641552,5.6784680000000005,158.43692,7.199999999999999,-0.2,594.5
140.6,-128.14442607,0.48409969,282.0,-24.620796,6.887492,157.818878,7.1,-0.2,594.0
140.65,-128.14440425499998,0.48403685,282.5,-24.6111565,7.4490595,157.531845,7.05,-0.2,593.5
140.7,-128.14438244,0.48397401,283.0,-24.601517,8.010627,157.244812,7.0,-0.2,593.0
140.75,-128.14435660499998,0.483900215,283.5,-24.840423,9.1519575,156.627014,6.9,-0.2,592.0
140.8,-128.14433077,0.48382642,284.0,-25.079329,10.293288,156.009216,6.8,-0.2,591.0
140.85,-128.14430781,0.483764155,284.5,-25.213735,10.9039085,155.677826,6.75,-0.15,590.5
140.9,-128.14428485,0.48370189,285.0,-25.348141,11.514529,155.346436,6.7,-0.1,590.0
140.95,-128.14425615,0.4836281,286.0,-25.6890805,12.0808085,155.031403,6.45,-0.1,589.5
141.0,-128.14422745,0.48355431,287.0,-26.03002,12.647088,154.71637,6.2,-0.1,589.0
141.05,-128.1442022,0.48349147,288.0,-26.3799945,13.0270815,154.500641,5.800000000000001,-0.05,588.5
141.1,-128.14417695,0.48342863,289.0,-26.729969,13.407075,154.284912,5.4,-0.0,588.0
141.15,-128.144149405,0.48336464,290.0,-26.9524585,13.648648,154.147766,5.2,0.0,587.5
141.2,-128.14412186,0.48330065,291.0,-27.174948,13.890221,154.01062,5.0,-0.0,587.0
141.25,-128.14409661000002,0.483242425,292.5,-27.680832,13.8533125,153.9602965,4.6,0.0,587.0
141.3,-128.14407136,0.4831842,294.0,-28.186716,13.816404,153.909973,4.2,-0.0,587.0
141.35,-128.144043245,0.48312136,295.5,-28.504956,13.7931865,153.878311,3.75,-0.05,586.5
141.4,-128.14401513,0.48305852,297.0,-28.823196,13.769969,153.846649,3.3,-0.1,586.0
141.45,-128.14398357,0.482990495,298.5,-29.163816,13.628215,153.8171385,2.95,-0.05,586.0
141.5,-128.14395201,0.48292247,300.0,-29.504436,13.486461,153.787628,2.6,-0.0,586.0
141.55,-128.143919305,0.482851565,302.0,-29.8266895,13.2970035,153.7617795,2.2,0.0,586.0
141.6,-128.1438866,0.48278066,304.0,-30.148943,13.107546,153.735931,1.8,-0.0,586.0
141.65,-128.14385906,0.48272359,305.5,-30.2973985,13.020267,153.7240295,1.55,0.0,585.5
141.7,-128.14383152,0.48266652,307.0,-30.445854,12.932988,153.712128,1.3,-0.0,585.0
141.75,-128.143801685,0.48260426,308.5,-30.733671,12.8915355,153.529068,1.15,0.0,585.0
141.8,-128.14377185,0.482542,310.0,-31.021488,12.850083,153.346008,1.0,-0.0,585.0
141.85,-128.143740295,0.48247686,312.0,-31.193162,12.8253575,153.236801,0.85,0.0,585.0
141.9,-128.14370874,0.48241172,314.0,-31.364836,12.800632,153.127594,0.7,-0.0,585.0
141.95,-128.14367604,0.482345425,315.5,-31.5065185,12.9101805,152.8876495,0.7,0.0,584.5
142.0,-128.14364334,0.48227913,317.0,-31.648201,13.019729,152.647705,0.7,-0.0,584.0
142.05,-128.14361523000002,0.482221485,318.5,-31.740288,13.1389085,152.4364625,0.75,0.0,584.0
142.1,-128.14358712,0.48216384,320.0,-31.832375,13.258088,152.22522,0.8,-0.0,584.0
142.15,-128.14355269499998,0.48209755,322.0,-31.894153,13.3380405,152.083481,0.8,-0.05,583.5
142.2,-128.14351827,0.48203126,324.0,-31.955931,13.417993,151.941742,0.8,-0.1,583.0
142.25,-128.143487295,0.48197131,326.0,-32.0061885,13.7817165,151.49906900000002,0.9,-0.1,583.0
142.3,-128.14345632,0.48191136,328.0,-32.056446,14.14544,151.056396,1.0,-0.1,583.0
142.35,-128.14342247500002,0.48184737,330.0,-32.0871675,14.3677945,150.78576650000002,1.1,-0.1,583.0
142.4,-128.14338863,0.48178338,332.0,-32.117889,14.590149,150.515137,1.2,-0.1,583.0
142.45,-128.14335764999998,0.4817263149999999,333.5,-32.1548515,14.8665495,150.228531,1.2999999999999998,-0.1,582.5
142.5,-128.14332667,0.48166925,335.0,-32.191814,15.14295,149.941925,1.4,-0.1,582.0
142.55,-128.14329627,0.48161218,337.0,-32.2256945,15.398519,149.688965,1.45,-0.1,581.5
142.6,-128.14326587,0.48155511,339.0,-32.259575,15.654088,149.436005,1.5,-0.1,581.0
142.65,-128.143230305,0.481492855,341.0,-32.2809735,15.8155265,149.27621499999998,1.5,-0.1,581.0
142.7,-128.14319474,0.4814306,343.0,-32.302372,15.976965,149.116425,1.5,-0.1,581.0
142.75,-128.14316434,0.48137584,345.0,-32.411306499999995,16.2564535,148.80452,1.55,-0.1,580.5
142.8,-128.14313394,0.48132108,347.0,-32.520241,16.535942,148.492615,1.6,-0.1,580.0
142.85,-128.14309837500002,0.481260555,349.0,-32.5903705,16.715871999999997,148.29182450000002,1.55,-0.1,579.5
142.9,-128.14306281,0.48120003,351.0,-32.6605,16.895802,148.091034,1.5,-0.1,579.0
142.95,-128.14302725,0.481140085,353.5,-32.8406375,17.102157,147.8487245,1.55,-0.1,578.5
143.0,-128.14299169,0.48108014,356.0,-33.020775,17.308512,147.606415,1.6,-0.1,578.0
143.05,-128.14296072000002,0.481027685,358.0,-33.220415,17.4941615,147.3839265,1.6,-0.1,578.0
143.1,-128.14292975,0.48097523,360.0,-33.420055,17.679811,147.161438,1.6,-0.1,578.0
143.15,-128.142894765,0.48091874,362.0,-33.548206,17.7989795,147.018631,1.55,-0.05,577.5
143.2,-128.14285978,0.48086225,364.0,-33.676357,17.918148,146.875824,1.5,-0.0,577.0
143.25,-128.14282479000002,0.48080634,366.5,-34.0023975,18.2248515,146.481064,1.55,0.0,576.5
143.3,-128.1427898,0.48075043,369.0,-34.328438,18.531555,146.086304,1.6,0.0,576.0
143.35,-128.14274851,0.48068587,372.0,-34.5544375,18.7442035,145.8121795,1.6,0.05,576.0
143.4,-128.14270722,0.48062131,375.0,-34.780437,18.956852,145.538055,1.6,0.1,576.0
143.45,-128.14267453000002,0.480571165,377.0,-35.018316,19.239545,145.189819,1.65,0.1,575.5
143.5,-128.14264184,0.48052102,379.0,-35.256195,19.522238,144.841583,1.7,0.1,575.0
143.55,-128.14260112,0.48045877,381.5,-35.5533735,19.898654,144.38298,1.7999999999999998,0.05,574.5
143.6,-128.1425604,0.48039652,384.0,-35.850552,20.27507,143.924377,1.9,0.0,574.0
143.65,-128.14252714,0.48034868,386.5,-35.984127,20.4442625,143.718231,2.0,0.0,573.5
143.7,-128.14249388,0.48030084,389.0,-36.117702,20.613455,143.512085,2.1,0.0,573.0
143.75,-128.142451445,0.48023917,392.0,-36.4879375,21.091153,142.92587300000002,2.1500000000000004,0.0,572.5
143.8,-128.14240901,0.4801775,395.0,-36.858173,21.568851,142.339661,2.2,0.0,572.0
143.85,-128.14237517499998,0.4801302349999999,397.5,-37.0223045,21.780624,142.079773,2.3,0.0,571.5
143.9,-128.14234134,0.48008297,400.0,-37.186436,21.992397,141.819885,2.4,0.0,571.0
143.95,-128.14230579,0.480034555,402.5,-37.4766865,22.1912975,141.5587005,2.35,0.0,570.5
144.0,-128.14227024,0.47998614,405.0,-37.766937,22.390198,141.297516,2.3,0.0,570.0
144.05,-128.14222666,0.479927355,408.0,-38.232916,22.6239815,140.974869,2.2,0.0,569.5
144.1,-128.14218308,0.47986857,411.0,-38.698895,22.857765,140.652222,2.1,0.0,569.0
144.15,-128.14214294,0.479817275,414.0,-38.9323525,22.9748905,140.4905855,2.05,0.05,568.5
144.2,-128.1421028,0.47976598,417.0,-39.16581,23.092016,140.328949,2.0,0.1,568.0
144.25,-128.142064955,0.47971699,419.5,-40.159611,23.207799,140.048767,1.95,0.1,567.5
144.3,-128.14202711,0.479668,422.0,-41.153412,23.323582,139.768585,1.9,0.1,567.0
144.35,-128.141981815,0.4796115199999999,425.5,-41.810316,23.4001135,139.583389,1.7999999999999998,0.15,566.5
144.4,-128.14193652,0.47955504,429.0,-42.46722,23.476645,139.398193,1.7,0.2,566.0
144.45,-128.14189925,0.4795095099999999,432.0,-43.38815099999999,23.5712005,139.1308745,1.7,0.25,565.0
144.5,-128.14186198,0.47946398,435.0,-44.309082,23.665756,138.863556,1.7,0.3,564.0
144.55,-128.14181725999998,0.4794098049999999,438.0,-45.6475755,23.7983245,138.472061,1.7,0.35,563.5
144.6,-128.14177254,0.47935563,441.0,-46.986069,23.930893,138.080566,1.7,0.4,563.0
144.65,-128.141735845,0.47931356,443.5,-47.5976315,23.991462,137.9017025,1.65,0.45,562.5
144.7,-128.14169915,0.47927149,446.0,-48.209194,24.052031,137.722839,1.6,0.5,562.0
144.75,-128.14166131000002,0.47922769,449.0,-49.7633535,24.270676,137.06764199999998,1.65,0.55,561.5
144.8,-128.14162347,0.47918389,452.0,-51.317513,24.489321,136.412445,1.7,0.6,561.0
144.85,-128.14157703,0.4791320249999999,455.5,-52.474953,24.6533445,135.920822,1.7999999999999998,0.6499999999999999,560.5
144.9,-128.14153059,0.47908016,459.0,-53.632393,24.817368,135.429199,1.9,0.7,560.0
144.95,-128.141491035,0.4790369399999999,462.0,-54.5932215,24.960216,134.938202,1.95,0.75,559.5
145.0,-128.14145148,0.47899372,465.0,-55.55405,25.103064,134.447205,2.0,0.8,559.0
145.05,-128.14140504,0.47894416,468.0,-56.8839185,25.3070985,133.6892395,2.15,0.8,558.5
145.1,-128.1413586,0.4788946,471.0,-58.213787,25.511133,132.931274,2.3,0.8,558.0
145.15,-128.14131847,0.47885484,474.0,-58.848505,25.608515500000003,132.5695035,2.35,0.8,557.0
145.2,-128.14127834,0.47881508,477.0,-59.483223,25.705898,132.207733,2.4,0.8,556.0
145.25,-128.141231335,0.47876898,480.5,-60.587059,25.7851245,131.557266,2.4,0.8,555.5
145.3,-128.14118433,0.47872288,484.0,-61.690895,25.864351,130.906799,2.4,0.8,555.0
145.35,-128.141144205,0.47868485,486.5,-62.2429715,25.9025915,130.581131,2.35,0.8,554.5
145.4,-128.14110408,0.47864682,489.0,-62.795048,25.940832,130.255463,2.3,0.8,554.0
145.45,-128.14106223,0.47860821,492.0,-63.331612,25.929761,129.9283145,2.3,0.8,553.5
145.5,-128.14102038,0.4785696,495.0,-63.868176,25.91869,129.601166,2.3,0.8,553.0
145.55,-128.140971085,0.478525235,498.5,-64.5508175,25.8559255,129.17425550000002,2.2,0.75,552.5
145.6,-128.14092179,0.47848087,502.0,-65.233459,25.793161,128.747345,2.1,0.7,552.0
145.65,-128.1408702,0.478436505,505.5,-65.6176145,25.757838,128.50708,2.0,0.6499999999999999,551.0
145.7,-128.14081861,0.47839214,509.0,-66.00177,25.722515,128.266815,1.9,0.6,550.0
145.75,-128.140775045,0.47835584,512.0,-66.671612,25.6565875,127.713699,1.85,0.6499999999999999,549.5
145.8,-128.14073148,0.47831954,515.0,-67.341454,25.59066,127.160583,1.8,0.7,549.0
145.85,-128.140681615,0.478278055,518.5,-67.801205,25.54541,126.7809445,1.8,0.7,548.0
145.9,-128.14063175,0.47823657,522.0,-68.260956,25.50016,126.401306,1.8,0.7,547.0
145.95,-128.14058704,0.478202005,524.5,-68.6624755,25.472827,125.9568785,1.75,0.6499999999999999,546.5
146.0,-128.14054233,0.47816744,527.0,-69.063995,25.445494,125.512451,1.7,0.6,546.0
146.05,-128.14049017,0.478126535,530.5,-69.554855,25.4218215,124.878845,1.75,0.6,545.5
146.1,-128.14043801,0.47808563,534.0,-70.045715,25.398149,124.245239,1.8,0.6,545.0
146.15,-128.140397315,0.478055675,537.0,-70.27409750000001,25.3871355,123.9504395,1.85,0.6,544.5
146.2,-128.14035662,0.47802572,540.0,-70.50248,25.376122,123.65564,1.9,0.6,544.0
146.25,-128.140302745,0.477986545,543.0,-70.96254,25.34435,122.960617,1.95,0.6,543.5
146.3,-128.14024887,0.47794737,546.0,-71.4226,25.312578,122.265594,2.0,0.6,543.0
146.35,-128.140204165,0.47791626,549.0,-71.63665,25.29765,121.9406735,2.0,0.6,542.5
146.4,-128.14015946,0.47788515,552.0,-71.8507,25.282722,121.615753,2.0,0.6,542.0
146.45,-128.14011246500002,0.4778540449999999,555.0,-72.08780250000001,25.239144,121.26358,1.95,0.6,541.5
146.5,-128.14006547,0.47782294,558.0,-72.324905,25.195566,120.911407,1.9,0.6,541.0
146.55,-128.140009875,0.477786075,561.5,-72.5751685,25.136757,120.543396,1.85,0.6,540.0
146.6,-128.13995428,0.47774921,565.0,-72.825432,25.077948,120.175385,1.8,0.6,539.0
146.65,-128.139905565,0.47771926,568.0,-72.949871,25.048708,119.9924165,1.75,0.6,538.5
146.7,-128.13985685,0.47768931,571.0,-73.07431,25.019468,119.809448,1.7,0.6,538.0
146.75,-128.13979954,0.4776541749999999,574.0,-73.2430115,24.891297,119.472763,1.5499999999999998,0.6,537.5
146.8,-128.13974223,0.47761904,577.0,-73.411713,24.763126,119.136078,1.4,0.6,537.0
146.85,-128.13969638499998,0.477591395,580.0,-73.492741,24.6998325,118.9726565,1.2999999999999998,0.6,536.5
146.9,-128.13965054,0.47756375,583.0,-73.573769,24.636539,118.809235,1.2,0.6,536.0
146.95,-128.139592655,0.477530345,586.0,-73.688034,24.5616435,118.392792,1.15,0.6,535.5
147.0,-128.13953477,0.47749694,589.0,-73.802299,24.486748,117.976349,1.1,0.6,535.0
147.05,-128.13948147500005,0.477466415,592.5,-73.917812,24.418321,117.4609375,1.1,0.6,535.0
147.1,-128.13942818,0.47743589,596.0,-74.033325,24.349894,116.945526,1.1,0.6,535.0
147.15,-128.139382335,0.47741113,598.5,-74.09484850000001,24.313453,116.6710355,1.15,0.6,534.5
147.2,-128.13933649,0.47738637,601.0,-74.156372,24.277012,116.396545,1.2,0.6,534.0
147.25,-128.13928262000002,0.477357575,604.0,-74.365936,24.252202,115.480743,1.2999999999999998,0.6,533.5
147.3,-128.13922875,0.47732878,607.0,-74.5755,24.227392,114.564941,1.4,0.6,533.0
147.35,-128.13917259,0.47729999,610.0,-74.6966205,24.214014,114.035812,1.6,0.6,532.0
147.4,-128.13911643,0.4772712,613.0,-74.817741,24.200636,113.506683,1.8,0.6,531.0
147.45,-128.13906657500002,0.47724759,615.5,-74.9365615,24.183135,112.9413755,1.9,0.6,530.5
147.5,-128.13901672,0.47722398,618.0,-75.055382,24.165634,112.376068,2.0,0.6,530.0
147.55,-128.138959415,0.4771963449999999,621.0,-75.19854749999999,24.14209,111.6690215,2.15,0.6499999999999999,529.5
147.6,-128.13890211,0.47716871,624.0,-75.341713,24.118546,110.961975,2.3,0.7,529.0
147.65,-128.13884710000002,0.4771451049999999,627.0,-75.4220085,24.105343,110.565445,2.4,0.6499999999999999,528.5
147.7,-128.13879209,0.4771215,630.0,-75.502304,24.09214,110.168915,2.5,0.6,528.0
147.75,-128.138743955,0.477100775,632.5,-75.55680849999999,24.03751,109.5267945,2.5,0.6,527.5
147.8,-128.13869582,0.47708005,635.0,-75.611313,23.98288,108.884674,2.5,0.6,527.0
147.85,-128.13864539500003,0.47705933,638.0,-75.645092,23.946973,108.4699705,2.5,0.6,526.5
147.9,-128.13859497,0.47703861,641.0,-75.678871,23.911066,108.055267,2.5,0.6,526.0
147.95,-128.138534805,0.47701674,644.0,-75.672741,23.858554,107.5640865,2.5,0.55,525.0
148.0,-128.13847464,0.47699487,647.0,-75.666611,23.806042,107.072906,2.5,0.5,524.0
148.05,-128.13842135,0.476974725,649.5,-75.6334115,23.747598,106.5810695,2.45,0.5,523.5
148.1,-128.13836806,0.47695458,652.0,-75.600212,23.689154,106.089233,2.4,0.5,523.0
148.15,-128.138305605,0.47693387,655.0,-75.57945649999999,23.6526035,105.781662,2.35,0.5,522.5
148.2,-128.13824315,0.47691316,658.0,-75.558701,23.616053,105.474091,2.3,0.5,522.0
148.25,-128.13818986,0.47689532,661.0,-75.3925595,23.539238,104.874527,2.3,0.5,521.5
148.3,-128.13813657,0.47687748,664.0,-75.226418,23.462423,104.274963,2.3,0.5,521.0
148.35,-128.138075835,0.476859075,667.0,-75.119114,23.412812,103.887741,2.25,0.5,520.5
148.4,-128.1380151,0.47684067,670.0,-75.01181,23.363201,103.500519,2.2,0.5,520.0
148.45,-128.13796524999998,0.47682629,672.5,-74.8190765,23.306589,103.0891115,2.2,0.5,519.5
148.5,-128.1379154,0.47681191,675.0,-74.626343,23.249977,102.677704,2.2,0.5,519.0
148.55,-128.13785524,0.47679523,677.5,-74.384426,23.185717500000003,102.2207945,2.1500000000000004,0.5,518.5
148.6,-128.13779508,0.47677855,680.0,-74.142509,23.121458,101.763885,2.1,0.5,518.0
148.65,-128.13774237,0.476765905,682.5,-74.0248565,23.090207,101.5416715,2.1500000000000004,0.45,517.5
148.7,-128.13768966,0.47675326,685.0,-73.907204,23.058956,101.319458,2.2,0.4,517.0
148.75,-128.13763122,0.476738885,688.0,-73.608139,22.9664535,100.8760225,2.2,0.35,517.0
148.8,-128.13757278,0.47672451,691.0,-73.309074,22.873951,100.432587,2.2,0.3,517.0
148.85,-128.137522935,0.4767130149999999,693.5,-73.1499555,22.824463,100.1992035,2.2,0.3,516.5
148.9,-128.13747309,0.47670152,696.0,-72.990837,22.774975,99.96582,2.2,0.3,516.0
148.95,-128.13740719999998,0.476688305,699.0,-72.8195265,22.703745,99.6149445,2.2,0.3,515.5
149.0,-128.13734131,0.47667509,702.0,-72.648216,22.632515,99.264069,2.2,0.3,515.0
149.05,-128.137287455,0.476663595,704.5,-72.5152435,22.566493,98.9321445,2.2,0.3,514.5
149.1,-128.1372336,0.4766521,707.0,-72.382271,22.500471,98.60022,2.2,0.3,514.0
149.15,-128.137174015,0.476641765,709.5,-72.29457500000001,22.4569265,98.381302,2.1500000000000004,0.35,513.5
149.2,-128.13711443,0.47663143,712.0,-72.206879,22.413382,98.162384,2.1,0.4,513.0
149.25,-128.13705943,0.476622245,714.5,-72.1699375,22.3546135,97.610138,2.05,0.4,512.5
149.3,-128.13700443,0.47661306,717.0,-72.132996,22.295845,97.057892,2.0,0.4,512.0
149.35,-128.13694943000002,0.476603875,719.5,-72.112236,22.260168,96.717377,2.0,0.45,511.5
149.4,-128.13689443,0.47659469,722.0,-72.091476,22.224491,96.376862,2.0,0.5,511.0
149.45,-128.13683370500002,0.47658666,725.0,-72.0893665,22.1804495,95.9950715,2.0,0.5,510.5
149.5,-128.13677298,0.47657863,728.0,-72.087257,22.136408,95.613281,2.0,0.5,510.0
149.55,-128.13671683500002,0.4765706,730.5,-72.1011235,22.084279,95.1882935,2.0,0.5,509.5
149.6,-128.13666069,0.47656257,733.0,-72.11499,22.03215,94.763306,2.0,0.5,509.0
149.65,-128.13659939,0.476555695,735.5,-72.123684,21.9994485,94.496689,2.2,0.4,508.5
149.7,-128.13653809,0.47654882,738.0,-72.132378,21.966747,94.230072,2.4,0.3,508.0
149.75,-128.13648882,0.47654367,740.0,-72.1366045,21.867732,93.8763275,2.5,0.25,508.0
149.8,-128.13643955,0.47653852,742.0,-72.140831,21.768717,93.522583,2.6,0.2,508.0
149.85,-128.136378825,0.476532795,745.0,-72.14385200000001,21.6980935,93.2702635,2.6500000000000004,0.2,507.5
149.9,-128.1363181,0.47652707,748.0,-72.146873,21.62747,93.017944,2.7,0.2,507.0
149.95,-128.13626253,0.476523075,750.5,-72.1588855,21.5418195,92.755859,2.55,0.25,506.5
150.0,-128.13620696,0.47651908,753.0,-72.170898,21.456169,92.493774,2.4,0.3,506.0
150.05,-128.13614681,0.4765145149999999,755.5,-72.1913105,21.342002,92.167511,2.2,0.35,505.5
150.1,-128.13608666,0.47650995,758.0,-72.211723,21.227835,91.841248,2.0,0.4,505.0
150.15,-128.13603510000002,0.47650768,760.0,-72.221378,21.1738185,91.68689,1.95,0.4,504.5
150.2,-128.13598354,0.47650541,762.0,-72.231033,21.119802,91.532532,1.9,0.4,504.0
150.25,-128.13592224500002,0.476502575,764.5,-72.23872349999999,20.9947795,91.0985415,1.7999999999999998,0.4,503.5
150.3,-128.13586095,0.47649974,767.0,-72.246414,20.869757,90.664551,1.7,0.4,503.0
150.35,-128.13580767,0.47649747,769.5,-72.2502135,20.8017895,90.426575,1.75,0.4,503.0
150.4,-128.13575439,0.4764952,772.0,-72.254013,20.733822,90.188599,1.8,0.4,503.0
150.45,-128.13569023,0.476494095,774.5,-72.2556345,20.652999,89.798981,2.3,0.25,502.5
150.5,-128.13562607,0.47649299,777.0,-72.257256,20.572176,89.409363,2.8,0.1,502.0
150.55,-128.13556420499998,0.476491885,779.5,-72.25714500000001,20.4882155,88.93862949999999,3.35,-0.05,501.5
150.6,-128.13550234,0.47649078,782.0,-72.257034,20.404255,88.467896,3.9,-0.2,501.0
150.65,-128.135449635,0.476491395,784.0,-72.256977,20.3619755,88.2308505,3.05,0.1,500.5
150.7,-128.13539693,0.47649201,786.0,-72.25692,20.319696,87.993805,2.2,0.4,500.0
150.75,-128.135340795,0.476492055,788.5,-72.133343,20.226243,87.5345155,1.3,0.7,499.5
150.8,-128.13528466,0.4764921,791.0,-72.009766,20.13279,87.075226,0.4,1.0,499.0
150.85,-128.13522852,0.476493295,793.0,-71.927765,20.0736125,86.78634650000001,-0.15,1.2,499.0
150.9,-128.13517238,0.47649449,795.0,-71.845764,20.014435,86.497467,-0.7,1.4,499.0
150.95,-128.13510994,0.47649742,797.5,-71.471779,19.909877,86.19412249999999,-0.7,1.35,498.5
151.0,-128.1350475,0.47650035,800.0,-71.097794,19.805319,85.890778,-0.7,1.3,498.0
151.05,-128.13499423000002,0.47650212,802.0,-70.69904349999999,19.708402,85.656723,-0.7,1.3,498.0
151.1,-128.13494096,0.47650389,804.0,-70.300293,19.611485,85.422668,-0.7,1.3,498.0
151.15,-128.134881385,0.47650797,806.5,-70.03402349999999,19.5467665,85.26638750000001,-0.5,1.2000000000000002,497.5
151.2,-128.13482181,0.47651205,809.0,-69.767754,19.482048,85.110107,-0.3,1.1,497.0
151.25,-128.134766245,0.47651613,811.0,-68.83957699999999,19.289605,84.95309449999999,-0.15,1.0,496.5
151.3,-128.13471068,0.47652021,813.0,-67.9114,19.097162,84.796082,-0.0,0.9,496.0
151.35,-128.1346534,0.4765242899999999,815.5,-67.331974,18.977295,84.701233,0.0,0.8,496.0
151.4,-128.13459612,0.47652837,818.0,-66.752548,18.857428,84.606384,0.0,0.7,496.0
151.45,-128.134541705,0.476533025,820.0,-66.112915,18.7224925,84.4871365,-0.15,0.75,495.5
151.5,-128.13448729,0.47653768,822.0,-65.473282,18.587557,84.367889,-0.3,0.8,495.0
151.55,-128.13442886,0.476542915,824.0,-64.755291,18.4348755,84.22732500000001,-0.5,0.8,495.0
151.6,-128.13437043,0.47654815,826.0,-64.0373,18.282194,84.086761,-0.7,0.8,495.0
151.65,-128.13431086,0.476554535,828.5,-63.6192495,18.1932955,84.00491299999999,-0.6499999999999999,0.8,494.5
151.7,-128.13425129,0.47656092,831.0,-63.201199,18.104397,83.923065,-0.6,0.8,494.0
151.75,-128.1342026,0.47656615,832.5,-62.6682435,18.0242835,83.618271,-0.5,0.75,494.0
151.8,-128.13415391,0.47657138,834.0,-62.135288,17.94417,83.313477,-0.4,0.7,494.0
151.85,-128.13408804,0.476578925,836.5,-61.727590500000005,17.883767,83.0749515,-0.3,0.6499999999999999,493.5
151.9,-128.13402217,0.47658647,839.0,-61.319893,17.823364,82.836426,-0.2,0.6,493.0
151.95,-128.13397119,0.4765928499999999,841.0,-61.0390835,17.807353,82.557495,-0.1,0.6,493.0
152.0,-128.13392021,0.47659923,843.0,-60.758274,17.791342,82.278564,-0.0,0.6,493.0
152.05,-128.13386064000002,0.476606195,845.0,-60.456619,17.790957499999998,81.9036255,0.15,0.6,492.5
152.1,-128.13380107,0.47661316,847.0,-60.154964,17.790573,81.528687,0.3,0.6,492.0
152.15,-128.133748945,0.4766207,849.0,-60.0007685,17.790377499999998,81.33703650000001,0.3,0.6499999999999999,492.0
152.2,-128.13369682,0.47662824,851.0,-59.846573,17.790182,81.145386,0.3,0.7,492.0
152.25,-128.133638395,0.476636935,853.0,-59.3612155,17.8077725,80.67095950000001,0.3,0.75,491.5
152.3,-128.13357997,0.47664563,855.0,-58.875858,17.825363,80.196533,0.3,0.8,491.0
152.35,-128.133523265,0.4766543199999999,857.0,-58.602081,17.8354605,79.93019100000001,0.35,0.8,491.0
152.4,-128.13346656,0.47666301,859.0,-58.328304,17.845558,79.663849,0.4,0.8,491.0
152.45,-128.13340527499997,0.476673435,861.0,-57.868488,17.843895,79.3310545,0.55,0.75,490.5
152.5,-128.13334399,0.47668386,863.0,-57.408672,17.842232,78.99826,0.7,0.7,490.0
152.55,-128.13329301,0.47669255,865.0,-56.979644500000006,17.8362245,78.715179,0.8,0.6499999999999999,490.0
152.6,-128.13324203,0.47670124,867.0,-56.550617,17.830217,78.432098,0.9,0.6,490.0
152.65,-128.133180745,0.47671282,869.0,-56.1990585,17.824420500000002,78.2087705,0.95,0.55,489.5
152.7,-128.13311946,0.4767244,871.0,-55.8475,17.818624,77.985443,1.0,0.5,489.0
152.75,-128.133068485,0.476734245,873.0,-55.160162,17.798721,77.633423,1.05,0.45,488.5
152.8,-128.13301751,0.47674409,875.0,-54.472824,17.778818,77.281403,1.1,0.4,488.0
152.85,-128.13295908499998,0.47675624,877.0,-54.0312555,17.766032000000003,77.0552525,1.05,0.4,488.0
152.9,-128.13290066,0.47676839,879.0,-53.589687,17.753246,76.829102,1.0,0.4,488.0
152.95,-128.132849115,0.476779965,881.0,-53.0393485,17.735632000000003,76.5875705,0.95,0.4,488.0
153.0,-128.13279757,0.47679154,883.0,-52.48901,17.718018,76.346039,0.9,0.4,488.0
153.05,-128.13273857500002,0.47680427,885.0,-51.8757325,17.697875,76.089203,0.8500000000000001,0.45,487.5
153.1,-128.13267958,0.476817,887.0,-51.262455,17.677732,75.832367,0.8,0.5,487.0
153.15,-128.13262745999998,0.47682915,888.5,-50.953968,17.6675995,75.703171,0.8,0.45,487.0
153.2,-128.13257534,0.4768413,890.0,-50.645481,17.657467,75.573975,0.8,0.4,487.0
153.25,-128.132517495,0.47685576,892.5,-49.9952355,17.624427,75.308922,0.8,0.35,486.5
153.3,-128.13245965,0.47687022,895.0,-49.34499,17.591387,75.043869,0.8,0.3,486.0
153.35,-128.13240982,0.47688237,896.5,-48.9841425,17.57273,74.896988,0.8,0.3,485.5
153.4,-128.13235999,0.47689452,898.0,-48.623295,17.554073,74.750107,0.8,0.3,485.0
153.45,-128.13230385999998,0.47690898,900.0,-48.219,17.5326755,74.564888,0.8,0.25,485.0
153.5,-128.13224773,0.47692344,902.0,-47.814705,17.511278,74.379669,0.8,0.2,485.0
153.55,-128.132192175,0.4769379,904.0,-47.429848,17.490592,74.190155,0.75,0.2,485.0
153.6,-128.13213662,0.47695236,906.0,-47.044991,17.469906,74.000641,0.7,0.2,485.0
153.65,-128.13208679000002,0.476966235,908.0,-46.8518945,17.459528,73.90554800000001,0.7,0.2,484.5
153.7,-128.13203696,0.47698011,910.0,-46.658798,17.44915,73.810455,0.7,0.2,484.0
153.75,-128.13197739999998,0.47699688,912.0,-46.197935,17.4051115,73.620445,0.6499999999999999,0.25,484.0
153.8,-128.13191784,0.47701365,914.0,-45.737072,17.361073,73.430435,0.6,0.3,484.0
153.85,-128.131866865,0.477028685,916.0,-45.489992,17.336944000000003,73.329544,0.6,0.3,484.0
153.9,-128.13181589,0.47704372,918.0,-45.242912,17.312815,73.228653,0.6,0.3,484.0
153.95,-128.13175862,0.477060485,920.0,-44.8530995,17.2453405,73.1153945,0.5,0.35,483.5
154.0,-128.13170135,0.47707725,922.0,-44.463287,17.177866,73.002136,0.4,0.4,483.0
154.05,-128.13165095,0.47709228,923.5,-44.0984955,17.105199,72.9109955,0.35,0.4,483.0
154.1,-128.13160055,0.47710731,925.0,-43.733704,17.032532,72.819855,0.3,0.4,483.0
154.15,-128.131543275,0.477125235,927.0,-43.501587,16.986295,72.761879,0.25,0.4,482.5
154.2,-128.131486,0.47714316,929.0,-43.26947,16.940058,72.703903,0.2,0.4,482.0
154.25,-128.13143732,0.47715819,931.0,-42.752287,16.8330205,72.573982,0.15,0.4,482.0
154.3,-128.13138864,0.47717322,933.0,-42.235104,16.725983,72.444061,0.1,0.4,482.0
154.35,-128.13133194,0.47719114,935.0,-41.8903545,16.654629999999997,72.35746,0.05,0.4,481.5
154.4,-128.13127524,0.47720906,937.0,-41.545605,16.583277,72.270859,0.0,0.4,481.0
154.45,-128.13121797000002,0.477227555,939.0,-41.03356,16.496378999999997,72.1441575,0.0,0.4,480.5
154.5,-128.1311607,0.47724605,941.0,-40.521515,16.409481,72.017456,-0.0,0.4,480.0
154.55,-128.13111487999998,0.47726108,942.5,-40.093136,16.3414305,71.911926,-0.05,0.4,480.0
154.6,-128.13106906,0.47727611,944.0,-39.664757,16.27338,71.806396,-0.1,0.4,480.0
154.65,-128.131014655,0.477294605,946.0,-39.355835,16.224303,71.730293,-0.1,0.4,480.0
154.7,-128.13096025,0.4773131,948.0,-39.046913,16.175226,71.65419,-0.1,0.4,480.0
154.75,-128.130912145,0.477329285,949.5,-38.4715325,16.0866885,71.5111085,-0.1,0.4,480.0
154.8,-128.13086404,0.47734547,951.0,-37.896152,15.998151,71.368027,-0.1,0.4,480.0
154.85,-128.130804475,0.477365695,953.0,-37.4410685,15.9282565,71.25479899999999,-0.1,0.4,479.5
154.9,-128.13074491,0.47738592,955.0,-36.985985,15.858362,71.141571,-0.1,0.4,479.0
154.95,-128.13069795,0.477402105,957.0,-36.644928,15.8013955,71.0532455,-0.15,0.4,479.0
155.0,-128.13065099,0.47741829,959.0,-36.303871,15.744429,70.96492,-0.2,0.4,479.0
155.05,-128.13058856499998,0.477439675,961.0,-35.780134000000004,15.6518125,70.8253935,-0.2,0.4,478.5
155.1,-128.13052614,0.47746106,963.0,-35.256397,15.559196,70.685867,-0.2,0.4,478.0
155.15,-128.13047918,0.47747782,964.5,-35.033901,15.519851,70.626587,-0.2,0.35,478.0
155.2,-128.13043222,0.47749458,966.0,-34.811405,15.480506,70.567307,-0.2,0.3,478.0
155.25,-128.130376665,0.477514805,968.0,-34.428835,15.3908235,70.432091,-0.25,0.3,478.0
155.3,-128.13032111,0.47753503,970.0,-34.046265,15.301141,70.296875,-0.3,0.3,478.0
155.35,-128.13027014,0.47755352,971.5,-33.8351765,15.251167,70.22153449999999,-0.3,0.3,477.5
155.4,-128.13021917,0.47757201,973.0,-33.624088,15.201193,70.146194,-0.3,0.3,477.0
155.45,-128.13016190000002,0.477592815,975.0,-33.428289500000005,15.139237,70.04390699999999,-0.25,0.3,477.0
155.5,-128.13010463,0.47761362,977.0,-33.232491,15.077281,69.94162,-0.2,0.3,477.0
155.55,-128.1300571,0.47763096,978.5,-33.09458,15.0253275,69.852295,-0.2,0.25,477.0
155.6,-128.13000957,0.4776483,980.0,-32.956669,14.973374,69.76297,-0.2,0.2,477.0
155.65,-128.12995917,0.477667365,981.5,-32.874101499999995,14.9422685,69.709488,-0.15,0.2,477.0
155.7,-128.12990877,0.47768643,983.0,-32.791534,14.911163,69.656006,-0.1,0.2,477.0
155.75,-128.12985149999997,0.477707815,985.0,-32.828432,14.858349,69.5337755,-0.1,0.25,477.0
155.8,-128.12979423,0.4777292,987.0,-32.86533,14.805535,69.411545,-0.1,0.3,477.0
155.85,-128.12973639,0.477751155,989.0,-32.8949435,14.773192000000002,69.33543399999999,-0.15,0.3,476.5
155.9,-128.12967855,0.47777311,991.0,-32.924557,14.740849,69.259323,-0.2,0.3,476.0
155.95,-128.12963159,0.477791025,992.5,-33.0849725,14.7085335,69.1835555,-0.2,0.35,476.0
156.0,-128.12958463,0.47780894,994.0,-33.245388,14.676218,69.107788,-0.2,0.4,476.0
156.05,-128.12952965,0.47783032,996.0,-33.488592,14.6384705,69.0194015,-0.2,0.4,476.0
156.1,-128.12947467,0.4778517,998.0,-33.731796,14.600723,68.931015,-0.2,0.4,476.0
156.15,-128.12942943000002,0.47786961,999.0,-33.848430500000006,14.5826205,68.8886185,-0.2,0.4,475.5
156.2,-128.12938419,0.47788752,1000.0,-33.965065,14.564518,68.846222,-0.2,0.4,475.0
156.25,-128.12932691999998,0.477910055,1002.0,-34.31921,14.4987785,68.7269365,-0.2,0.4,475.0
156.3,-128.12926965,0.47793259,1004.0,-34.673355,14.433039,68.607651,-0.2,0.4,475.0
156.35,-128.12922441,0.477951075,1005.5,-34.8513795,14.3997945,68.54785150000001,-0.15,0.45,475.0
156.4,-128.12917917,0.47796956,1007.0,-35.029404,14.36655,68.488052,-0.1,0.5,475.0
156.45,-128.129123045,0.477992095,1008.5,-35.263681500000004,14.314728,68.3942795,-0.1,0.5,474.5
156.5,-128.12906692,0.47801463,1010.0,-35.497959,14.262906,68.300507,-0.1,0.5,474.0
156.55,-128.129014235,0.47803601,1012.0,-35.739418,14.205248,68.195923,-0.1,0.55,474.0
156.6,-128.12896155,0.47805739,1014.0,-35.980877,14.14759,68.091339,-0.1,0.6,474.0
156.65,-128.12891230000002,0.47807761,1015.5,-36.1104735,14.1166435,68.035217,-0.15,0.6,474.0
156.7,-128.12886305,0.47809783,1017.0,-36.24007,14.085697,67.979095,-0.2,0.6,474.0
156.75,-128.128809215,0.47812036,1018.5,-36.537214000000006,14.013666,67.8252485,-0.15,0.55,474.0
156.8,-128.12875538,0.47814289,1020.0,-36.834358,13.941635,67.671402,-0.1,0.5,474.0
156.85,-128.12870556,0.47816369,1021.5,-37.006973,13.8997635,67.58136,-0.1,0.5,474.0
156.9,-128.12865574,0.47818449,1023.0,-37.179588,13.857892,67.491318,-0.1,0.5,474.0
156.95,-128.12860247999998,0.478207595,1024.5,-37.397495000000006,13.8037555,67.3681335,-0.1,0.55,473.5
157.0,-128.12854922,0.4782307,1026.0,-37.615402,13.749619,67.244949,-0.1,0.6,473.0
157.05,-128.128500545,0.4782515,1027.5,-37.8461245,13.691593999999998,67.1092605,-0.15,0.6499999999999999,473.0
157.1,-128.12845187,0.4782723,1029.0,-38.076847,13.633569,66.973572,-0.2,0.7,473.0
157.15,-128.12839918499998,0.478295405,1030.5,-38.218618500000005,13.5979135,66.890198,-0.2,0.7,473.0
157.2,-128.1283465,0.47831851,1032.0,-38.36039,13.562258,66.806824,-0.2,0.7,473.0
157.25,-128.12829725,0.478339885,1033.5,-38.5902405,13.4913055,66.6465,-0.15,0.6499999999999999,473.0
157.3,-128.128248,0.47836126,1035.0,-38.820091,13.420353,66.486176,-0.1,0.6,473.0
157.35,-128.128189015,0.47838726,1037.0,-38.9874245,13.368403,66.368889,-0.1,0.6,473.0
157.4,-128.12813003,0.47841326,1039.0,-39.154758,13.316453,66.251602,-0.1,0.6,473.0
157.45,-128.12808479,0.478433475,1040.0,-39.30636,13.265255,66.144928,-0.1,0.6,473.0
157.5,-128.12803955,0.47845369,1041.0,-39.457962,13.214057,66.038254,-0.1,0.6,473.0
157.55,-128.12799087500002,0.47847564,1042.5,-39.652223500000005,13.145921,65.9012835,-0.1,0.6499999999999999,472.5
157.6,-128.1279422,0.47849759,1044.0,-39.846485,13.077785,65.764313,-0.1,0.7,472.0
157.65,-128.127887225,0.4785230099999999,1045.5,-39.964481500000005,13.036398,65.6811145,-0.1,0.7,472.0
157.7,-128.12783225,0.47854843,1047.0,-40.082478,12.995011,65.597916,-0.1,0.7,472.0
157.75,-128.12778357000002,0.478570955,1048.5,-40.281525,12.9147375,65.4433445,-0.1,0.6499999999999999,472.0
157.8,-128.12773489,0.47859348,1050.0,-40.480572,12.834464,65.288773,-0.1,0.6,472.0
157.85,-128.127679915,0.478618895,1051.5,-40.6132335,12.780783,65.1855395,-0.1,0.6,472.0
157.9,-128.12762494,0.47864431,1053.0,-40.745895,12.727102,65.082306,-0.1,0.6,472.0
157.95,-128.12757684000002,0.478667415,1054.5,-40.86689,12.67288,64.975708,-0.1,0.6,472.0
158.0,-128.12752874,0.47869052,1056.0,-40.987885,12.618658,64.86911,-0.1,0.6,472.0
158.05,-128.1274709,0.47871767,1057.5,-41.139353,12.547275,64.7273865,-0.15,0.6499999999999999,471.5
158.1,-128.12741306,0.47874482,1059.0,-41.290821,12.475892,64.585663,-0.2,0.7,471.0
158.15,-128.12736839500002,0.47876677,1060.0,-41.360058,12.4432635,64.5208815,-0.2,0.7,471.0
158.2,-128.12732373,0.47878872,1061.0,-41.429295,12.410635,64.4561,-0.2,0.7,471.0
158.25,-128.12727219,0.47881413,1062.5,-41.561604,12.328624,64.2772215,-0.2,0.7,471.0
158.3,-128.12722065,0.47883954,1064.0,-41.693913,12.246613,64.098343,-0.2,0.7,471.0
158.35,-128.12717312,0.478862645,1065.5,-41.769724,12.199017,63.9941485,-0.15,0.7,471.0
158.4,-128.12712559,0.47888575,1067.0,-41.845535,12.151421,63.889954,-0.1,0.7,471.0
158.45,-128.12706947499998,0.47891405,1068.5,-41.935215,12.084181,63.7483295,-0.1,0.7,471.0
158.5,-128.12701336,0.47894235,1070.0,-42.024895,12.016941,63.606705,-0.1,0.7,471.0
158.55,-128.126967545,0.478965455,1071.0,-42.0947685,11.9603305,63.4892505,-0.05,0.6499999999999999,471.0
158.6,-128.12692173,0.47898856,1072.0,-42.164642,11.90372,63.371796,-0.0,0.6,471.0
158.65,-128.12686847499998,0.479015705,1073.5,-42.212444000000005,11.8649925,63.291443,0.0,0.6,471.0
158.7,-128.12681522,0.47904285,1075.0,-42.260246,11.826265,63.21109,-0.0,0.6,471.0
158.75,-128.126772845,0.479064795,1076.0,-42.324995,11.749577,63.049164000000005,0.0,0.6,471.0
158.8,-128.12673047,0.47908674,1077.0,-42.389744,11.672889,62.887238,-0.0,0.6,471.0
158.85,-128.126676645,0.47911504,1078.5,-42.438963,11.6139925,62.762833,0.0,0.6499999999999999,470.5
158.9,-128.12662282,0.47914334,1080.0,-42.488182,11.555096,62.638428,0.0,0.7,470.0
158.95,-128.126575865,0.47916817,1081.0,-42.528345,11.499246,62.5179215,0.05,0.7,470.0
159.0,-128.12652891,0.479193,1082.0,-42.568508,11.443396,62.397415,0.1,0.7,470.0
159.05,-128.12647679999998,0.479220145,1083.5,-42.616104,11.3714595,62.2406005,0.1,0.7,470.0
159.1,-128.12642469,0.47924729,1085.0,-42.6637,11.299523,62.083786,0.1,0.7,470.0
159.15,-128.126371435,0.479276165,1086.5,-42.691805,11.2570465,61.9911805,0.05,0.7,470.0
159.2,-128.12631818,0.47930504,1088.0,-42.71991,11.21457,61.898575,0.0,0.7,470.0
159.25,-128.126277525,0.479327565,1089.0,-42.771151,11.1372665,61.729706,0.0,0.7,470.0
159.3,-128.12623687,0.47935009,1090.0,-42.822392,11.059963,61.560837,-0.0,0.7,470.0
159.35,-128.12618075,0.479380695,1091.0,-42.863184,10.9984295,61.426422,0.0,0.6499999999999999,470.0
159.4,-128.12612463,0.4794113,1092.0,-42.903976,10.936896,61.292007,-0.0,0.6,470.0
159.45,-128.12608053999998,0.4794361299999999,1093.5,-42.9423065,10.8808425,61.1720045,0.0,0.6,470.0
159.5,-128.12603645,0.47946096,1095.0,-42.980637,10.824789,61.052002,-0.0,0.6,470.0
159.55,-128.125978615,0.479492725,1096.0,-43.034594,10.7469505,60.8868635,0.0,0.6,470.0
159.6,-128.12592078,0.47952449,1097.0,-43.088551,10.669112,60.721725,0.0,0.6,470.0
159.65,-128.12587840499998,0.47954874,1098.0,-43.112183,10.6350155,60.6493835,0.05,0.6,470.0
159.7,-128.12583603,0.47957299,1099.0,-43.135815,10.600919,60.577042,0.1,0.6,470.0
159.75,-128.12578679,0.479601865,1100.5,-43.194046,10.513532,60.394234,0.1,0.6,470.0
159.8,-128.12573755,0.47963074,1102.0,-43.252277,10.426145,60.211426,0.1,0.6,470.0
159.85,-128.12569173999998,0.4796573,1103.0,-43.2842195,10.3781715,60.111084000000005,0.1,0.6,470.0
159.9,-128.12564593,0.47968386,1104.0,-43.316162,10.330198,60.010742,0.1,0.6,470.0
159.95,-128.125594395,0.47971389,1105.0,-43.350849,10.2668075,59.8796765,0.1,0.6499999999999999,470.0
160.0,-128.12554286,0.47974392,1106.0,-43.385536,10.203417,59.748611,0.1,0.7,470.0
160.05,-128.12549934,0.479769325,1107.0,-43.417547,10.138075,59.6142345,0.1,0.7,470.0
