Time,Longitude,Latitude,Altitude,Roll,Pitch,Yaw,AOA,AOS,TAS
40.1,-128.13576558,0.49431715,2693.0,3.522416,-19.721186,-119.823166,2.3,-0.1,599.0
40.15,-128.135830855,0.4942796149999999,2689.5,3.9682965,-19.6640685,-119.7433015,2.15,-0.05,599.5
40.2,-128.13589613,0.49424208,2686.0,4.414177,-19.606951,-119.663437,2.0,0.0,600.0
40.25,-128.1359511,0.49421032,2683.0,4.8497625,-19.4968645,-119.5454825,1.85,0.05,601.0
40.3,-128.13600607,0.49417856,2680.0,5.285348,-19.386778,-119.427528,1.7,0.1,602.0
40.35,-128.136069055,0.49414218,2677.0,5.574275999999999,-19.313757,-119.3492905,1.65,0.2,602.5
40.4,-128.13613204,0.4941058,2674.0,5.863204,-19.240736,-119.271053,1.6,0.3,603.0
40.45,-128.13618529,0.4940751949999999,2671.0,6.0924035,-18.82086,-119.1103895,1.65,0.3,604.0
40.5,-128.13623854,0.49404459,2668.0,6.321603,-18.400984,-118.949726,1.7,0.3,605.0
40.55,-128.136294085,0.494013405,2665.5,6.4891675,-18.0199005,-118.8120765,1.85,0.35,606.0
40.6,-128.13634963,0.49398222,2663.0,6.656732,-17.638817,-118.674427,2.0,0.4,607.0
40.65,-128.13641777,0.49394353,2659.5,6.77079,-17.205928999999998,-118.555464,2.15,0.45,607.5
40.7,-128.13648591,0.49390484,2656.0,6.884848,-16.773041,-118.436501,2.3,0.5,608.0
40.75,-128.136544885,0.493871345,2653.5,6.9499010000000006,-15.9054815,-118.278248,2.55,0.5,608.5
40.8,-128.13660386,0.49383785,2651.0,7.014954,-15.037922,-118.119995,2.8,0.5,609.0
40.85,-128.136670285,0.49380089,2648.0,7.055757,-14.4937625,-118.0207365,3.05,0.5,609.5
40.9,-128.13673671,0.49376393,2645.0,7.09656,-13.949603,-117.921478,3.3,0.5,610.0
40.95,-128.13680084,0.4937287,2642.5,7.091408,-13.1922,-117.818565,3.4,0.5,610.5
41.0,-128.13686497,0.49369347,2640.0,7.086256,-12.434797,-117.715652,3.5,0.5,611.0
41.05,-128.13692108499998,0.493662285,2638.0,7.0763555,-11.9218545,-117.6496045,3.6,0.45,611.5
41.1,-128.1369772,0.4936311,2636.0,7.066455,-11.408912,-117.583557,3.7,0.4,612.0
41.15,-128.137042475,0.493595295,2634.0,7.098656,-10.9838805,-117.526472,3.8,0.4,612.5
41.2,-128.13710775,0.49355949,2632.0,7.130857,-10.558849,-117.469387,3.9,0.4,613.0
41.25,-128.137163295,0.49352946,2630.0,7.357397,-9.9387675,-117.3756485,3.95,0.4,613.0
41.3,-128.13721884,0.49349943,2628.0,7.583937,-9.318686,-117.28191,4.0,0.4,613.0
41.35,-128.137287555,0.49346247,2626.0,7.735832999999999,-8.902917500000001,-117.219059,4.0,0.4,613.5
41.4,-128.13735627,0.49342551,2624.0,7.887729,-8.487149,-117.156208,4.0,0.4,614.0
41.45,-128.13740895,0.49339721,2622.5,8.357448999999999,-8.00151,-117.059616,3.95,0.35,614.0
41.5,-128.13746163,0.49336891,2621.0,8.827169,-7.515871,-116.963024,3.9,0.3,614.0
41.55,-128.13754122,0.49332675,2619.0,9.3283255,-7.063733,-116.8680305,3.9,0.25,614.5
41.6,-128.13762081,0.49328459,2617.0,9.829482,-6.611595,-116.773037,3.9,0.2,615.0
41.65,-128.13768323,0.493252245,2615.5,10.1530985,-6.370341,-116.7164745,3.85,0.15,615.0
41.7,-128.13774565,0.4932199,2614.0,10.476715,-6.129087,-116.659912,3.8,0.1,615.0
41.75,-128.137797185,0.4931933349999999,2613.0,11.414471,-5.8490165,-116.5354595,3.7,0.05,615.5
41.8,-128.13784872,0.49316677,2612.0,12.352227,-5.568946,-116.411007,3.6,0.0,616.0
41.85,-128.13791514,0.493132115,2610.5,12.888172999999998,-5.40888,-116.339878,3.45,-0.05,616.5
41.9,-128.13798156,0.49309746,2609.0,13.424119,-5.248814,-116.268749,3.3,-0.1,617.0
41.95,-128.138061155,0.49305703,2607.5,14.304440499999998,-5.0837140000000005,-116.109846,3.15,-0.15,617.0
42.0,-128.13814075,0.4930166,2606.0,15.184762,-4.918614,-115.950943,3.0,-0.2,617.0
42.05,-128.138206605,0.4929831,2605.0,15.834288,-4.805586,-115.8299255,2.85,-0.2,617.5
42.1,-128.13827246,0.4929496,2604.0,16.483814,-4.692558,-115.708908,2.7,-0.2,618.0
42.15,-128.13834232,0.492914945,2602.5,17.0858335,-4.544117,-115.5657155,2.55,-0.2,618.0
42.2,-128.13841218,0.49288029,2601.0,17.687853,-4.395676,-115.422523,2.4,-0.2,618.0
42.25,-128.138474595,0.49284968,2600.5,18.4535875,-4.133168,-115.18803,2.4,-0.2,618.5
42.3,-128.13853701,0.49281907,2600.0,19.219322,-3.87066,-114.953537,2.4,-0.2,619.0
42.35,-128.138612025,0.49278268,2598.5,19.725459,-3.697146,-114.798546,2.4,-0.15,619.0
42.4,-128.13868704,0.49274629,2597.0,20.231596,-3.523632,-114.643555,2.4,-0.1,619.0
42.45,-128.13875174999998,0.492715675,2596.5,21.1447285,-3.305723,-114.439373,2.35,-0.1,619.5
42.5,-128.13881646,0.49268506,2596.0,22.057861,-3.087814,-114.235191,2.3,-0.1,620.0
42.55,-128.138881165,0.492654445,2595.0,22.807535,-2.9161975,-114.0733375,2.25,-0.1,620.0
42.6,-128.13894587,0.49262383,2594.0,23.557209,-2.744581,-113.911484,2.2,-0.1,620.0
42.65,-128.13901916999998,0.49258975,2593.5,24.3786705,-2.6132435000000003,-113.771889,2.1500000000000004,-0.1,620.0
42.7,-128.13909247,0.49255567,2593.0,25.200132,-2.481906,-113.632294,2.1,-0.1,620.0
42.75,-128.13915603499998,0.492526785,2592.5,26.4581185,-2.3709685,-113.4785575,2.0,-0.15,620.5
42.8,-128.1392196,0.4924979,2592.0,27.716105,-2.260031,-113.324821,1.9,-0.2,621.0
42.85,-128.139290605,0.492466125,2591.0,28.493852,-2.1914435,-113.229782,1.7999999999999998,-0.25,621.0
42.9,-128.13936161,0.49243435,2590.0,29.271599,-2.122856,-113.134743,1.7,-0.3,621.0
42.95,-128.139435485,0.492402,2589.5,30.846411,-2.104214,-112.9860805,1.5499999999999998,-0.4,621.0
43.0,-128.13950936,0.49236965,2589.0,32.421223,-2.085572,-112.837418,1.4,-0.5,621.0
43.05,-128.139573495,0.49234192,2588.5,33.588686,-2.0831045,-112.7313425,1.2999999999999998,-0.55,621.5
43.1,-128.13963763,0.49231419,2588.0,34.756149,-2.080637,-112.625267,1.2,-0.6,622.0
43.15,-128.13970864,0.492284145,2587.5,35.8866995,-2.048212,-112.4629785,1.15,-0.6,622.0
43.2,-128.13977965,0.4922541,2587.0,37.01725,-2.015787,-112.30069,1.1,-0.6,622.0
43.25,-128.139851805,0.49222348,2586.5,38.5383875,-1.921402,-111.981663,1.05,-0.6,622.5
43.3,-128.13992396,0.49219286,2586.0,40.059525,-1.827017,-111.662636,1.0,-0.6,623.0
43.35,-128.13999039,0.492165705,2585.5,40.9309635,-1.7729455,-111.479866,1.0,-0.6,623.0
43.4,-128.14005682,0.49213855,2585.0,41.802402,-1.718874,-111.297096,1.0,-0.6,623.0
43.45,-128.140131265,0.492108505,2584.5,43.15328,-1.5881075,-110.942421,1.05,-0.6,623.0
43.5,-128.14020571,0.49207846,2584.0,44.504158,-1.457341,-110.587746,1.1,-0.6,623.0
43.55,-128.140285315,0.492047255,2583.5,45.5652735,-1.3492995,-110.3010485,1.15,-0.6,623.5
43.6,-128.14036492,0.49201605,2583.0,46.626389,-1.241258,-110.014351,1.2,-0.6,624.0
43.65,-128.14042562,0.491993515,2583.0,47.426327,-1.187922,-109.8381805,1.25,-0.6499999999999999,624.0
43.7,-128.14048632,0.49197098,2583.0,48.226265,-1.134586,-109.66201,1.3,-0.7,624.0
43.75,-128.14055332499998,0.49194555,2582.5,50.5050335,-1.0710595,-109.28582,1.25,-0.75,624.0
43.8,-128.14062033,0.49192012,2582.0,52.783802,-1.007533,-108.90963,1.2,-0.8,624.0
43.85,-128.140689055,0.49189585,2581.5,54.0241395,-0.9729555,-108.70488,1.15,-0.8500000000000001,624.0
43.9,-128.14075778,0.49187158,2581.0,55.264477,-0.938378,-108.50013,1.1,-0.9,624.0
43.95,-128.140835665,0.491844415,2581.0,57.8994045,-0.8762265,-107.9871675,1.15,-0.95,624.5
44.0,-128.14091355,0.49181725,2581.0,60.534332,-0.814075,-107.474205,1.2,-1.0,625.0
44.05,-128.14098571,0.491792395,2580.5,62.535492000000005,-0.767989,-107.0769195,1.25,-1.05,625.0
44.1,-128.14105787,0.49176754,2580.0,64.536652,-0.721903,-106.679634,1.3,-1.1,625.0
44.15,-128.141124875,0.49174615,2579.5,65.78447,-0.7001355,-106.4026605,1.35,-1.2000000000000002,625.0
44.2,-128.14119188,0.49172476,2579.0,67.032288,-0.678368,-106.125687,1.4,-1.3,625.0
44.25,-128.14126977,0.491699905,2578.5,70.038498,-0.695518,-105.1663555,1.5499999999999998,-1.35,625.0
44.3,-128.14134766,0.49167505,2578.0,73.044708,-0.712668,-104.207024,1.7,-1.4,625.0
44.35,-128.14141409500002,0.491655965,2578.0,74.40967950000001,-0.7204545,-103.771431,1.7999999999999998,-1.45,625.0
44.4,-128.14148053,0.49163688,2578.0,75.774651,-0.728241,-103.335838,1.9,-1.5,625.0
44.45,-128.141561855,0.491614325,2577.5,77.803448,-0.8677395000000001,-102.5459745,2.05,-1.55,625.5
44.5,-128.14164318,0.49159177,2577.0,79.832245,-1.007238,-101.756111,2.2,-1.6,626.0
44.55,-128.14170847,0.491573845,2576.5,81.224617,-1.126442,-101.1879005,2.35,-1.6,626.0
44.6,-128.14177376,0.49155592,2576.0,82.616989,-1.245646,-100.61969,2.5,-1.6,626.0
44.65,-128.14185337,0.49153798,2575.5,83.80557999999999,-1.4051505,-100.054344,2.65,-1.55,626.0
44.7,-128.14193298,0.49152004,2575.0,84.994171,-1.564655,-99.488998,2.8,-1.5,626.0
44.75,-128.14200514499998,0.49150326,2574.5,86.20935449999999,-1.856444,-98.732002,2.85,-1.45,626.0
44.8,-128.14207731,0.49148648,2574.0,87.424538,-2.148233,-97.975006,2.9,-1.4,626.0
44.85,-128.142152915,0.49147143,2573.5,88.1400185,-2.3200325,-97.529297,2.95,-1.35,626.0
44.9,-128.14222852,0.49145638,2573.0,88.855499,-2.491832,-97.083588,3.0,-1.3,626.0
44.95,-128.142274915,0.49144827,2572.5,89.490833,-2.751937,-96.530514,3.0,-1.25,626.0
45.0,-128.14232131,0.49144016,2572.0,90.126167,-3.012042,-95.97744,3.0,-1.2,626.0
45.05,-128.1424267,0.49142162,2571.5,90.9279365,-3.364981,-95.2433625,3.0,-1.1,626.5
45.1,-128.14253209,0.49140308,2571.0,91.729706,-3.71792,-94.509285,3.0,-1.0,627.0
45.15,-128.14260769499998,0.4913932199999999,2570.0,92.1409645,-3.92356,-94.072731,3.15,-0.95,627.0
45.2,-128.1426833,0.49138336,2569.0,92.552223,-4.1292,-93.636177,3.3,-0.9,627.0
45.25,-128.142752605,0.49137408,2568.5,93.0903015,-4.458054000000001,-92.9191475,3.4,-0.9,627.0
45.3,-128.14282191,0.4913648,2568.0,93.62838,-4.786908,-92.202118,3.5,-0.9,627.0
45.35,-128.14290267500002,0.4913566649999999,2567.0,93.9925765,-5.0094955,-91.7167855,3.7,-0.8500000000000001,627.0
45.4,-128.14298344,0.49134853,2566.0,94.356773,-5.232083,-91.231453,3.9,-0.8,627.0
45.45,-128.14306019999998,0.4913421249999999,2565.0,94.7373005,-5.561205,-90.31464,4.1,-0.8,627.0
45.5,-128.14313696,0.49133572,2564.0,95.117828,-5.890327,-89.397827,4.3,-0.8,627.0
45.55,-128.14320054,0.4913310549999999,2563.5,95.3683965,-6.1238005,-88.72303400000001,4.55,-0.8,627.5
45.6,-128.14326412,0.49132639,2563.0,95.618965,-6.357274,-88.048241,4.8,-0.8,628.0
45.65,-128.14334545999998,0.49132402,2561.5,95.8065755,-6.593763,-87.357609,4.15,-0.75,627.5
45.7,-128.1434268,0.49132165,2560.0,95.994186,-6.830252,-86.666977,3.5,-0.7,627.0
45.75,-128.143500125,0.491319865,2559.0,96.107723,-7.1408315,-85.7457085,2.95,-0.6499999999999999,627.0
45.8,-128.14357345,0.49131808,2558.0,96.22126,-7.451411,-84.82444,2.4,-0.6,627.0
45.85,-128.14364906499998,0.4913186,2557.0,96.288204,-7.634501999999999,-84.281334,2.25,-0.55,627.5
45.9,-128.14372468,0.49131912,2556.0,96.355148,-7.817593,-83.738228,2.1,-0.5,628.0
45.95,-128.143804305,0.49132194,2554.5,96.296047,-8.085226,-83.006359,2.1500000000000004,-0.5,628.0
46.0,-128.14388393,0.49132476,2553.0,96.236946,-8.352859,-82.27449,2.2,-0.5,628.0
46.05,-128.14396584999997,0.491328155,2551.5,96.1600075,-8.584234,-81.651981,2.25,-0.5,628.5
46.1,-128.14404777,0.49133155,2550.0,96.083069,-8.815609,-81.029472,2.3,-0.5,629.0
46.15,-128.14411709,0.49133784,2549.0,95.9914895,-8.9579565,-80.6568755,2.4,-0.55,629.0
46.2,-128.14418641,0.49134413,2548.0,95.89991,-9.100304,-80.284279,2.5,-0.6,629.0
46.25,-128.144251715,0.491349845,2546.5,95.603157,-9.333781,-79.70755,2.55,-0.6,629.0
46.3,-128.14431702,0.49135556,2545.0,95.306404,-9.567258,-79.130821,2.6,-0.6,629.0
46.35,-128.14440180999998,0.491365875,2543.5,95.0951805,-9.7334495,-78.720287,2.6,-0.6,629.5
46.4,-128.1444866,0.49137619,2542.0,94.883957,-9.899641,-78.309753,2.6,-0.6,630.0
46.45,-128.144564515,0.491387665,2540.0,94.208004,-10.113313000000002,-78.02124,2.45,-0.6,630.0
46.5,-128.14464243,0.49139914,2538.0,93.532051,-10.326985,-77.732727,2.3,-0.6,630.0
46.55,-128.14470946,0.49140889,2536.5,93.020687,-10.4725625,-77.56623049999999,2.15,-0.55,630.5
46.6,-128.14477649,0.49141864,2535.0,92.509323,-10.61814,-77.399734,2.0,-0.5,631.0
46.65,-128.144854405,0.491432995,2533.5,91.9911995,-10.7398415,-77.292362,1.85,-0.5,631.5
46.7,-128.14493232,0.49144735,2532.0,91.473076,-10.861543,-77.18499,1.7,-0.5,632.0
46.75,-128.144999925,0.491459985,2530.5,90.300358,-11.0482835,-77.152855,1.5,-0.5,632.5
46.8,-128.14506753,0.49147262,2529.0,89.12764,-11.235024,-77.12072,1.3,-0.5,633.0
46.85,-128.14514717,0.49148813,2527.0,88.364334,-11.3565735,-77.0998,1.1,-0.5,633.5
46.9,-128.14522681,0.49150364,2525.0,87.601028,-11.478123,-77.07888,0.9,-0.5,634.0
46.95,-128.145296705,0.49151858,2523.0,86.26699450000001,-11.644092,-76.9984475,0.8,-0.45,634.0
47.0,-128.1453666,0.49153352,2521.0,84.932961,-11.810061,-76.918015,0.7,-0.4,634.0
47.05,-128.14544624,0.491550755,2519.0,83.75823600000001,-11.952231,-76.84343,0.55,-0.4,634.5
47.1,-128.14552588,0.49156799,2517.0,82.583511,-12.094401,-76.768845,0.4,-0.4,635.0
47.15,-128.145593485,0.49158351,2515.5,81.8090325,-12.1833505,-76.717625,0.3,-0.35,635.5
47.2,-128.14566109,0.49159903,2514.0,81.034554,-12.2723,-76.666405,0.2,-0.3,636.0
47.25,-128.145741875,0.491618,2511.5,79.1296885,-12.469795,-76.5313645,0.0499999999999999,-0.3,636.5
47.3,-128.14582266,0.49163697,2509.0,77.224823,-12.66729,-76.396324,-0.1,-0.3,637.0
47.35,-128.14589084,0.49165306,2507.5,76.33482000000001,-12.7595645,-76.3332365,-0.2,-0.3,637.5
47.4,-128.14595902,0.49166915,2506.0,75.444817,-12.851839,-76.270149,-0.3,-0.3,638.0
47.45,-128.146031215,0.49168755,2504.0,73.8064005,-12.9944955,-76.06616199999999,-0.4,-0.3,638.5
47.5,-128.14610341,0.49170595,2502.0,72.167984,-13.137152,-75.862175,-0.5,-0.3,639.0
47.55,-128.14618133,0.491725495,2499.5,70.736313,-13.258287,-75.672558,-0.55,-0.3,639.5
47.6,-128.14625925,0.49174504,2497.0,69.304642,-13.379422,-75.482941,-0.6,-0.3,640.0
47.65,-128.14632743,0.491762865,2495.0,68.506096,-13.4297255,-75.3312115,-0.55,-0.3,640.5
47.7,-128.14639561,0.49178069,2493.0,67.70755,-13.480029,-75.179482,-0.5,-0.3,641.0
47.75,-128.146474105,0.49180139,2491.0,65.9830705,-13.38796,-74.317421,-0.35,-0.3,641.5
47.8,-128.1465526,0.49182209,2489.0,64.258591,-13.295891,-73.45536,-0.2,-0.3,642.0
47.85,-128.146631095,0.49184394,2486.5,63.3182795,-13.245688,-72.985298,0.0499999999999999,-0.25,642.5
47.9,-128.14670959,0.49186579,2484.0,62.377968,-13.195485,-72.515236,0.3,-0.2,643.0
47.95,-128.14677433999998,0.49188535,2482.0,61.384529,-12.86392,-71.60454200000001,0.6000000000000001,-0.2,643.5
48.0,-128.14683909,0.49190491,2480.0,60.39109,-12.532355,-70.693848,0.9,-0.2,644.0
48.05,-128.14691127999998,0.49192619,2478.0,59.586399,-12.227544,-69.90230199999999,1.3,-0.2,644.5
48.1,-128.14698347,0.49194747,2476.0,58.781708,-11.922733,-69.110756,1.7,-0.2,645.0
48.15,-128.147062545,0.49197451,2474.0,58.1901705,-11.637676,-68.46300149999999,2.0,-0.2,645.5
48.2,-128.14714162,0.49200155,2472.0,57.598633,-11.352619,-67.815247,2.3,-0.2,646.0
48.25,-128.147206365,0.492023415,2470.0,57.064844,-10.976768,-67.102581,2.5,-0.2,646.0
48.3,-128.14727111,0.49204528,2468.0,56.531055,-10.600917,-66.389915,2.7,-0.2,646.0
48.35,-128.14735248,0.4920757799999999,2466.0,56.1619565,-10.341028,-65.8971365,2.85,-0.2,646.0
48.4,-128.14743385,0.49210628,2464.0,55.792858,-10.081139,-65.404358,3.0,-0.2,646.0
48.45,-128.147498025,0.4921316049999999,2462.5,55.489332000000005,-9.8007255,-64.8447305,3.05,-0.2,646.5
48.5,-128.1475622,0.49215693,2461.0,55.185806,-9.520312,-64.285103,3.1,-0.2,647.0
48.55,-128.14763039000002,0.4921839799999999,2459.0,54.962595,-9.3067735,-63.856598000000005,3.1,-0.2,647.0
48.6,-128.14769858,0.49221103,2457.0,54.739384,-9.093235,-63.428093,3.1,-0.2,647.0
48.65,-128.147774795,0.49224557,2455.5,54.562811,-8.8665915,-62.9527205,3.1500000000000004,-0.25,647.5
48.7,-128.14785101,0.49228011,2454.0,54.386238,-8.639948,-62.477348,3.2,-0.3,648.0
48.75,-128.14791347,0.4923077449999999,2452.5,54.208088,-8.235253,-61.581722,3.3,-0.35,648.0
48.8,-128.14797593,0.49233538,2451.0,54.029938,-7.830558,-60.686096,3.4,-0.4,648.0
48.85,-128.148053865,0.4923728,2449.0,53.9068795,-7.551012,-60.067436,3.55,-0.4,648.5
48.9,-128.1481318,0.49241022,2447.0,53.783821,-7.271466,-59.448776,3.7,-0.4,649.0
48.95,-128.14819598,0.49244304,2445.5,53.636484,-6.591142,-58.152332,3.95,-0.4,649.0
49.0,-128.14826016,0.49247586,2444.0,53.489147,-5.910818,-56.855888,4.2,-0.4,649.0
49.05,-128.148334085,0.49251444,2442.5,53.3670655,-5.308298,-55.719276,4.6,-0.4,649.0
49.1,-128.14840801,0.49255302,2441.0,53.244984,-4.705778,-54.582664,5.0,-0.4,649.0
49.15,-128.14847392,0.492592185,2440.0,53.1523,-4.155365,-53.635349000000005,5.3,-0.35,648.0
49.2,-128.14853983,0.49263135,2439.0,53.059616,-3.604952,-52.688034,5.6,-0.3,647.0
49.25,-128.148613185,0.49267512,2437.5,52.915903,-2.587033,-51.0698395,6.05,-0.3,646.5
49.3,-128.14868654,0.49271889,2436.0,52.77219,-1.569114,-49.451645,6.5,-0.3,646.0
49.35,-128.14874672000002,0.49276036,2435.5,52.7027475,-1.077281,-48.6697845,6.85,-0.3,645.5
49.4,-128.1488069,0.49280183,2435.0,52.633305,-0.585448,-47.887924,7.2,-0.3,645.0
49.45,-128.14887396,0.492849645,2434.0,52.2088015,-0.0145634999999999,-47.354477,7.15,-0.25,644.0
49.5,-128.14894102,0.49289746,2433.0,51.784298,0.556321,-46.82103,7.1,-0.2,643.0
49.55,-128.14899890499998,0.49293951,2432.5,51.460058,0.909688,-46.5577165,6.85,-0.15,643.0
49.6,-128.14905679,0.49298156,2432.0,51.135818,1.263055,-46.294403,6.6,-0.1,643.0
49.65,-128.149114685,0.4930293799999999,2431.5,50.7578905,1.4378535,-46.190422,6.35,0.0,642.5
49.7,-128.14917258,0.4930772,2431.0,50.379963,1.612652,-46.086441,6.1,0.1,642.0
49.75,-128.14923735,0.493130205,2430.5,48.043804,1.1740625,-46.7439805,5.3,0.15,642.0
49.8,-128.14930212,0.49318321,2430.0,45.707645,0.735473,-47.40152,4.5,0.2,642.0
49.85,-128.149361165,0.493233335,2430.0,44.5068165,0.5100295,-47.7394945,3.75,0.25,642.0
49.9,-128.14942021,0.49328346,2430.0,43.305988,0.284586,-48.077469,3.0,0.3,642.0
49.95,-128.14948154,0.49333589,2429.5,40.0216595,-0.3239225,-48.3737335,2.35,0.35,642.0
50.0,-128.14954287,0.49338832,2429.0,36.737331,-0.932431,-48.669998,1.7,0.4,642.0
50.05,-128.14959561,0.493433835,2429.0,34.097656,-1.420843,-48.85701,1.1,0.4,642.0
50.1,-128.14964835,0.49347935,2429.0,31.457981,-1.909255,-49.044022,0.5,0.4,642.0
50.15,-128.149717705,0.49353927,2428.5,28.344198,-2.3054355,-49.1054995,0.0499999999999999,0.35,642.0
50.2,-128.14978706,0.49359919,2428.0,25.230415,-2.701616,-49.166977,-0.4,0.3,642.0
50.25,-128.149842665,0.493647585,2427.5,20.8638665,-2.9975315,-49.0236055,-0.55,0.3,642.5
50.3,-128.14989827,0.49369598,2427.0,16.497318,-3.293447,-48.880234,-0.7,0.3,643.0
50.35,-128.14995903,0.49374841,2427.0,13.69632,-3.483268,-48.788269,-0.85,0.35,643.0
50.4,-128.15001979,0.49380084,2427.0,10.895322,-3.673089,-48.696304,-1.0,0.4,643.0
50.45,-128.15006565,0.49384002,2426.5,6.847834,-3.661512,-48.503471,-1.05,0.45,643.0
50.5,-128.15011151,0.4938792,2426.0,2.800346,-3.649935,-48.310638,-1.1,0.5,643.0
50.55,-128.15017971999998,0.493938545,2425.5,-1.6408860000000005,-3.5779835,-48.0866085,-1.05,0.65,643.5
50.6,-128.15024793,0.49399789,2425.0,-6.082118,-3.506032,-47.862579,-1.0,0.8,644.0
50.65,-128.15030812,0.49404974,2424.5,-8.940544000000001,-3.430865,-47.754509,-1.0,1.0,644.0
50.7,-128.15036831,0.49410159,2424.0,-11.79897,-3.355698,-47.646439,-1.0,1.2,644.0
50.75,-128.15043079,0.49415575,2423.5,-15.685507,-3.162681,-47.613144000000005,-0.95,1.35,644.0
50.8,-128.15049327,0.49420991,2423.0,-19.572044,-2.969664,-47.579849,-0.9,1.5,644.0
50.85,-128.150547725,0.494256,2422.5,-21.477882,-2.8750145,-47.5635375,-0.9,1.6,644.5
50.9,-128.15060218,0.49430209,2422.0,-23.38372,-2.780365,-47.547226,-0.9,1.7,645.0
50.95,-128.15066924500002,0.494360285,2421.5,-26.186483000000003,-2.5677935,-47.7448275,-0.8500000000000001,1.75,645.0
51.0,-128.15073631,0.49441848,2421.0,-28.989246,-2.355222,-47.942429,-0.8,1.8,645.0
51.05,-128.15078962,0.494463415,2421.0,-30.6651495,-2.2182865,-48.090271,-0.75,1.8,645.0
51.1,-128.15084293,0.49450835,2421.0,-32.341053,-2.081351,-48.238113,-0.7,1.8,645.0
51.15,-128.150899105,0.494555595,2420.5,-33.7862455,-1.966266,-48.390785,-0.6499999999999999,1.85,645.5
51.2,-128.15095528,0.49460284,2420.0,-35.231438,-1.851181,-48.543457,-0.6,1.9,646.0
51.25,-128.1510212,0.49465815,2419.5,-38.394434,-1.612062,-48.9848555,-0.55,1.9,646.0
51.3,-128.15108712,0.49471346,2419.0,-41.55743,-1.372943,-49.426254,-0.5,1.9,646.0
51.35,-128.15114845,0.49476416,2418.5,-43.1605225,-1.2517505,-49.649948,-0.45,1.9,646.5
51.4,-128.15120978,0.49481486,2418.0,-44.763615,-1.130558,-49.873642,-0.4,1.9,647.0
51.45,-128.15126365999998,0.494858065,2418.0,-47.0377255,-0.994152,-50.3362425,-0.3,1.85,647.0
51.5,-128.15131754,0.49490127,2418.0,-49.311836,-0.857746,-50.798843,-0.2,1.8,647.0
51.55,-128.15138346,0.49495485,2417.5,-51.4198435,-0.7355205,-51.244911,-0.1,1.75,647.0
51.6,-128.15144938,0.49500843,2417.0,-53.527851,-0.613295,-51.690979,0.0,1.7,647.0
51.65,-128.15151586500002,0.495059125,2416.5,-54.866602,-0.5558265,-52.022259,0.05,1.7,647.5
51.7,-128.15158235,0.49510982,2416.0,-56.205353,-0.498358,-52.353539,0.1,1.7,648.0
51.75,-128.15164024,0.495154755,2416.0,-57.651644000000005,-0.4936925,-52.8481715,0.15,1.6,648.0
51.8,-128.15169813,0.49519969,2416.0,-59.097935,-0.489027,-53.342804,0.2,1.5,648.0
51.85,-128.151769775,0.49525269,2415.5,-60.0860045,-0.48584,-53.680725,0.25,1.45,648.0
51.9,-128.15184142,0.49530569,2415.0,-61.074074,-0.482653,-54.018646,0.3,1.4,648.0
51.95,-128.151901605,0.49534889,2415.0,-61.63744,-0.6119060000000001,-54.2817765,0.2,1.2999999999999998,648.5
52.0,-128.15196179,0.49539209,2415.0,-62.200806,-0.741159,-54.544907,0.1,1.2,649.0
52.05,-128.15202311500002,0.49543645,2414.5,-62.556904,-0.8440624999999999,-54.722614500000006,0.0,1.15,649.0
52.1,-128.15208444,0.49548081,2414.0,-62.913002,-0.946966,-54.900322,-0.1,1.1,649.0
52.15,-128.152146915,0.49552401,2414.0,-62.9744035,-1.045356,-55.049534,-0.15,0.95,649.0
52.2,-128.15220939,0.49556721,2414.0,-63.035805,-1.143746,-55.198746,-0.2,0.8,649.0
52.25,-128.152268995,0.495608685,2413.5,-62.391632,-1.3344555,-55.431328,-0.25,0.75,649.5
52.3,-128.1523286,0.49565016,2413.0,-61.747459,-1.525165,-55.66391,-0.3,0.7,650.0
52.35,-128.15239737500002,0.49569624,2412.5,-61.3334235,-1.647742,-55.8134005,-0.4,0.6499999999999999,650.0
52.4,-128.15246615,0.49574232,2412.0,-60.919388,-1.770319,-55.962891,-0.5,0.6,650.0
52.45,-128.152534355,0.495787245,2412.0,-59.409729,-1.850505,-56.3159755,-0.55,0.55,650.0
52.5,-128.15260256,0.49583217,2412.0,-57.90007,-1.930691,-56.66906,-0.6,0.5,650.0
52.55,-128.15266158999998,0.495871335,2411.5,-56.7056445,-1.976295,-56.939079500000005,-0.55,0.5,650.5
52.6,-128.15272062,0.4959105,2411.0,-55.511219,-2.021899,-57.209099,-0.5,0.5,651.0
52.65,-128.152795125,0.49595773,2410.5,-54.135454,-2.0406825,-57.4518815,-0.45,0.4,651.0
52.7,-128.15286963,0.49600496,2410.0,-52.759689,-2.059466,-57.694664,-0.4,0.3,651.0
52.75,-128.15294642499998,0.49605334,2410.0,-50.242115,-2.027943,-58.005703,-0.4,0.25,651.0
52.8,-128.15302322,0.49610172,2410.0,-47.724541,-1.99642,-58.316742,-0.4,0.2,651.0
52.85,-128.15308053500002,0.49613743,2409.5,-46.6088125,-1.9824495,-58.454586,-0.35,0.15,651.5
52.9,-128.15313785,0.49617314,2409.0,-45.493084,-1.968479,-58.59243,-0.3,0.1,652.0
52.95,-128.153188855,0.496203665,2409.0,-43.45306,-1.9297505,-58.7613755,-0.3,0.1,652.0
53.0,-128.15323986,0.49623419,2409.0,-41.413036,-1.891022,-58.930321,-0.3,0.1,652.0
53.05,-128.15332181500003,0.496284295,2408.5,-38.674551,-1.835807,-59.13678,-0.3,0.1,652.0
53.1,-128.15340377,0.4963344,2408.0,-35.936066,-1.780592,-59.343239,-0.3,0.1,652.0
53.15,-128.153466235,0.496371255,2408.0,-34.5544015,-1.71994,-59.45303749999999,-0.25,0.1,652.0
53.2,-128.1535287,0.49640811,2408.0,-33.172737,-1.659288,-59.562836,-0.2,0.1,652.0
53.25,-128.15360492000002,0.49645303,2407.5,-29.8810395,-1.2240125000000002,-59.87445099999999,-0.0499999999999999,0.1,652.0
53.3,-128.15368114,0.49649795,2407.0,-26.589342,-0.788737,-60.186066,0.1,0.1,652.0
53.35,-128.15374533,0.49653481,2407.0,-25.0127315,-0.580255,-60.3353195,0.25,0.1,652.0
53.4,-128.15380952,0.49657167,2407.0,-23.436121,-0.371773,-60.484573,0.4,0.1,652.0
53.45,-128.15388803000002,0.4966171649999999,2406.5,-20.761735,0.0096984999999999,-60.6042095,0.5,0.05,652.0
53.5,-128.15396654,0.49666266,2406.0,-18.087349,0.39117,-60.723846,0.6,-0.0,652.0
53.55,-128.15403244499998,0.49670009,2406.0,-16.18968,0.6661975,-60.7878835,0.6499999999999999,0.0,652.5
53.6,-128.15409835,0.49673752,2406.0,-14.292011,0.941225,-60.851921,0.7,-0.0,653.0
53.65,-128.15417285,0.49677956,2406.0,-12.796899,1.149869,-60.882454,0.85,-0.05,653.0
53.7,-128.15424735,0.4968216,2406.0,-11.301787,1.358513,-60.912987,1.0,-0.1,653.0
53.75,-128.15431268499998,0.496858455,2406.0,-9.1216475,1.6275235,-60.8702815,1.0,-0.05,653.0
53.8,-128.15437802,0.49689531,2406.0,-6.941508,1.896534,-60.827576,1.0,-0.0,653.0
53.85,-128.15445424,0.496937925,2406.5,-5.483475,2.0764435,-60.7990115,1.05,-0.05,653.0
53.9,-128.15453046,0.49698054,2407.0,-4.025442,2.256353,-60.770447,1.1,-0.1,653.0
53.95,-128.154595215,0.497017395,2407.0,-2.497404,2.48124,-60.6870615,1.1,-0.1,653.0
54.0,-128.15465997,0.49705425,2407.0,-0.969366,2.706127,-60.603676,1.1,-0.1,653.0
54.05,-128.15472244,0.497089375,2407.5,0.2122575,2.8859225,-60.5305405,1.1,-0.05,653.0
54.1,-128.15478491,0.4971245,2408.0,1.393881,3.065718,-60.457405,1.1,-0.0,653.0
54.15,-128.15485826,0.497165385,2408.5,2.392749,3.1993915,-60.392345500000005,1.05,0.0,653.0
54.2,-128.15493161,0.49720627,2409.0,3.391617,3.333065,-60.327286,1.0,0.0,653.0
54.25,-128.154996945,0.497243125,2409.0,4.6526225,3.450367,-60.2360805,0.95,0.05,653.0
54.3,-128.15506228,0.49727998,2409.0,5.913628,3.567669,-60.144875,0.9,0.1,653.0
54.35,-128.15513792500002,0.497322595,2409.5,6.726262999999999,3.643262,-60.0861015,0.8500000000000001,0.15,653.0
54.4,-128.15521357,0.49736521,2410.0,7.538898,3.718855,-60.027328,0.8,0.2,653.0
54.45,-128.155284635,0.4974060999999999,2410.5,8.7080985,3.9706805,-59.890312,0.8500000000000001,0.25,653.0
54.5,-128.1553557,0.49744699,2411.0,9.877299,4.222506,-59.753296,0.9,0.3,653.0
54.55,-128.155418165,0.497482695,2411.5,10.6684045,4.406685,-59.655529,1.0,0.3,653.0
54.6,-128.15548063,0.4975184,2412.0,11.45951,4.590864,-59.557762,1.1,0.3,653.0
54.65,-128.15555627499998,0.49756159,2413.0,12.5802135,4.7660555,-59.4980965,1.1,0.25,653.0
54.7,-128.15563192,0.49760478,2414.0,13.700917,4.941247,-59.438431,1.1,0.2,653.0
54.75,-128.15569496,0.497641635,2414.5,15.656279,5.138113,-59.434399,1.05,0.15,653.0
54.8,-128.155758,0.49767849,2415.0,17.611641,5.334979,-59.430367,1.0,0.1,653.0
54.85,-128.15583135999998,0.497721105,2415.5,18.9001485,5.4647055,-59.4277005,0.95,-0.05,652.5
54.9,-128.15590472,0.49776372,2416.0,20.188656,5.594432,-59.425034,0.9,-0.2,652.0
54.95,-128.15597521,0.497805765,2417.0,23.303201,5.519394500000001,-59.573109,0.75,-0.35,652.0
55.0,-128.1560457,0.49784781,2418.0,26.417746,5.444357,-59.721184,0.6,-0.5,652.0
55.05,-128.15610472999998,0.49788294,2418.5,28.877905,5.3521925,-59.8512155,0.35,-0.65,652.0
55.1,-128.15616376,0.49791807,2419.0,31.338064,5.260028,-59.981247,0.1,-0.8,652.0
55.15,-128.156237115,0.497961835,2420.0,33.665837,5.191933000000001,-60.048401,-0.05,-0.8500000000000001,651.5
55.2,-128.15631047,0.4980056,2421.0,35.99361,5.123838,-60.115555,-0.2,-0.9,651.0
55.25,-128.15638038499998,0.498047645,2421.5,40.667572,5.075867000000001,-59.9908255,-0.3,-0.95,651.0
55.3,-128.1564503,0.49808969,2422.0,45.341534,5.027896,-59.866096,-0.4,-1.0,651.0
55.35,-128.156513915,0.4981276999999999,2423.0,47.7236045,5.0034475,-59.802528,-0.45,-1.05,651.0
55.4,-128.15657753,0.49816571,2424.0,50.105675,4.978999,-59.73896,-0.5,-1.1,651.0
55.45,-128.15663598499998,0.498201415,2424.5,54.050955,5.1476925,-58.9563215,-0.4,-1.2000000000000002,651.0
55.5,-128.15669444,0.49823712,2425.0,57.996235,5.316386,-58.173683,-0.3,-1.3,651.0
55.55,-128.15676837,0.49828204,2426.0,61.939619,5.5156185,-57.292278,0.0499999999999999,-1.4,651.0
55.6,-128.1568423,0.49832696,2427.0,65.883003,5.714851,-56.410873,0.4,-1.5,651.0
55.65,-128.156903055,0.498366705,2427.5,68.13401,5.80912,-55.735363,0.65,-1.65,650.5
55.7,-128.15696381,0.49840645,2428.0,70.385017,5.903389,-55.059853,0.9,-1.8,650.0
55.75,-128.15704003500002,0.498455985,2428.5,74.93240700000001,6.0049055,-52.90755849999999,1.5,-1.9,649.5
55.8,-128.15711626,0.49850552,2429.0,79.479797,6.106422,-50.755264,2.1,-2.0,649.0
55.85,-128.157171855,0.4985452649999999,2429.5,81.53726950000001,6.152353,-49.781448,2.6,-2.2,648.5
55.9,-128.15722745,0.49858501,2430.0,83.594742,6.198284,-48.807632,3.1,-2.4,648.0
55.95,-128.157293365,0.498633975,2431.0,86.937092,5.8103145000000005,-46.9150845,3.6,-2.55,647.5
56.0,-128.15735928,0.49868294,2432.0,90.279442,5.422345,-45.022537,4.1,-2.7,647.0
56.05,-128.15741774,0.498727295,2432.5,92.745041,5.0502985,-43.568794,4.55,-2.75,646.5
56.1,-128.1574762,0.49877165,2433.0,95.21064,4.678252,-42.115051,5.0,-2.8,646.0
56.15,-128.15754212000002,0.49883042,2433.5,97.155861,4.200162,-40.8157195,5.35,-2.9,644.5
56.2,-128.15760804,0.49888919,2434.0,99.101082,3.722072,-39.516388,5.7,-3.0,643.0
56.25,-128.15766135500002,0.49893701,2434.0,101.157795,2.726671,-37.738022,6.0,-2.95,642.5
56.3,-128.15771467,0.49898483,2434.0,103.214508,1.73127,-35.959656,6.3,-2.9,642.0
56.35,-128.157771425,0.49904245,2434.5,104.6251525,1.048552,-34.739937,6.75,-2.8,641.0
56.4,-128.15782818,0.49910007,2435.0,106.035797,0.365834,-33.520218,7.2,-2.7,640.0
56.45,-128.15788207,0.499159425,2435.0,107.4653245,-0.901234,-31.929344,7.6,-2.5,638.5
56.5,-128.15793596,0.49921878,2435.0,108.894852,-2.168302,-30.33847,8.0,-2.3,637.0
56.55,-128.157981825,0.49926949,2434.5,109.8369905,-3.1152505,-29.220985,8.35,-2.05,636.5
56.6,-128.15802769,0.4993202,2434.0,110.779129,-4.062199,-28.1035,8.7,-1.8,636.0
56.65,-128.15807586,0.499384175,2433.5,111.602394,-4.914343,-27.2050015,8.899999999999999,-1.7000000000000002,634.5
56.7,-128.15812403,0.49944815,2433.0,112.425659,-5.766487,-26.306503,9.1,-1.6,633.0
56.75,-128.15816875500002,0.499508085,2432.5,113.555172,-6.9963255,-25.2656475,9.05,-1.4,632.5
56.8,-128.15821348,0.49956802,2432.0,114.684685,-8.226164,-24.224792,9.0,-1.2,632.0
56.85,-128.158259935,0.49963834,2431.0,115.4102515,-9.01617,-23.556175,8.9,-1.1,631.0
56.9,-128.15830639,0.49970866,2430.0,116.135818,-9.806176,-22.887558,8.8,-1.0,630.0
56.95,-128.15834367000002,0.4997686,2429.0,117.099575,-10.9437475,-21.7363585,8.75,-0.95,629.0
57.0,-128.15838095,0.49982854,2428.0,118.063332,-12.081319,-20.585159,8.7,-0.9,628.0
57.05,-128.1584211,0.49989598,2427.0,118.895657,-13.075379,-19.5562745,8.7,-0.8,628.0
57.1,-128.15846125,0.49996342,2426.0,119.727982,-14.069439,-18.52739,8.7,-0.7,628.0
57.15,-128.15849280499998,0.50002625,2424.5,120.263676,-14.7551055,-17.8174745,8.75,-0.7,626.5
57.2,-128.15852436,0.50008908,2423.0,120.79937,-15.440772,-17.107559,8.8,-0.7,625.0
57.25,-128.158561655,0.500162865,2421.0,121.7996715,-16.935948,-15.55854,8.9,-0.75,624.5
57.3,-128.15859895,0.50023665,2419.0,122.799973,-18.431124,-14.009521,9.0,-0.8,624.0
57.35,-128.158624775,0.500297755,2417.0,123.246445,-19.0984755,-13.3181225,9.05,-0.8500000000000001,623.5
57.4,-128.1586506,0.50035886,2415.0,123.692917,-19.765827,-12.626724,9.1,-0.9,623.0
57.45,-128.158680445,0.50043265,2412.0,124.558174,-21.0337645,-11.5202255,9.05,-1.0,622.5
57.5,-128.15871029,0.50050644,2409.0,125.423431,-22.301702,-10.413727,9.0,-1.1,622.0
57.55,-128.15873727,0.5005802349999999,2406.5,126.1033855,-23.294704,-9.575371,8.95,-1.1,621.5
57.6,-128.15876425,0.50065403,2404.0,126.78334,-24.287706,-8.737015,8.9,-1.1,621.0
57.65,-128.158782625,0.500712835,2401.0,127.18021,-24.9484125,-8.1628265,8.850000000000001,-1.15,621.0
57.7,-128.158801,0.50077164,2398.0,127.57708,-25.609119,-7.588638,8.8,-1.2,621.0
57.75,-128.158821675,0.5008390899999999,2395.0,128.2013285,-27.0075235,-6.309845,8.75,-1.15,621.0
57.8,-128.15884235,0.50090654,2392.0,128.825577,-28.405928,-5.031052,8.7,-1.1,621.0
57.85,-128.158857865,0.500969965,2388.5,129.1540755,-29.1418,-4.3581165,8.6,-1.1,621.0
57.9,-128.15887338,0.50103339,2385.0,129.482574,-29.877672,-3.685181,8.5,-1.1,621.0
57.95,-128.1588889,0.501102575,2381.0,129.5929945,-31.140599,-2.4039615,8.5,-1.1,620.5
58.0,-128.15890442,0.50117176,2377.0,129.703415,-32.403526,-1.122742,8.5,-1.1,620.0
58.05,-128.15891822499998,0.501240375,2373.0,129.72785950000002,-33.456106,-0.0361024999999999,8.5,-1.1,620.5
58.1,-128.15893203,0.50130899,2369.0,129.752304,-34.508686,1.050537,8.5,-1.1,621.0
58.15,-128.15893952,0.501367225,2365.0,129.69539650000002,-35.2295225,1.828819,8.5,-1.1,620.5
58.2,-128.15894701,0.50142546,2361.0,129.638489,-35.950359,2.607101,8.5,-1.1,620.0
58.25,-128.158956805,0.50149696,2356.0,129.249527,-37.400211,4.2995605,8.45,-1.05,620.0
58.3,-128.1589666,0.50156846,2351.0,128.860565,-38.850063,5.99202,8.4,-1.0,620.0
58.35,-128.15897065500002,0.501625545,2346.5,128.680473,-39.5212745,6.7755435,8.4,-1.0,620.0
58.4,-128.15897471,0.50168263,2342.0,128.500381,-40.192486,7.559067,8.4,-1.0,620.0
58.45,-128.15897762499998,0.50174952,2336.5,127.78532,-41.471386,9.3482285,8.4,-1.0,620.0
58.5,-128.15898054,0.50181641,2331.0,127.070259,-42.750286,11.13739,8.4,-1.0,620.0
58.55,-128.15898173,0.50187004,2326.0,126.5691795,-43.5808545,12.32856,8.4,-1.0,621.0
58.6,-128.15898292,0.50192367,2321.0,126.0681,-44.411423,13.51973,8.4,-1.0,622.0
58.65,-128.15897896500002,0.50199172,2314.5,125.4367335,-45.240881,14.804291,8.350000000000001,-1.0,622.0
58.7,-128.15897501,0.50205977,2308.0,124.805367,-46.070339,16.088852,8.3,-1.0,622.0
58.75,-128.15897218499998,0.502112825,2302.5,123.848801,-46.999382,17.7085495,8.2,-0.95,622.5
58.8,-128.15896936,0.50216588,2297.0,122.892235,-47.928425,19.328247,8.1,-0.9,623.0
58.85,-128.158962525,0.502214905,2291.5,122.3320655,-48.4724715,20.2767565,8.0,-0.8500000000000001,623.5
58.9,-128.15895569,0.50226393,2286.0,121.771896,-49.016518,21.225266,7.9,-0.8,624.0
58.95,-128.158946565,0.50231699,2279.5,120.032913,-49.88946,23.5033955,7.9,-0.75,624.5
59.0,-128.15893744,0.50237005,2273.0,118.29393,-50.762402,25.781525,7.9,-0.7,625.0
59.05,-128.158928885,0.50241734,2267.5,117.0353965,-51.348101,27.392624,7.9,-0.7,626.0
59.1,-128.15892033,0.50246463,2262.0,115.776863,-51.9338,29.003723,7.9,-0.7,627.0
59.15,-128.158904905,0.50251539,2254.5,114.2511445,-52.426533,30.778473,7.800000000000001,-0.6499999999999999,627.0
59.2,-128.15888948,0.50256615,2247.0,112.725426,-52.919266,32.553223,7.7,-0.6,627.0
59.25,-128.15887577,0.50261172,2240.5,110.2387545,-53.467968,35.236977,7.65,-0.6,628.0
59.3,-128.15886206,0.50265729,2234.0,107.752083,-54.01667,37.920731,7.6,-0.6,629.0
59.35,-128.158842045,0.50270344,2226.5,106.117321,-54.37739,39.685051,7.75,-0.6,629.5
59.4,-128.15882203,0.50274959,2219.0,104.482559,-54.73811,41.449371,7.9,-0.6,630.0
59.45,-128.15880544499998,0.50278305,2213.5,102.027046,-54.9490795,43.854164,8.0,-0.55,630.0
59.5,-128.15878886,0.50281651,2208.0,99.571533,-55.160049,46.258957,8.1,-0.5,630.0
59.55,-128.158767125,0.5028592000000001,2200.5,96.853939,-55.341095,48.881508,8.149999999999999,-0.5,631.0
59.6,-128.15874539,0.50290189,2193.0,94.136345,-55.522141,51.504059,8.2,-0.5,632.0
59.65,-128.15871792500002,0.502938815,2185.0,92.076126,-55.563868,53.505562,8.3,-0.45,632.5
59.7,-128.15869046,0.50297574,2177.0,90.015907,-55.605595,55.507065,8.4,-0.4,633.0
59.75,-128.158667,0.50300748,2170.5,87.1390725,-55.446211000000005,58.3322525,8.45,-0.4,633.5
59.8,-128.15864354,0.50303922,2164.0,84.262238,-55.286827,61.15744,8.5,-0.4,634.0
59.85,-128.15861206,0.50307269,2156.5,82.3437235,-55.180538,63.0415115,8.55,-0.45,635.0
59.9,-128.15858058,0.50310616,2149.0,80.425209,-55.074249,64.925583,8.6,-0.5,636.0
59.95,-128.15855253,0.50313098,2142.5,77.730152,-54.65954,67.4975665,8.6,-0.5,636.0
60.0,-128.15852448,0.5031558,2136.0,75.035095,-54.244831,70.06955,8.6,-0.5,636.0
60.05,-128.158495285,0.5031817700000001,2130.0,73.2707135,-53.9484865,71.74636100000001,8.6,-0.55,637.0
