Time,Longitude,Latitude,Altitude,Roll,Pitch,Yaw,AOA,AOS,TAS
60.1,-128.15846609,0.50320774,2124.0,71.506332,-53.652142,73.423172,8.6,-0.6,638.0
60.15,-128.15842601,0.5032319949999999,2115.0,69.4706725,-53.206503,75.40576949999999,8.6,-0.55,638.5
60.2,-128.15838593,0.50325625,2106.0,67.435013,-52.760864,77.388367,8.6,-0.5,639.0
60.25,-128.158357305,0.50327242,2101.0,65.95291900000001,-52.3507595,78.871445,8.649999999999999,-0.5,639.0
60.3,-128.15832868,0.50328859,2096.0,64.470825,-51.940655,80.354523,8.7,-0.5,639.0
60.35,-128.158277145,0.50331285,2085.5,62.83829850000001,-51.488924,81.9880985,8.6,-0.45,640.0
60.4,-128.15822561,0.50333711,2075.0,61.205772,-51.037193,83.621674,8.5,-0.4,641.0
60.45,-128.15818323,0.5033521350000001,2068.0,59.342346000000006,-50.311506,85.44596899999999,8.5,-0.4,641.5
60.5,-128.15814085,0.50336716,2061.0,57.47892,-49.585819,87.270264,8.5,-0.4,642.0
60.55,-128.158105345,0.5033793,2055.0,56.195921,-49.0604955,88.52136250000001,8.5,-0.35,642.5
60.6,-128.15806984,0.50339144,2049.0,54.912922,-48.535172,89.772461,8.5,-0.3,643.0
60.65,-128.15801772,0.50340071,2040.5,53.6959095,-47.984261,90.92128,8.6,-0.15,643.5
60.7,-128.1579656,0.50340998,2032.0,52.478897,-47.43335,92.070099,8.7,0.0,644.0
60.75,-128.157929515,0.50341635,2026.5,50.7749365,-46.5029985,93.563843,8.8,0.15,644.5
60.8,-128.15789343,0.50342272,2021.0,49.070976,-45.572647,95.057587,8.9,0.3,645.0
60.85,-128.15783615499998,0.5034285350000001,2013.0,47.8651715,-44.9142875,96.114624,8.8,0.25,645.5
60.9,-128.15777888,0.50343435,2005.0,46.659367,-44.255928,97.171661,8.7,0.2,646.0
60.95,-128.157725605,0.5034355450000001,1998.0,45.069361,-43.224703,98.3813625,8.149999999999999,-0.2,646.0
61.0,-128.15767233,0.50343674,1991.0,43.479355,-42.193478,99.591064,7.6,-0.6,646.0
61.05,-128.157620205,0.503437355,1984.0,42.131695,-41.284872,100.577362,7.1,-1.05,647.5
61.1,-128.15756808,0.50343797,1977.0,40.784035,-40.376266,101.56366,6.6,-1.5,649.0
61.15,-128.15751881,0.5034334,1971.5,40.0467895,-39.8792095,102.1032105,6.75,-1.4,649.0
61.2,-128.15746954,0.50342883,1966.0,39.309544,-39.382153,102.642761,6.9,-1.3,649.0
61.25,-128.15741111,0.50342311,1959.0,37.422024,-37.871712,103.7083585,7.1,-1.15,649.5
61.3,-128.15735268,0.50341739,1952.0,35.534504,-36.361271,104.773956,7.3,-1.0,650.0
61.35,-128.15729138,0.503408785,1945.5,34.421816,-35.467579,105.3977505,7.35,-0.95,650.0
61.4,-128.15723008,0.50340018,1939.0,33.309128,-34.573887,106.021545,7.4,-0.9,650.0
61.45,-128.1571831,0.503390995,1934.5,32.0674165,-33.4873755,106.5660855,7.45,-0.8500000000000001,650.0
61.5,-128.15713612,0.50338181,1930.0,30.825705,-32.400864,107.110626,7.5,-0.8,650.0
61.55,-128.15707138,0.5033697500000001,1924.0,29.42812,-31.1517395,107.6789395,7.5,-0.8500000000000001,650.5
61.6,-128.15700664,0.50335769,1918.0,28.030535,-29.902615,108.247253,7.5,-0.9,651.0
61.65,-128.156937885,0.50333987,1912.0,27.248703,-29.203834,108.5651855,7.55,-0.75,651.0
61.7,-128.15686913,0.50332205,1906.0,26.466871,-28.505053,108.883118,7.6,-0.6,651.0
61.75,-128.15680897,0.503306525,1900.5,24.797699,-26.9871865,109.2595065,7.65,-0.5,651.5
61.8,-128.15674881,0.503291,1895.0,23.128527,-25.46932,109.635895,7.7,-0.4,652.0
61.85,-128.15667891,0.5032702950000001,1889.5,22.0211115,-24.462288,109.88562,7.75,-0.35,652.0
61.9,-128.15660901,0.50324959,1884.0,20.913696,-23.455256,110.135345,7.8,-0.3,652.0
61.95,-128.1565477,0.50323061,1880.0,19.429945,-22.210279,110.27124,7.8,-0.3,652.0
62.0,-128.15648639,0.50321163,1876.0,17.946194,-20.965302,110.407135,7.8,-0.3,652.0
62.05,-128.156415915,0.503189195,1871.0,16.444957,-19.728097,110.501831,7.8,-0.35,652.0
62.1,-128.15634544,0.50316676,1866.0,14.94372,-18.490892,110.596527,7.8,-0.4,652.0
62.15,-128.15628470500002,0.50314605,1863.0,14.2529435,-17.921605999999997,110.640106,7.8,-0.3,651.5
62.2,-128.15622397,0.50312534,1860.0,13.562167,-17.35232,110.683685,7.8,-0.2,651.0
62.25,-128.15614318000002,0.5030977249999999,1855.5,11.2807405,-15.445754,110.527176,7.8,-0.2,651.0
62.3,-128.15606239,0.50307011,1851.0,8.999314,-13.539188,110.370667,7.8,-0.2,651.0
62.35,-128.15599764,0.503047095,1848.0,7.960155,-12.6707735,110.2993775,7.85,-0.15,651.0
62.4,-128.15593289,0.50302408,1845.0,6.920996,-11.802359,110.228088,7.9,-0.1,651.0
62.45,-128.15586929,0.503001065,1842.5,5.693981,-10.860844,110.045425,7.800000000000001,-0.05,650.5
62.5,-128.15580569,0.50297805,1840.0,4.466966,-9.919329,109.862762,7.7,-0.0,650.0
62.55,-128.155732345,0.502952155,1837.0,3.1204945,-8.922235,109.619949,7.45,-0.05,650.0
62.6,-128.155659,0.50292626,1834.0,1.774023,-7.925141,109.377136,7.2,-0.1,650.0
62.65,-128.155588525,0.5029009449999999,1832.0,1.087155,-7.4164995,109.2532805,7.0,-0.15,650.0
62.7,-128.15551805,0.50287563,1830.0,0.400287,-6.907858,109.129425,6.8,-0.2,650.0
62.75,-128.1554384,0.5028474350000001,1827.5,-0.7738615,-7.0899925,108.926193,6.05,-0.25,650.0
62.8,-128.15535875,0.50281924,1825.0,-1.94801,-7.272127,108.722961,5.3,-0.3,650.0
62.85,-128.155283115,0.5027927750000001,1823.5,-2.6046265,-7.389891,108.6094205,4.6,-0.35,650.0
62.9,-128.15520748,0.50276631,1822.0,-3.261243,-7.507655,108.49588,3.9,-0.4,650.0
62.95,-128.15514732,0.502745595,1820.5,-4.519741,-7.9423155,108.4666135,3.4,-0.45,650.5
63.0,-128.15508716,0.50272488,1819.0,-5.778239,-8.376976,108.437347,2.9,-0.5,651.0
63.05,-128.15500923,0.502697265,1817.0,-7.480073000000001,-9.008682,108.437347,2.15,-0.5,651.5
63.1,-128.1549313,0.50266965,1815.0,-9.181907,-9.640388,108.437347,1.4,-0.5,652.0
63.15,-128.154853375,0.5026431849999999,1813.0,-10.0947005,-9.9792075,108.437347,1.0,-0.5,652.0
63.2,-128.15477545,0.50261672,1811.0,-11.007494,-10.318027,108.437347,0.6,-0.5,652.0
63.25,-128.154704975,0.50259198,1809.5,-14.0755255,-10.221783,108.2275845,0.55,-0.5,652.5
63.3,-128.1546345,0.50256724,1808.0,-17.143557,-10.125539,108.017822,0.5,-0.5,653.0
63.35,-128.154557145,0.50254135,1806.5,-19.0871135,-10.0645705,107.8849485,0.55,-0.4,653.5
63.4,-128.15447979,0.50251546,1805.0,-21.03067,-10.003602,107.752075,0.6,-0.3,654.0
63.45,-128.15440702,0.5024913,1803.0,-23.279586,-9.397005,107.2444915,0.8500000000000001,-0.15,654.0
63.5,-128.15433425,0.50246714,1801.0,-25.528502,-8.790408,106.736908,1.1,-0.0,654.0
63.55,-128.1542632,0.50244355,1799.5,-27.4519055,-8.1409145,106.216522,1.5,0.1,654.5
63.6,-128.15419215,0.50241996,1798.0,-29.375309,-7.491421,105.696136,1.9,0.2,655.0
63.65,-128.15411308,0.50239638,1796.5,-30.624708,-7.0327465,105.3262175,2.15,0.35,655.0
63.7,-128.15403401,0.5023728,1795.0,-31.874107,-6.574072,104.956299,2.4,0.5,655.0
63.75,-128.153960675,0.502350945,1794.0,-33.306549,-5.6499500000000005,104.1868895,2.7,0.55,655.0
63.8,-128.15388734,0.50232909,1793.0,-34.738991,-4.725828,103.41748,3.0,0.6,655.0
63.85,-128.15380426000002,0.50230609,1791.5,-35.6530095,-4.1361585,102.9265135,3.25,0.6499999999999999,655.0
63.9,-128.15372118,0.50228309,1790.0,-36.567028,-3.546489,102.435547,3.5,0.7,655.0
63.95,-128.15365128,0.5022652700000001,1789.0,-37.119217,-3.11814,101.9624025,3.6,0.6499999999999999,655.0
64.0,-128.15358138,0.50224745,1788.0,-37.671406,-2.689791,101.489258,3.7,0.6,655.0
64.05,-128.153497155,0.502226755,1787.0,-38.1448555,-2.2764855,100.9708255,3.65,0.5,655.0
64.1,-128.15341293,0.50220606,1786.0,-38.618305,-1.86318,100.452393,3.6,0.4,655.0
64.15,-128.153345325,0.50219112,1785.5,-38.83284,-1.6758975,100.2174835,3.55,0.35,655.0
64.2,-128.15327772,0.50217618,1785.0,-39.047375,-1.488615,99.982574,3.5,0.3,655.0
64.25,-128.15319178,0.502157795,1784.5,-39.339308,-1.1991085,99.3011165,3.4,0.15,655.0
64.3,-128.15310584,0.50213941,1784.0,-39.631241,-0.909602,98.619659,3.3,0.0,655.0
64.35,-128.153032505,0.50212563,1783.5,-39.776171000000005,-0.765115,98.2734375,3.2,-0.1,655.0
64.4,-128.15295917,0.50211185,1783.0,-39.921101,-0.620628,97.927216,3.1,-0.2,655.0
64.45,-128.152880685,0.502097495,1782.5,-40.3220295,-0.2756725,97.3299255,3.1,-0.2,655.0
64.5,-128.1528022,0.50208314,1782.0,-40.722958,0.069283,96.732635,3.1,-0.2,655.0
64.55,-128.152731155,0.50207051,1781.5,-41.139744,0.419674,96.1657865,3.1500000000000004,-0.2,655.0
64.6,-128.15266011,0.50205788,1781.0,-41.55653,0.770065,95.598938,3.2,-0.2,655.0
64.65,-128.15257246,0.50204584,1781.0,-41.921341,1.0669345,95.1272585,3.35,-0.25,655.0
64.7,-128.15248481,0.5020338,1781.0,-42.286152,1.363804,94.655579,3.5,-0.3,655.0
64.75,-128.152407465,0.502022905,1780.5,-43.446085,2.2273110000000003,93.356583,3.9,-0.3,654.5
64.8,-128.15233012,0.50201201,1780.0,-44.606018,3.090818,92.057587,4.3,-0.3,654.0
64.85,-128.15224189999998,0.50200285,1780.5,-45.3764955,3.6643945,91.1947175,4.75,-0.3,653.5
64.9,-128.15215368,0.50199369,1781.0,-46.146973,4.237971,90.331848,5.2,-0.3,653.0
64.95,-128.15208436,0.5019885550000001,1781.0,-47.2465745,5.192735,88.803192,5.75,-0.35,652.5
65.0,-128.15201504,0.50198342,1781.0,-48.346176,6.147499,87.274536,6.3,-0.4,652.0
65.05,-128.15194286000002,0.50197771,1781.0,-49.3270685,7.0163165,85.8735045,7.0,-0.45,652.0
65.1,-128.15187068,0.501972,1781.0,-50.307961,7.885134,84.472473,7.7,-0.5,652.0
65.15,-128.151787045,0.5019726449999999,1782.0,-50.9323715,8.438201,83.580612,7.800000000000001,-0.15,649.5
65.2,-128.15170341,0.50197329,1783.0,-51.556782,8.991268,82.688751,7.9,0.2,647.0
65.25,-128.151625505,0.50197393,1783.5,-52.8734855,10.1472545,80.606033,7.95,0.5,645.5
65.3,-128.1515476,0.50197457,1784.0,-54.190189,11.303241,78.523315,8.0,0.8,644.0
65.35,-128.1514634,0.501979825,1785.0,-55.0259075,12.03695,77.2013775,8.25,1.0,642.5
65.4,-128.1513792,0.50198508,1786.0,-55.861626,12.770659,75.87944,8.5,1.2,641.0
65.45,-128.15131333,0.5019926299999999,1787.0,-56.6400875,13.3046785,74.680679,8.65,1.25,640.0
65.5,-128.15124746,0.50200018,1788.0,-57.418549,13.838698,73.481918,8.8,1.3,639.0
65.55,-128.151164405,0.502008895,1789.5,-58.201355,14.3339995,72.285568,8.7,1.25,638.0
65.6,-128.15108135,0.50201761,1791.0,-58.984161,14.829301,71.089218,8.6,1.2,637.0
65.65,-128.15101319500002,0.502032085,1792.5,-59.341585,15.055451,70.54297650000001,8.5,1.15,635.5
65.7,-128.15094504,0.50204656,1794.0,-59.699009,15.281601,69.996735,8.4,1.1,634.0
65.75,-128.15087631,0.50206103,1795.5,-60.7332935,15.679722000000002,68.3971865,8.350000000000001,1.05,632.5
65.8,-128.15080758,0.5020755,1797.0,-61.767578,16.077843,66.797638,8.3,1.0,631.0
65.85,-128.150726825,0.502095745,1799.0,-62.47698,16.350908500000003,65.7005385,8.2,0.95,630.0
65.9,-128.15064607,0.50211599,1801.0,-63.186382,16.623974,64.603439,8.1,0.9,629.0
65.95,-128.150579065,0.50213796,1802.5,-64.3331165,16.8644545,63.29026,8.05,0.9,627.5
66.0,-128.15051206,0.50215993,1804.0,-65.479851,17.104935,61.977081,8.0,0.9,626.0
66.05,-128.150438755,0.5021830549999999,1806.0,-66.82808299999999,17.338789,60.545143,7.9,0.9,625.0
66.1,-128.15036545,0.50220618,1808.0,-68.176315,17.572643,59.113205,7.8,0.9,624.0
66.15,-128.15030074,0.50223449,1810.0,-68.8705445,17.693058999999998,58.375862,7.8,1.0,622.5
66.2,-128.15023603,0.5022628,1812.0,-69.564774,17.813475,57.638519,7.8,1.1,621.0
66.25,-128.150165025,0.502293995,1814.5,-71.7317735,17.858459500000002,55.8629685,7.75,1.15,620.0
66.3,-128.15009402,0.50232519,1817.0,-73.898773,17.903444,54.087418,7.7,1.2,619.0
66.35,-128.150035615,0.502354645,1819.0,-74.937584,17.9250085,53.236252,7.65,1.2,618.0
66.4,-128.14997721,0.5023841,1821.0,-75.976395,17.946573,52.385086,7.6,1.2,617.0
66.45,-128.149910215,0.50242279,1823.5,-77.6060565,17.8213955,51.238533,7.5,1.25,615.5
66.5,-128.14984322,0.50246148,1826.0,-79.235718,17.696218,50.09198,7.4,1.3,614.0
66.55,-128.149777375,0.502499595,1828.0,-80.7842485,17.525498,49.0639495,7.2,1.25,613.0
66.6,-128.14971153,0.50253771,1830.0,-82.332779,17.354778,48.035919,7.0,1.2,612.0
66.65,-128.14965943,0.502575235,1832.0,-83.06454099999999,17.274103,47.5501175,6.9,1.25,611.0
66.7,-128.14960733,0.50261276,1834.0,-83.796303,17.193428,47.064316,6.8,1.3,610.0
66.75,-128.14953863,0.50266183,1837.0,-85.5984385,16.737612,46.4508285,6.3,1.25,609.0
66.8,-128.14946993,0.5027109,1840.0,-87.400574,16.281796,45.837341,5.8,1.2,608.0
66.85,-128.14941669,0.50275362,1842.0,-88.2312205,16.071699,45.554573000000005,5.4,1.2,607.5
66.9,-128.14936345,0.50279634,1844.0,-89.061867,15.861602,45.271805,5.0,1.2,607.0
66.95,-128.14930277000002,0.502847135,1846.0,-90.244976,15.463518,44.523575,4.75,1.15,606.0
67.0,-128.14924209,0.50289793,1848.0,-91.428085,15.065434,43.775345,4.5,1.1,605.0
67.05,-128.149191715,0.502940065,1850.0,-92.315048,14.742945,43.1303485,4.3,1.0,604.5
67.1,-128.14914134,0.5029822,1852.0,-93.202011,14.420456,42.485352,4.1,0.9,604.0
67.15,-128.14908696,0.503034145,1854.0,-93.8245315,14.1781735,41.9293445,4.05,0.9,603.0
67.2,-128.14903258,0.50308609,1856.0,-94.447052,13.935891,41.373337,4.0,0.9,602.0
67.25,-128.14898507,0.50313111,1858.0,-95.2758485,13.443636,39.5333635,4.2,0.8500000000000001,601.0
67.3,-128.14893756,0.50317613,1860.0,-96.104645,12.951381,37.69339,4.4,0.8,600.0
67.35,-128.148885475,0.5032315300000001,1862.0,-96.6452715,12.6302845,36.4931565,4.65,0.75,599.0
67.4,-128.14883339,0.50328693,1864.0,-97.185898,12.309188,35.292923,4.9,0.7,598.0
67.45,-128.14879161,0.503334255,1865.5,-97.337944,11.904021,33.803398,5.15,0.6499999999999999,596.5
67.5,-128.14874983,0.50338158,1867.0,-97.48999,11.498854,32.313873,5.4,0.6,595.0
67.55,-128.148702325,0.503435825,1868.5,-97.519188,11.069684,30.7423095,5.800000000000001,0.55,594.5
67.6,-128.14865482,0.50349007,1870.0,-97.548386,10.640514,29.170746,6.2,0.5,594.0
67.65,-128.14861019,0.50355181,1872.0,-97.4090425,10.388323,28.228958,6.4,0.35,591.5
67.7,-128.14856556,0.50361355,1874.0,-97.269699,10.136132,27.28717,6.6,0.2,589.0
67.75,-128.14852894,0.50366548,1875.0,-95.2840845,10.0142885,26.607864,6.449999999999999,0.15,588.0
67.8,-128.14849232,0.50371741,1876.0,-93.29847,9.892445,25.928558,6.3,0.1,587.0
67.85,-128.148451695,0.503780875,1877.5,-91.952866,9.8098745,25.4682005,6.05,-0.05,585.5
67.9,-128.14841107,0.50384434,1879.0,-90.607262,9.727304,25.007843,5.8,-0.2,584.0
67.95,-128.14837846,0.503898575,1880.5,-88.0414165,9.793631,24.862915,5.5,-0.3,583.0
68.0,-128.14834585,0.50395281,1882.0,-85.475571,9.859958,24.717987,5.2,-0.4,582.0
68.05,-128.148310385,0.50401339,1883.5,-82.1147045,9.994456,24.6841125,4.65,-0.4,581.0
68.1,-128.14827492,0.50407397,1885.0,-78.753838,10.128954,24.650238,4.1,-0.4,580.0
68.15,-128.148239455,0.50414089,1886.5,-76.1264,10.256375,24.596115,3.75,-0.45,579.0
68.2,-128.14820399,0.50420781,1888.0,-73.498962,10.383796,24.541992,3.4,-0.5,578.0
68.25,-128.148175965,0.50426031,1889.0,-68.974369,10.694222,24.335968,3.2,-0.45,577.0
68.3,-128.14814794,0.50431281,1890.0,-64.449776,11.004648,24.129944,3.0,-0.4,576.0
68.35,-128.148112475,0.504383195,1891.5,-61.116442,11.233344,23.978157,2.8,-0.4,575.0
68.4,-128.14807701,0.50445358,1893.0,-57.783108,11.46204,23.82637,2.6,-0.4,574.0
68.45,-128.14804956,0.50451069,1894.5,-53.3018325,11.9442125,23.5642545,2.6,-0.4,573.0
68.5,-128.14802211,0.5045678,1896.0,-48.820557,12.426385,23.302139,2.6,-0.4,572.0
68.55,-128.14798951,0.50463472,1897.5,-44.0728915,12.971543,23.013054,2.6500000000000004,-0.35,571.0
68.6,-128.14795691,0.50470164,1899.0,-39.325226,13.516701,22.723969,2.7,-0.3,570.0
68.65,-128.14793061,0.504759905,1900.5,-36.9748915,13.7865815,22.5808335,2.85,-0.4499999999999999,568.5
68.7,-128.14790431,0.50481817,1902.0,-34.624557,14.056462,22.437698,3.0,-0.6,567.0
68.75,-128.147873425,0.5048850899999999,1904.0,-27.9796675,15.0872635,22.3579785,3.2,-0.7,566.0
68.8,-128.14784254,0.50495201,1906.0,-21.334778,16.118065,22.278259,3.4,-0.8,565.0
68.85,-128.147818525,0.50500566,1907.5,-18.2713885,16.593279000000003,22.2415085,3.55,-1.0,563.5
68.9,-128.14779451,0.50505931,1909.0,-15.207999,17.068493,22.204758,3.7,-1.2,562.0
68.95,-128.14776935,0.50511642,1910.5,-11.2024665,17.6915105,22.4061205,3.85,-1.4,561.0
69.0,-128.14774419,0.50517353,1912.0,-7.196934,18.314528,22.607483,4.0,-1.6,560.0
69.05,-128.147715025,0.5052387199999999,1914.5,-1.6760285,19.1743845,23.056984,4.05,-1.8,558.5
69.1,-128.14768586,0.50530391,1917.0,3.844877,20.034241,23.506485,4.1,-2.0,557.0
69.15,-128.14766127500002,0.505358135,1919.0,6.383493999999999,20.42962,23.7131805,4.199999999999999,-2.25,555.5
69.2,-128.14763669,0.50541236,1921.0,8.922111,20.824999,23.919876,4.3,-2.5,554.0
69.25,-128.147608665,0.505473515,1923.0,15.714807999999998,21.524456,25.0549165,4.35,-2.6,552.5
69.3,-128.14758064,0.50553467,1925.0,22.507505,22.223913,26.189957,4.4,-2.7,551.0
69.35,-128.147554905,0.50558832,1927.5,25.8484735,22.567938,26.748215,4.35,-2.75,550.0
69.4,-128.14752917,0.50564197,1930.0,29.189442,22.911963,27.306473,4.3,-2.8,549.0
69.45,-128.147497715,0.505706005,1932.5,34.930796,23.2971635,28.818558,4.4,-2.9,547.0
69.5,-128.14746626,0.50577004,1935.0,40.67215,23.682364,30.330643,4.5,-3.0,545.0
69.55,-128.14743880999998,0.505824845,1937.5,44.9822295,23.9331515,31.568802,4.7,-2.95,544.0
69.6,-128.14741136,0.50587965,1940.0,49.292309,24.183939,32.806961,4.9,-2.9,543.0
69.65,-128.14737761,0.5059396549999999,1943.0,52.882894500000006,24.3224985,33.9789505,5.1,-3.0,541.0
69.7,-128.14734386,0.50599966,1946.0,56.47348,24.461058,35.15094,5.3,-3.1,539.0
69.75,-128.14731583,0.506049275,1948.0,61.6211545,24.386887,37.3759995,5.65,-3.1,537.5
69.8,-128.1472878,0.50609889,1950.0,66.768829,24.312716,39.601059,6.0,-3.1,536.0
69.85,-128.14725404,0.50615197,1952.5,70.121059,24.264414,41.050064,6.4,-3.1,534.0
69.9,-128.14722028,0.50620505,1955.0,73.473289,24.216112,42.499069,6.8,-3.1,532.0
69.95,-128.147189385,0.50624948,1957.5,76.7255935,23.8225365,44.2793885,7.15,-3.1,530.5
70.0,-128.14715849,0.50629391,1960.0,79.977898,23.428961,46.059708,7.5,-3.1,529.0
70.05,-128.14712187,0.506346415,1962.5,83.6463055,22.827587,48.2378695,8.0,-3.05,527.5
70.1,-128.14708525,0.50639892,1965.0,87.314713,22.226213,50.416031,8.5,-3.0,526.0
70.15,-128.14704404,0.50644682,1967.5,89.5049745,21.7955375,51.712799,8.95,-2.9,523.5
70.2,-128.14700283,0.50649472,1970.0,91.695236,21.364862,53.009567,9.4,-2.8,521.0
70.25,-128.146969065,0.5065345349999999,1972.5,94.509411,20.2294825,54.6455305,9.8,-2.65,519.0
70.3,-128.1469353,0.50657435,1975.0,97.323586,19.094103,56.281494,10.2,-2.5,517.0
70.35,-128.146890655,0.506621675,1977.5,99.3243335,18.2869035,57.44458,10.6,-2.3,514.5
70.4,-128.14684601,0.506669,1980.0,101.325081,17.479704,58.607666,11.0,-2.1,512.0
70.45,-128.14680479999998,0.50670825,1982.0,103.4830325,16.39906,59.0538255,10.95,-2.0,509.5
70.5,-128.14676359,0.5067475,1984.0,105.640984,15.318416,59.499985,10.9,-1.9,507.0
70.55,-128.14672295,0.50678617,1986.0,107.478188,14.35339,59.7066195,10.6,-1.65,505.0
70.6,-128.14668231,0.50682484,1988.0,109.315392,13.388364,59.913254,10.3,-1.4,503.0
70.65,-128.146632505,0.5068664,1990.0,110.581295,12.723427,60.0556415,9.95,-1.1,501.5
70.7,-128.1465827,0.50690796,1992.0,111.847198,12.05849,60.198029,9.6,-0.8,500.0
70.75,-128.146540335,0.5069414400000001,1993.5,112.6482045,10.8398025,60.927254,9.3,-0.5,498.5
70.8,-128.14649797,0.50697492,1995.0,113.449211,9.621115,61.656479,9.0,-0.2,497.0
70.85,-128.1464516,0.507010135,1996.5,113.94936,8.8601595,62.1118165,8.7,0.1499999999999999,496.0
70.9,-128.14640523,0.50704535,1998.0,114.449509,8.099204,62.567154,8.4,0.5,495.0
70.95,-128.14635141,0.507083455,1999.5,113.2464295,7.214914500000001,63.975197,8.350000000000001,0.85,493.0
71.0,-128.14629759,0.50712156,2001.0,112.04335,6.330625,65.38324,8.3,1.2,491.0
71.05,-128.146255225,0.507151005,2002.0,110.7436295,5.724448000000001,66.582413,8.4,1.45,490.0
71.1,-128.14621286,0.50718045,2003.0,109.443909,5.118271,67.781586,8.5,1.7,489.0
71.15,-128.14615846499998,0.50721221,2004.5,108.4939385,4.675216499999999,68.658066,8.75,2.1,487.5
71.2,-128.14610407,0.50724397,2006.0,107.543968,4.232162,69.534546,9.0,2.5,486.0
71.25,-128.146051965,0.507274,2007.0,103.856472,4.1342955,72.10746750000001,9.3,2.65,484.5
71.3,-128.14599986,0.50730403,2008.0,100.168976,4.036429,74.680389,9.6,2.8,483.0
71.35,-128.14595405,0.50732771,2009.0,98.380783,3.9889705,75.9281005,9.9,2.9,481.5
71.4,-128.14590824,0.50735139,2010.0,96.59259,3.941512,77.175812,10.2,3.0,480.0
71.45,-128.14585098,0.507377385,2010.5,93.9445075,4.362497,78.56938199999999,10.55,3.05,478.0
71.5,-128.14579372,0.50740338,2011.0,91.296425,4.783482,79.962952,10.9,3.1,476.0
71.55,-128.14573817000002,0.50742822,2012.0,88.56192,5.439771,81.197174,11.15,2.85,474.5
71.6,-128.14568262,0.50745306,2013.0,85.827415,6.09606,82.431396,11.4,2.6,473.0
71.65,-128.14563852499998,0.507468665,2014.0,84.5734785,6.3970085,82.9973445,11.55,2.5,471.5
71.7,-128.14559443,0.50748427,2015.0,83.319542,6.697957,83.563293,11.7,2.4,470.0
71.75,-128.145537735,0.5075045,2015.5,79.62867,8.131566,84.166473,11.65,2.05,468.5
71.8,-128.14548104,0.50752473,2016.0,75.937798,9.565175,84.769653,11.6,1.7,467.0
71.85,-128.14543064,0.507540345,2017.0,74.00256350000001,10.323191,85.0736235,11.5,1.35,465.5
71.9,-128.14538024,0.50755596,2018.0,72.067329,11.081207,85.377594,11.4,1.0,464.0
71.95,-128.145317815,0.50757273,2019.0,69.1743275,12.223577,85.4152375,11.15,0.6,462.5
72.0,-128.14525539,0.5075895,2020.0,66.281326,13.365947,85.452881,10.9,0.2,461.0
72.05,-128.14520671,0.5076022250000001,2021.0,64.1957185,14.1917335,85.378952,10.55,-0.2,460.0
72.1,-128.14515803,0.50761495,2022.0,62.110111,15.01752,85.305023,10.2,-0.6,459.0
72.15,-128.14510018,0.50762653,2023.0,60.653923000000006,15.6438165,85.227127,9.85,-1.05,458.0
72.2,-128.14504233,0.50763811,2024.0,59.197735,16.270113,85.149231,9.5,-1.5,457.0
72.25,-128.14499021,0.507648535,2025.0,58.513878000000005,16.825106499999997,84.97496050000001,9.0,-1.95,456.0
72.3,-128.14493809,0.50765896,2026.0,57.830021,17.3801,84.80069,8.5,-2.4,455.0
72.35,-128.144889405,0.5076676499999999,2027.5,57.466162,17.675396,84.7079775,8.1,-2.8,454.0
72.4,-128.14484072,0.50767634,2029.0,57.102303,17.970692,84.615265,7.7,-3.2,453.0
72.45,-128.14478287,0.50768561,2030.0,58.6822605,17.916019499999997,84.35226449999999,7.0,-3.6,451.5
72.5,-128.14472502,0.50769488,2031.0,60.262218,17.861347,84.089264,6.3,-4.0,450.0
72.55,-128.1446729,0.50770242,2032.5,61.931427,17.711671,83.8612215,5.449999999999999,-4.25,449.5
72.6,-128.14462078,0.50770996,2034.0,63.600636,17.561995,83.633179,4.6,-4.5,449.0
72.65,-128.14456522,0.507716925,2035.0,64.9800475,17.4223635,83.5442355,4.1,-4.55,448.0
72.7,-128.14450966,0.50772389,2036.0,66.359459,17.282732,83.455292,3.6,-4.6,447.0
72.75,-128.144467275,0.5077296899999999,2037.0,70.1218795,16.782769000000002,83.9560245,3.35,-4.55,446.5
72.8,-128.14442489,0.50773549,2038.0,73.8843,16.282806,84.456757,3.1,-4.5,446.0
72.85,-128.14436933000002,0.50774188,2039.5,76.643322,15.9161765,84.82392899999999,2.75,-4.4,445.0
72.9,-128.14431377,0.50774827,2041.0,79.402344,15.549547,85.191101,2.4,-4.3,444.0
72.95,-128.1442605,0.5077535049999999,2042.0,82.32076649999999,14.921122,86.2196045,2.3,-4.15,443.0
73.0,-128.14420723,0.50775874,2043.0,85.239189,14.292697,87.248108,2.2,-4.0,442.0
73.05,-128.144155675,0.507764545,2044.0,87.7286185,13.675479,88.341385,2.35,-3.75,441.5
73.1,-128.14410412,0.50777035,2045.0,90.218048,13.058261,89.434662,2.5,-3.5,441.0
73.15,-128.14404856,0.5077738549999999,2046.5,91.815937,12.662088,90.1363985,3.2,-3.25,440.0
73.2,-128.143993,0.50777736,2048.0,93.413826,12.265915,90.838135,3.9,-3.0,439.0
73.25,-128.14393858,0.5077802899999999,2049.0,94.5024985,11.2436665,92.4853515,4.7,-2.7,438.5
73.3,-128.14388416,0.50778322,2050.0,95.591171,10.221418,94.132568,5.5,-2.4,438.0
73.35,-128.143834325,0.50778499,2051.0,96.1445845,9.7017645,94.9699095,5.8,-2.1,437.0
73.4,-128.14378449,0.50778676,2052.0,96.697998,9.182111,95.807251,6.1,-1.8,436.0
73.45,-128.143733505,0.5077862200000001,2052.5,96.5225525,8.577426,96.81752,5.6,-1.4,435.0
73.5,-128.14368252,0.50778568,2053.0,96.347107,7.972741,97.827789,5.1,-1.0,434.0
73.55,-128.143625235,0.5077857299999999,2054.0,95.7498055,7.311495,98.9503325,4.55,-0.6,433.5
73.6,-128.14356795,0.50778578,2055.0,95.152504,6.650249,100.072876,4.0,-0.2,433.0
73.65,-128.143520405,0.507782355,2055.5,94.87072,6.338297,100.602463,4.3,0.0,432.0
73.7,-128.14347286,0.50777893,2056.0,94.588936,6.026345,101.13205,4.6,0.2,431.0
73.75,-128.143417865,0.507775515,2057.0,93.900772,5.4681235,102.3636935,4.949999999999999,0.35,430.5
73.8,-128.14336287,0.5077721,2058.0,93.212608,4.909902,103.595337,5.3,0.5,430.0
73.85,-128.143314175,0.507767525,2058.5,92.8706585,4.6325235,104.207367,5.55,0.6,429.0
73.9,-128.14326548,0.50776295,2059.0,92.528709,4.355145,104.819397,5.8,0.7,428.0
73.95,-128.143209905,0.50775492,2059.5,92.311138,4.066919,105.5072325,5.85,0.7,427.5
74.0,-128.14315433,0.50774689,2060.0,92.093567,3.778693,106.195068,5.9,0.7,427.0
74.05,-128.14310219499998,0.507740015,2060.5,91.9836845,3.5641860000000003,106.7265625,5.9,0.6,426.5
74.1,-128.14305006,0.50773314,2061.0,91.873802,3.349679,107.258057,5.9,0.5,426.0
74.15,-128.14299907,0.5077228,2061.5,91.785652,3.219646,107.589432,5.800000000000001,0.45,425.5
74.2,-128.14294808,0.50771246,2062.0,91.697502,3.089613,107.920807,5.7,0.4,425.0
74.25,-128.14290167500002,0.50770327,2062.0,91.383053,2.9825265,108.29657,5.5,0.3,424.5
74.3,-128.14285527,0.50769408,2062.0,91.068604,2.87544,108.672333,5.3,0.2,424.0
74.35,-128.142801985,0.50768201,2062.5,90.861004,2.80474,108.920456,5.1,0.0499999999999999,423.5
74.4,-128.1427487,0.50766994,2063.0,90.653404,2.73404,109.168579,4.9,-0.1,423.0
74.45,-128.1427063,0.507659595,2063.0,90.172363,2.700772,109.356476,4.7,-0.2,423.0
74.5,-128.1426639,0.50764925,2063.0,89.691322,2.667504,109.544373,4.5,-0.3,423.0
74.55,-128.14261577000002,0.50763718,2063.5,89.0835035,2.6439285000000003,109.7270665,4.25,-0.5,422.5
74.6,-128.14256764,0.50762511,2064.0,88.475685,2.620353,109.90976,4.0,-0.7,422.0
74.65,-128.142512635,0.507609005,2064.0,88.0950165,2.605588,110.0241855,3.75,-0.85,422.0
74.7,-128.14245763,0.5075929,2064.0,87.714348,2.590823,110.138611,3.5,-1.0,422.0
74.75,-128.14241294,0.507579675,2064.5,86.879547,2.5395375,110.208313,3.25,-1.15,421.5
74.8,-128.14236825,0.50756645,2065.0,86.044746,2.488252,110.278015,3.0,-1.3,421.0
74.85,-128.14231324000002,0.50754919,2065.0,85.454723,2.452004,110.32724,2.7,-1.4500000000000002,421.0
74.9,-128.14225823,0.50753193,2065.0,84.8647,2.415756,110.376465,2.4,-1.6,421.0
74.95,-128.14221239,0.5075164,2065.0,83.922546,2.3003895,110.267166,2.1,-1.65,421.0
75.0,-128.14216655,0.50750087,2065.0,82.980392,2.185023,110.157867,1.8,-1.7,421.0
75.05,-128.14211613,0.507484185,2065.0,82.038967,2.0604050000000003,110.0181425,1.4500000000000002,-1.7999999999999998,421.0
75.1,-128.14206571,0.5074675,2065.0,81.097542,1.935787,109.878418,1.1,-1.9,421.0
75.15,-128.14202044,0.50745139,2065.0,80.643513,1.875687,109.8110505,0.9,-1.95,421.0
75.2,-128.14197517,0.50743528,2065.0,80.189484,1.815587,109.743683,0.7,-2.0,421.0
75.25,-128.14191959,0.50741514,2065.0,78.369835,1.4704435,109.4543765,0.3999999999999999,-2.0,421.0
75.3,-128.14186401,0.507395,2065.0,76.550186,1.1253,109.16507,0.1,-2.0,421.0
75.35,-128.14182046000002,0.5073794650000001,2065.0,75.7344665,0.970578,109.0354005,-0.15,-2.0,421.0
75.4,-128.14177691,0.50736393,2065.0,74.918747,0.815856,108.905731,-0.4,-2.0,421.0
75.45,-128.14173164,0.507346665,2064.5,73.96572499999999,0.5923775,108.843109,-0.65,-2.05,421.5
75.5,-128.14168637,0.5073294,2064.0,73.012703,0.368899,108.780487,-0.9,-2.1,422.0
75.55,-128.14163480000002,0.5073104100000001,2064.0,71.8364485,0.0633555,108.76503,-1.1,-2.1,422.0
75.6,-128.14158323,0.50729142,2064.0,70.660194,-0.242188,108.749573,-1.3,-2.1,422.0
75.65,-128.141536245,0.50727358,2064.0,70.081451,-0.3925214999999999,108.7419895,-1.35,-2.1,422.0
75.7,-128.14148926,0.50725574,2064.0,69.502708,-0.542855,108.734406,-1.4,-2.1,422.0
75.75,-128.14143825999997,0.5072367499999999,2063.5,68.5440175,-0.8336785,109.0448,-1.4,-2.1,422.5
75.8,-128.14138726,0.50721776,2063.0,67.585327,-1.124502,109.355194,-1.4,-2.1,423.0
75.85,-128.141340845,0.5071999199999999,2063.0,67.091026,-1.2744505,109.5152435,-1.35,-2.1,423.0
75.9,-128.14129443,0.50718208,2063.0,66.596725,-1.424399,109.675293,-1.3,-2.1,423.0
75.95,-128.14124457999998,0.507162515,2062.5,66.06036750000001,-1.5682545,110.0900575,-1.15,-2.05,423.0
76.0,-128.14119473,0.50714295,2062.0,65.52401,-1.71211,110.504822,-1.0,-2.0,423.0
76.05,-128.14114946,0.50712511,2061.5,65.08450350000001,-1.821834,110.94899,-0.75,-1.95,423.5
76.1,-128.14110419,0.50710727,2061.0,64.644997,-1.931558,111.393158,-0.5,-1.9,424.0
76.15,-128.14105376499998,0.50708655,2061.0,64.36827500000001,-2.000463,111.714218,-0.35,-1.85,424.0
76.2,-128.14100334,0.50706583,2061.0,64.091553,-2.069368,112.035278,-0.2,-1.8,424.0
76.25,-128.140959215,0.50704741,2060.5,63.9023495,-2.1147455,112.6611935,-0.0499999999999999,-1.8,424.5
76.3,-128.14091509,0.50702899,2060.0,63.713146,-2.160123,113.287109,0.1,-1.8,425.0
76.35,-128.14086523499998,0.507007695,2059.5,63.589567,-2.189761,113.6959225,0.3,-1.8,425.0
76.4,-128.14081538,0.5069864,2059.0,63.465988,-2.219399,114.104736,0.5,-1.8,425.0
76.45,-128.140770685,0.5069674049999999,2058.5,63.97948050000001,-2.235809,114.6299895,0.7,-1.8,425.0
76.5,-128.14072599,0.50694841,2058.0,64.492973,-2.252219,115.155243,0.9,-1.8,425.0
76.55,-128.14067727999998,0.5069265350000001,2057.5,65.23602650000001,-2.263258,115.7128145,1.05,-1.8,425.0
76.6,-128.14062857,0.50690466,2057.0,65.97908,-2.274297,116.270386,1.2,-1.8,425.0
76.65,-128.140583295,0.50688336,2057.0,66.53154,-2.283732,116.6018525,1.35,-1.85,425.0
76.7,-128.14053802,0.50686206,2057.0,67.084,-2.293167,116.933319,1.5,-1.9,425.0
76.75,-128.14049389500002,0.506840755,2056.5,69.15877950000001,-2.3372555,117.591919,1.6,-1.95,425.0
76.8,-128.14044977,0.50681945,2056.0,71.233559,-2.381344,118.250519,1.7,-2.0,425.0
76.85,-128.140398195,0.5067941199999999,2055.5,72.583889,-2.4100390000000003,118.679184,1.7999999999999998,-2.1,425.5
76.9,-128.14034662,0.50676879,2055.0,73.934219,-2.438734,119.107849,1.9,-2.2,426.0
76.95,-128.14030421,0.5067469099999999,2054.5,75.3096425,-2.5319345,119.597061,1.95,-2.3,426.5
77.0,-128.1402618,0.50672503,2054.0,76.685066,-2.625135,120.086273,2.0,-2.4,427.0
77.05,-128.14021480999995,0.5067002700000001,2053.0,78.266739,-2.76124,120.6726685,2.0,-2.45,427.0
77.1,-128.14016782,0.50667551,2052.0,79.848412,-2.897345,121.259064,2.0,-2.5,427.0
77.15,-128.140121395,0.50664902,2051.5,80.7505915,-2.9749795,121.5935365,2.05,-2.5,427.5
77.2,-128.14007497,0.50662253,2051.0,81.652771,-3.052614,121.928009,2.1,-2.5,428.0
77.25,-128.14003371,0.506599495,2050.5,82.4257315,-3.330436,122.5913085,2.1500000000000004,-2.45,428.0
77.3,-128.13999245,0.50657646,2050.0,83.198692,-3.608258,123.254608,2.2,-2.4,428.0
77.35,-128.13994430999998,0.50654824,2049.5,83.7123565,-3.7928785,123.695404,2.25,-2.4,428.5
77.4,-128.13989617,0.50652002,2049.0,84.226021,-3.977499,124.1362,2.3,-2.4,429.0
77.45,-128.139853185,0.506493525,2048.0,84.390972,-4.243942499999999,124.520752,2.25,-2.35,429.0
77.5,-128.1398102,0.50646703,2047.0,84.555923,-4.510386,124.905304,2.2,-2.3,429.0
77.55,-128.139762055,0.50643708,2046.5,84.5999335,-4.815352,125.2822115,2.1500000000000004,-2.2,429.5
77.6,-128.13971391,0.50640713,2046.0,84.643944,-5.120318,125.659119,2.1,-2.1,430.0
77.65,-128.13967321500002,0.50638006,2045.0,84.665989,-5.2730495,125.84787,2.1,-2.0,430.5
77.7,-128.13963252,0.50635299,2044.0,84.688034,-5.425781,126.036621,2.1,-1.9,431.0
77.75,-128.139592975,0.5063264949999999,2043.5,84.4814375,-5.8287185,126.450958,2.0,-1.7999999999999998,431.0
77.8,-128.13955343,0.5063,2043.0,84.274841,-6.231656,126.865295,1.9,-1.7,431.0
77.85,-128.13950814999998,0.50626832,2042.0,84.141773,-6.4911895,127.132156,1.85,-1.5499999999999998,431.5
77.9,-128.13946287,0.50623664,2041.0,84.008705,-6.750723,127.399017,1.8,-1.4,432.0
77.95,-128.13942332,0.506208415,2040.0,83.81414050000001,-7.0254095,127.9185025,1.85,-1.35,432.5
78.0,-128.13938377,0.50618019,2039.0,83.619576,-7.300096,128.437988,1.9,-1.3,433.0
78.05,-128.1393362,0.5061462,2038.0,83.396969,-7.588456,129.0643005,2.0,-1.25,433.5
78.1,-128.13928863,0.50611221,2037.0,83.174362,-7.876816,129.690613,2.1,-1.2,434.0
78.15,-128.13925137,0.506083405,2036.0,83.05299,-8.025914,130.040146,2.1500000000000004,-1.15,434.0
78.2,-128.13921411,0.5060546,2035.0,82.931618,-8.175012,130.389679,2.2,-1.1,434.0
78.25,-128.13917169500002,0.5060217650000001,2034.0,82.64202499999999,-8.437736000000001,131.315872,2.3,-1.05,435.0
78.3,-128.13912928,0.50598893,2033.0,82.352432,-8.70046,132.242065,2.4,-1.0,436.0
78.35,-128.139091445,0.505958395,2032.0,82.20473849999999,-8.8344475,132.714401,2.55,-0.95,436.0
78.4,-128.13905361,0.50592786,2031.0,82.057045,-8.968435,133.186737,2.7,-0.9,436.0
78.45,-128.13901062,0.505891565,2030.0,81.8517225,-9.128615,133.875229,2.85,-0.8500000000000001,436.5
78.5,-128.13896763,0.50585527,2029.0,81.6464,-9.288795,134.563721,3.0,-0.8,437.0
78.55,-128.13892521,0.50581955,2028.0,81.44831450000001,-9.4341155,135.2392275,3.1,-0.8,437.5
78.6,-128.13888279,0.50578383,2027.0,81.250229,-9.579436,135.914734,3.2,-0.8,438.0
78.65,-128.13884897,0.50575214,2026.0,81.152706,-9.650977,136.24726850000002,3.3,-0.8,438.0
78.7,-128.13881515,0.50572045,2025.0,81.055183,-9.722518,136.579803,3.4,-0.8,438.0
78.75,-128.138773875,0.5056824200000001,2023.5,80.75340249999999,-9.879373,137.3054805,3.45,-0.8500000000000001,438.5
78.8,-128.1387326,0.50564439,2022.0,80.451622,-10.036228,138.031158,3.5,-0.9,439.0
78.85,-128.13869648,0.5056092400000001,2021.0,80.289936,-10.1192045,138.41497800000002,3.45,-0.9,439.5
78.9,-128.13866036,0.50557409,2020.0,80.12825,-10.202181,138.798798,3.4,-0.9,440.0
78.95,-128.138619655,0.5055326,2018.5,79.651371,-10.3235945,139.20361350000002,3.35,-0.95,440.5
79.0,-128.13857895,0.50549111,2017.0,79.174492,-10.445008,139.608429,3.3,-1.0,441.0
79.05,-128.138544555,0.50545654,2015.5,78.739605,-10.5408995,139.890106,3.15,-1.05,441.5
79.1,-128.13851016,0.50542197,2014.0,78.304718,-10.636791,140.171783,3.0,-1.1,442.0
79.15,-128.13847289,0.5053804749999999,2013.0,77.943474,-10.7123235,140.37037650000002,2.9,-1.1,442.5
79.2,-128.13843562,0.50533898,2012.0,77.58223,-10.787856,140.56897,2.8,-1.1,443.0
79.25,-128.13840466,0.50530498,2010.5,76.6512795,-10.9441335,140.75116,2.65,-1.1,443.5
79.3,-128.1383737,0.50527098,2009.0,75.720329,-11.100411,140.93335,2.5,-1.1,444.0
79.35,-128.13833585999998,0.50522776,2007.5,75.07895250000001,-11.20808,141.0588535,2.3,-1.1,444.5
79.4,-128.13829802,0.50518454,2006.0,74.437576,-11.315749,141.184357,2.1,-1.1,445.0
79.45,-128.138266485,0.5051482350000001,2005.0,73.5678175,-11.4602105,141.27255250000002,1.95,-1.1,445.5
79.5,-128.13823495,0.50511193,2004.0,72.698059,-11.604672,141.360748,1.8,-1.1,446.0
79.55,-128.13819882500002,0.505069285,2002.5,71.77041249999999,-11.7583995,141.436401,1.55,-1.15,447.0
79.6,-128.1381627,0.50502664,2001.0,70.842766,-11.912127,141.512054,1.3,-1.2,448.0
79.65,-128.13813059,0.504986875,1999.5,70.3803905,-11.9887515,141.5497585,1.15,-1.2,448.5
79.7,-128.13809848,0.50494711,1998.0,69.918015,-12.065376,141.587463,1.0,-1.2,449.0
79.75,-128.13806866,0.5049102249999999,1996.5,68.581696,-12.2308875,141.781189,0.9,-1.2,449.5
79.8,-128.13803884,0.50487334,1995.0,67.245377,-12.396399,141.974915,0.8,-1.2,450.0
79.85,-128.138002145,0.504827235,1993.5,66.2700655,-12.5164895,142.1173555,0.7,-1.2,451.0
79.9,-128.13796545,0.50478113,1992.0,65.294754,-12.63658,142.259796,0.6,-1.2,452.0
79.95,-128.13793047,0.50473502,1990.5,63.862154,-12.734026,142.541092,0.55,-1.2,452.5
80.0,-128.13789549,0.50468891,1989.0,62.429554,-12.831472,142.822388,0.5,-1.2,453.0
80.05,-128.137865095,0.50464972,1987.5,61.2043075,-12.8979045,143.0783695,0.5,-1.2,453.5
