Time,Longitude,Latitude,Altitude,Roll,Pitch,Yaw,AOA,AOS,TAS
206.4,-128.05046212,0.60518546,194.0,2.777393,-4.952154,52.217163,-0.7,0.2,568.0
206.45,-128.05036193,0.605264575,193.5,2.5887070000000003,-4.970347,52.201873500000005,-0.7,0.2,568.5
206.5,-128.05026174,0.60534369,193.0,2.400021,-4.98854,52.186584,-0.7,0.2,569.0
206.55,-128.05014609,0.60543435,192.0,2.267633,-5.016621000000001,52.1632535,-0.7,0.15,569.5
206.6,-128.05003044,0.60552501,191.0,2.135245,-5.044702,52.139923,-0.7,0.1,570.0
206.65,-128.049927385,0.60560643,190.5,2.0501055,-5.0698815,52.1187745,-0.7,0.05,570.0
206.7,-128.04982433,0.60568785,190.0,1.964966,-5.095061,52.097626,-0.7,0.0,570.0
206.75,-128.04972185,0.605768115,189.5,1.902343,-5.113220500000001,52.079529,-0.7,0.0,570.5
206.8,-128.04961937,0.60584838,189.0,1.83972,-5.13138,52.061432,-0.7,-0.0,571.0
206.85,-128.049506585,0.605936735,188.5,1.772376,-5.146315,52.047264,-0.7,-0.05,571.5
206.9,-128.0493938,0.60602509,188.0,1.705032,-5.16125,52.033096,-0.7,-0.1,572.0
206.95,-128.049292465,0.606104775,187.5,1.6397885,-5.165757,52.0263745,-0.7,-0.1,572.5
207.0,-128.04919113,0.60618446,187.0,1.574545,-5.170264,52.019653,-0.7,-0.1,573.0
207.05,-128.04906861,0.60628032,186.0,1.488148,-5.1631990000000005,52.0186995,-0.6499999999999999,-0.1,573.5
207.1,-128.04894609,0.60637618,185.0,1.401751,-5.156134,52.017746,-0.6,-0.1,574.0
207.15,-128.048845325,0.60645529,184.5,1.3155875,-5.139901999999999,52.0215685,-0.6,-0.1,574.0
207.2,-128.04874456,0.6065344,184.0,1.229424,-5.12367,52.025391,-0.6,-0.1,574.0
207.25,-128.04862376,0.606629105,183.5,1.13224,-5.0949615,52.035881,-0.55,-0.1,574.5
207.3,-128.04850296,0.60672381,183.0,1.035056,-5.066253,52.046371,-0.5,-0.1,575.0
207.35,-128.048402195,0.606802925,182.0,0.9680415,-5.0414295,52.0574645,-0.5,-0.1,575.5
207.4,-128.04830143,0.60688204,181.0,0.901027,-5.016606,52.068558,-0.5,-0.1,576.0
207.45,-128.048182345,0.606975585,180.5,0.8238205000000001,-4.9927505,52.0838855,-0.45,-0.05,576.5
207.5,-128.04806326,0.60706913,180.0,0.746614,-4.968895,52.099213,-0.4,-0.0,577.0
207.55,-128.04796192499998,0.6071488199999999,179.5,0.6564335,-4.9534085,52.1139225,-0.4,0.0,577.5
207.6,-128.04786059,0.60722851,179.0,0.566253,-4.937922,52.128632,-0.4,-0.0,578.0
207.65,-128.04775811000002,0.607308775,178.5,0.458735,-4.9264235,52.1453175,-0.4,0.0,578.0
207.7,-128.04765563,0.60738904,178.0,0.351217,-4.914925,52.162003,-0.4,0.0,578.0
207.75,-128.04753196500002,0.6074860550000001,177.0,0.1615645,-4.900212,52.18219,-0.4,0.0,578.5
207.8,-128.0474083,0.60758307,176.0,-0.028088,-4.885499,52.202377,-0.4,0.0,579.0
207.85,-128.04730524500002,0.607663915,175.5,-0.203955,-4.8758275,52.2189635,-0.4,0.05,579.5
207.9,-128.04720219,0.60774476,175.0,-0.379822,-4.866156,52.23555,-0.4,0.1,580.0
207.95,-128.04708196,0.607838885,174.5,-0.649173,-4.8545065,52.254921,-0.4,0.1,580.5
208.0,-128.04696173,0.60793301,174.0,-0.918524,-4.842857,52.274292,-0.4,0.1,581.0
208.05,-128.04685982,0.6080127,173.5,-1.2411,-4.829968,52.291336,-0.4,0.1,581.5
208.1,-128.04675791,0.60809239,173.0,-1.563676,-4.817079,52.30838,-0.4,0.1,582.0
208.15,-128.04663711,0.608187095,172.0,-1.9785585,-4.7997805,52.3262175,-0.4,0.15,582.5
208.2,-128.04651631,0.6082818,171.0,-2.393441,-4.782482,52.344055,-0.4,0.2,583.0
208.25,-128.046412685,0.608363225,170.5,-2.7206075,-4.7660795,52.3542935,-0.4,0.2,583.0
208.3,-128.04630906,0.60844465,170.0,-3.047774,-4.749677,52.364532,-0.4,0.2,583.0
208.35,-128.046190545,0.608537045,169.5,-3.4353235,-4.7273935,52.3695525,-0.4,0.2,583.5
208.4,-128.04607203,0.60862944,169.0,-3.822873,-4.70511,52.374573,-0.4,0.2,584.0
208.45,-128.045968975,0.6087102849999999,168.5,-4.149371,-4.687242,52.373604,-0.4,0.2,584.5
208.5,-128.04586592,0.60879113,168.0,-4.475869,-4.669374,52.372635,-0.4,0.2,585.0
208.55,-128.045742255,0.6088881399999999,167.0,-4.8191515,-4.6514705,52.364731000000006,-0.4,0.2,585.5
208.6,-128.04561859,0.60898515,166.0,-5.162434,-4.633567,52.356827,-0.4,0.2,586.0
208.65,-128.04551554,0.6090665749999999,165.5,-5.4195345,-4.6189355,52.3434525,-0.4,0.2,586.0
208.7,-128.04541249,0.609148,165.0,-5.676635,-4.604304,52.330078,-0.4,0.2,586.0
208.75,-128.04529283,0.609242125,164.5,-5.886995000000001,-4.5920085,52.30661,-0.4,0.2,586.5
208.8,-128.04517317,0.60933625,164.0,-6.097355,-4.579713,52.283142,-0.4,0.2,587.0
208.85,-128.04506783,0.6094188300000001,163.5,-6.212953000000001,-4.5723895,52.255928,-0.4,0.15,587.5
208.9,-128.04496249,0.60950141,163.0,-6.328551,-4.565066,52.228714,-0.4,0.1,588.0
208.95,-128.04485599999998,0.609585715,162.5,-6.3988295,-4.560223499999999,52.197693,-0.4,0.1,588.5
209.0,-128.04474951,0.60967002,162.0,-6.469108,-4.555381,52.166672,-0.4,0.1,589.0
209.05,-128.04462813499998,0.609765305,161.0,-6.51402,-4.550684,52.129242,-0.4,0.1,589.5
209.1,-128.04450676,0.60986059,160.0,-6.558932,-4.545987,52.091812,-0.4,0.1,590.0
209.15,-128.04440255999998,0.60994259,159.5,-6.590372,-4.536457,52.0595855,-0.4,0.05,590.0
209.2,-128.04429836,0.61002459,159.0,-6.621812,-4.526927,52.027359,-0.4,0.0,590.0
209.25,-128.04417583999998,0.6101216,158.5,-6.6467445000000005,-4.508693,51.990776,-0.4,0.0,590.5
209.3,-128.04405332,0.61021861,158.0,-6.671677,-4.490459,51.954193,-0.4,0.0,591.0
209.35,-128.04394854999998,0.6103011899999999,157.5,-6.681354,-4.4725975,51.925163,-0.4,0.0,591.5
209.4,-128.04384378,0.61038377,157.0,-6.691031,-4.454736,51.896133,-0.4,-0.0,592.0
209.45,-128.04372469499998,0.61047905,156.5,-6.692208,-4.432874,51.8657985,-0.4,0.0,592.5
209.5,-128.04360561,0.61057433,156.0,-6.693385,-4.411012,51.835464,-0.4,-0.0,593.0
209.55,-128.04350198499998,0.6106563300000001,155.5,-6.66907,-4.392898000000001,51.811607,-0.4,0.0,593.0
209.6,-128.04339836,0.61073833,155.0,-6.644755,-4.374784,51.78775,-0.4,-0.0,593.0
209.65,-128.04327183499998,0.610838805,154.0,-6.5540785,-4.3520145,51.757507,-0.4,0.0,593.5
209.7,-128.04314531,0.61093928,153.0,-6.463402,-4.329245,51.727264,-0.4,-0.0,594.0
209.75,-128.04304111,0.611022435,152.5,-6.3545775,-4.3093795,51.703445,-0.4,0.0,594.5
209.8,-128.04293691,0.61110559,152.0,-6.245753,-4.289514,51.679626,-0.4,-0.0,595.0
209.85,-128.042830995,0.6111899000000001,151.5,-6.1272325,-4.268613,51.657402000000005,-0.4,0.0,595.5
209.9,-128.04272508,0.61127421,151.0,-6.008712,-4.247712,51.635178,-0.4,-0.0,596.0
209.95,-128.04260370999998,0.6113712250000001,150.5,-5.905642,-4.2267815,51.6136705,-0.4,0.0,596.0
210.0,-128.04248234,0.61146824,150.0,-5.802572,-4.205851,51.592163,-0.4,-0.0,596.0
210.05,-128.04238100499998,0.61154966,149.5,-5.73462,-4.193512999999999,51.5769575,-0.4,0.0,596.5
210.1,-128.04227967,0.61163108,149.0,-5.666668,-4.181175,51.561752,-0.4,-0.0,597.0
210.15,-128.04215199499998,0.61173329,148.5,-5.573947499999999,-4.179715,51.547126500000005,-0.4,0.0,597.5
210.2,-128.04202432,0.6118355,148.0,-5.481227,-4.178255,51.532501,-0.4,-0.0,598.0
210.25,-128.04191955,0.611919805,147.5,-5.398288,-4.1935805,51.52475750000001,-0.45,0.0,598.0
210.3,-128.04181478,0.61200411,147.0,-5.315349,-4.208906,51.517014,-0.5,-0.0,598.0
210.35,-128.041692265,0.6121028550000001,146.5,-5.2061035,-4.241001499999999,51.5149765,-0.55,0.0,598.5
210.4,-128.04156975,0.6122016,146.0,-5.096858,-4.273097,51.512939,-0.6,0.0,599.0
210.45,-128.04146326,0.6122870650000001,145.5,-4.998232,-4.2989915,51.519866500000006,-0.6,0.05,599.5
210.5,-128.04135677,0.61237253,145.0,-4.899606,-4.324886,51.526794,-0.6,0.1,600.0
210.55,-128.041231965,0.612473005,144.5,-4.803943,-4.3372075,51.545448,-0.6499999999999999,0.1,600.5
210.6,-128.04110716,0.61257348,144.0,-4.70828,-4.349529,51.564102,-0.7,0.1,601.0
210.65,-128.04100124500002,0.612658945,143.5,-4.6291785,-4.341948500000001,51.583328,-0.7,0.15,601.0
210.7,-128.04089533,0.61274441,143.0,-4.550077,-4.334368,51.602554,-0.7,0.2,601.0
210.75,-128.04078884,0.61283045,142.5,-4.473361000000001,-4.3169755,51.620239,-0.6499999999999999,0.2,601.5
210.8,-128.04068235,0.61291649,142.0,-4.396645,-4.299583,51.637924,-0.6,0.2,602.0
210.85,-128.040560405,0.613014655,141.0,-4.3034005,-4.280666500000001,51.6534425,-0.6,0.25,602.5
210.9,-128.04043846,0.61311282,140.0,-4.210156,-4.26175,51.668961,-0.6,0.3,603.0
210.95,-128.04033197500002,0.61319886,140.0,-4.1251925,-4.250336,51.6772995,-0.6,0.3,603.0
211.0,-128.04022549,0.6132849,140.0,-4.040229,-4.238922,51.685638,-0.6,0.3,603.0
211.05,-128.04010125500002,0.61338538,139.0,-3.942255,-4.228222,51.688316,-0.6,0.3,603.5
211.1,-128.03997702,0.61348586,138.0,-3.844281,-4.217522,51.690994,-0.6,0.3,604.0
211.15,-128.03987282,0.61356959,137.5,-3.7591055,-4.2042280000000005,51.685852,-0.6,0.3,604.5
211.2,-128.03976862,0.61365332,137.0,-3.67393,-4.190934,51.68071,-0.6,0.3,605.0
211.25,-128.03964209499998,0.613756105,136.5,-3.567693,-4.1728570000000005,51.662407,-0.6,0.3,605.0
211.3,-128.03951557,0.61385889,136.0,-3.461456,-4.15478,51.644104,-0.6,0.3,605.0
211.35,-128.039406795,0.6139466650000001,135.5,-3.3745765,-4.1387435,51.6171495,-0.6,0.3,605.5
211.4,-128.03929802,0.61403444,135.0,-3.287697,-4.122707,51.590195,-0.6,0.3,606.0
211.45,-128.03917493,0.61413376,134.5,-3.2037250000000004,-4.103868,51.551201,-0.55,0.25,606.5
211.5,-128.03905184,0.61423308,134.0,-3.119753,-4.085029,51.512207,-0.5,0.2,607.0
211.55,-128.038944205,0.61432028,133.5,-3.0789545,-4.080765,51.4747315,-0.55,0.15,607.5
211.6,-128.03883657,0.61440748,133.0,-3.038156,-4.076501,51.437256,-0.6,0.1,608.0
211.65,-128.03871119,0.614508535,132.5,-3.0348385,-4.094279500000001,51.3873445,-0.6,0.05,608.0
211.7,-128.03858581,0.61460959,132.0,-3.031521,-4.112058,51.337433,-0.6,0.0,608.0
211.75,-128.03848104,0.6146944750000001,131.5,-3.063171,-4.1416765,51.2792205,-0.6499999999999999,-0.05,608.5
211.8,-128.03837627,0.61477936,131.0,-3.094821,-4.171295,51.221008,-0.7,-0.1,609.0
211.85,-128.03826921,0.6148659750000001,130.5,-3.1498475,-4.2057105,51.136032,-0.7,-0.15,609.5
211.9,-128.03816215,0.61495259,130.0,-3.204874,-4.240126,51.051056,-0.7,-0.2,610.0
211.95,-128.03803791500002,0.6150530700000001,129.5,-3.306453,-4.279801,50.9181825,-0.75,-0.3,610.0
212.0,-128.03791368,0.61515355,129.0,-3.408032,-4.319476,50.785309,-0.8,-0.4,610.0
212.05,-128.03780433,0.6152424750000001,128.5,-3.553475,-4.348739999999999,50.6376955,-0.8,-0.55,610.5
212.1,-128.03769498,0.6153314,128.0,-3.698918,-4.378004,50.490082,-0.8,-0.7,611.0
212.15,-128.03757188999998,0.6154313,127.5,-3.9351445,-4.387805,50.295921500000006,-0.8,-0.85,611.5
212.2,-128.0374488,0.6155312,127.0,-4.171371,-4.397606,50.101761,-0.8,-1.0,612.0
212.25,-128.037340595,0.6156195499999999,126.5,-4.4348185,-4.3871195,49.9225695,-0.75,-1.15,612.0
212.3,-128.03723239,0.6157079,126.0,-4.698266,-4.376633,49.743378,-0.7,-1.3,612.0
212.35,-128.03710644,0.61581069,125.5,-5.0985265,-4.3550875,49.546463,-0.7,-1.4500000000000002,612.5
212.4,-128.03698049,0.61591348,125.0,-5.498787,-4.333542,49.349548,-0.7,-1.6,613.0
212.45,-128.03687228500002,0.616002405,124.5,-5.8756335,-4.3204805,49.2053525,-0.6499999999999999,-1.7000000000000002,613.5
212.5,-128.03676408,0.61609133,124.0,-6.25248,-4.307419,49.061157,-0.6,-1.8,614.0
212.55,-128.036639275,0.61619469,123.5,-6.7109000000000005,-4.304174,48.9405365,-0.6,-1.85,614.0
212.6,-128.03651447,0.61629805,123.0,-7.16932,-4.300929,48.819916,-0.6,-1.9,614.0
212.65,-128.03641141999998,0.6163829350000001,122.5,-7.605582500000001,-4.309031,48.76548,-0.6,-1.9,614.5
212.7,-128.03630837,0.61646782,122.0,-8.041845,-4.317133,48.711044,-0.6,-1.9,615.0
212.75,-128.03619788,0.61656021,121.5,-8.476456500000001,-4.334954,48.6926345,-0.6,-1.85,615.5
212.8,-128.03608739,0.6166526,121.0,-8.911068,-4.352775,48.674225,-0.6,-1.8,616.0
212.85,-128.03596373,0.61675654,120.5,-9.407775,-4.3791945000000005,48.6887515,-0.6499999999999999,-1.7000000000000002,616.0
212.9,-128.03584007,0.61686048,120.0,-9.904482,-4.405614,48.703278,-0.7,-1.6,616.0
212.95,-128.035738165,0.616946515,119.5,-10.279547,-4.4277185,48.731316,-0.7,-1.55,616.5
213.0,-128.03563626,0.61703255,119.0,-10.654612,-4.449823,48.759354,-0.7,-1.5,617.0
213.05,-128.035522905,0.617128405,118.5,-11.0283065,-4.467336,48.7917865,-0.75,-1.4,617.5
213.1,-128.03540955,0.61722426,118.0,-11.402001,-4.484849,48.824219,-0.8,-1.3,618.0
213.15,-128.035286465,0.61732935,117.5,-11.7611285,-4.4902115,48.848511,-0.8,-1.2000000000000002,618.0
213.2,-128.03516338,0.61743444,117.0,-12.120256,-4.495574,48.872803,-0.8,-1.1,618.0
213.25,-128.03503858,0.6175412650000001,116.0,-12.4275305,-4.4852595,48.8669055,-0.8,-1.05,618.5
213.3,-128.03491378,0.61764809,115.0,-12.734805,-4.474945,48.861008,-0.8,-1.0,619.0
213.35,-128.03481073,0.617736435,114.5,-12.9311355,-4.4633235,48.820259,-0.75,-0.95,619.5
213.4,-128.03470768,0.61782478,114.0,-13.127466,-4.451702,48.77951,-0.7,-0.9,620.0
213.45,-128.03459948,0.61791832,113.5,-13.32431,-4.4432405,48.703224000000006,-0.7,-0.9,620.0
213.5,-128.03449128,0.61801186,113.0,-13.521154,-4.434779,48.626938,-0.7,-0.9,620.0
213.55,-128.03436533500002,0.618120995,112.5,-13.7281525,-4.4357705,48.509331,-0.7,-0.95,620.5
213.6,-128.03423939,0.61823013,112.0,-13.935151,-4.436762,48.391724,-0.7,-1.0,621.0
213.65,-128.034134625,0.61832136,111.5,-14.111365,-4.4499255,48.281685,-0.7,-1.05,621.5
213.7,-128.03402986,0.61841259,111.0,-14.287579,-4.463089,48.171646,-0.7,-1.1,622.0
213.75,-128.03390964,0.6185176800000001,110.5,-14.5049395,-4.4940005,48.0522615,-0.7,-1.15,622.0
213.8,-128.03378942,0.61862277,110.0,-14.7223,-4.524912,47.932877,-0.7,-1.2,622.0
213.85,-128.03368122,0.61871804,109.5,-14.9509485,-4.5625350000000005,47.8432085,-0.7,-1.25,622.5
213.9,-128.03357302,0.61881331,109.0,-15.179597,-4.600158,47.75354,-0.7,-1.3,623.0
213.95,-128.03345051000002,0.6189218649999999,108.5,-15.461118,-4.6418420000000005,47.688423,-0.75,-1.3,623.5
214.0,-128.033328,0.61903042,108.0,-15.742639,-4.683526,47.623306,-0.8,-1.3,624.0
214.05,-128.03322095,0.61912569,107.5,-16.011025,-4.715541999999999,47.5896375,-0.8,-1.25,624.0
214.1,-128.0331139,0.61922096,107.0,-16.279411,-4.747558,47.555969,-0.8,-1.2,624.0
214.15,-128.03300685,0.6193168099999999,106.5,-16.519537,-4.7670905,47.535286,-0.8500000000000001,-1.15,624.5
214.2,-128.0328998,0.61941266,106.0,-16.759663,-4.786623,47.514603,-0.9,-1.1,625.0
214.25,-128.03277901,0.61952121,105.5,-17.0286525,-4.790894,47.4955825,-0.9,-1.05,625.0
214.3,-128.03265822,0.61962976,105.0,-17.297642,-4.795165,47.476562,-0.9,-1.0,625.0
214.35,-128.03255403,0.6197244500000001,104.0,-17.5043615,-4.7902695,47.458969,-0.8500000000000001,-0.95,625.5
214.4,-128.03244984,0.61981914,103.0,-17.711081,-4.785374,47.441376,-0.8,-0.9,626.0
214.45,-128.032322755,0.61993404,102.5,-17.9167615,-4.783364000000001,47.4132615,-0.8,-0.8500000000000001,626.5
214.5,-128.03219567,0.62004894,102.0,-18.122442,-4.781354,47.385147,-0.8,-0.8,627.0
214.55,-128.0320932,0.6201436300000001,101.5,-18.264227,-4.7855485,47.355781500000006,-0.8,-0.75,627.0
214.6,-128.03199073,0.62023832,101.0,-18.406012,-4.789743,47.326416,-0.8,-0.7,627.0
214.65,-128.03186535999998,0.6203532199999999,100.5,-18.5502495,-4.8002745,47.282646,-0.8,-0.7,627.5
214.7,-128.03173999,0.62046812,100.0,-18.694487,-4.810806,47.238876,-0.8,-0.7,628.0
214.75,-128.031635805,0.6205645449999999,99.5,-18.795682,-4.823014000000001,47.205246,-0.8500000000000001,-0.6499999999999999,628.0
214.8,-128.03153162,0.62066097,99.0,-18.896877,-4.835222,47.171616,-0.9,-0.6,628.0
214.85,-128.031425715,0.620759125,98.5,-18.987665,-4.8563395,47.144211,-0.9,-0.55,628.5
214.9,-128.03131981,0.62085728,98.0,-19.078453,-4.877457,47.116806,-0.9,-0.5,629.0
214.95,-128.03120074,0.620968135,97.0,-19.158736,-4.915297499999999,47.0879745,-0.9,-0.5,629.5
215.0,-128.03108167,0.62107899,96.0,-19.239019,-4.953138,47.059143,-0.9,-0.5,630.0
215.05,-128.030979775,0.621174255,95.5,-19.2900095,-4.9922995,47.0322725,-0.95,-0.45,630.0
215.1,-128.03087788,0.62126952,95.0,-19.341,-5.031461,47.005402,-1.0,-0.4,630.0
215.15,-128.030753085,0.62138673,94.5,-19.3945255,-5.0837785,46.963097,-1.05,-0.4,630.5
215.2,-128.03062829,0.62150394,94.0,-19.448051,-5.136096,46.920792,-1.1,-0.4,631.0
215.25,-128.03052411,0.62160209,93.5,-19.4792535,-5.1716205,46.8828815,-1.1,-0.4,631.0
215.3,-128.03041993,0.62170024,93.0,-19.510456,-5.207145,46.844971,-1.1,-0.4,631.0
215.35,-128.03029914,0.62181456,92.5,-19.544917,-5.250864999999999,46.797577,-1.1,-0.4,631.5
215.4,-128.03017835,0.62192888,92.0,-19.579378,-5.294585,46.750183,-1.1,-0.4,632.0
215.45,-128.030075315,0.622027035,91.0,-19.6071405,-5.325041499999999,46.704963500000005,-1.1,-0.35,632.5
215.5,-128.02997228,0.62212519,90.0,-19.634903,-5.355498,46.659744,-1.1,-0.3,633.0
215.55,-128.0298721,0.62222103,89.5,-19.662344,-5.375827,46.599083,-1.1,-0.35,633.0
215.6,-128.02977192,0.62231687,89.0,-19.689785,-5.396156,46.538422,-1.1,-0.4,633.0
215.65,-128.029649995,0.622434075,88.5,-19.71928,-5.4135565,46.437859,-1.05,-0.4,633.5
215.7,-128.02952807,0.62255128,88.0,-19.748775,-5.430957,46.337296,-1.0,-0.4,634.0
215.75,-128.029423885,0.62265174,87.0,-19.7762935,-5.444330000000001,46.227669000000006,-1.0,-0.45,634.0
215.8,-128.0293197,0.6227522,86.0,-19.803812,-5.457703,46.118042,-1.0,-0.5,634.0
215.85,-128.029203495,0.6228642099999999,85.5,-19.8494635,-5.4774055,45.9862215,-0.95,-0.55,634.5
215.9,-128.02908729,0.62297622,85.0,-19.895115,-5.497108,45.854401,-0.9,-0.6,635.0
215.95,-128.02898597,0.62307437,84.5,-19.9547175,-5.5275105,45.730179,-0.9,-0.6499999999999999,635.5
216.0,-128.02888465,0.62317252,84.0,-20.01432,-5.557913,45.605957,-0.9,-0.7,636.0
216.05,-128.02876158,0.62329261,83.0,-20.119958500000003,-5.61714,45.443268,-0.9,-0.8,636.0
216.1,-128.02863851,0.6234127,82.0,-20.225597,-5.676367,45.280579,-0.9,-0.9,636.0
216.15,-128.02853891,0.62351085,81.5,-20.330699000000003,-5.7304605,45.1574555,-0.95,-0.95,636.5
216.2,-128.02843931,0.623609,81.0,-20.435801,-5.784554,45.034332,-1.0,-1.0,637.0
216.25,-128.028315095,0.623731395,80.5,-20.630095500000003,-5.8650445,44.892845,-1.0,-1.1,637.5
216.3,-128.02819088,0.62385379,80.0,-20.82439,-5.945535,44.751358,-1.0,-1.2,638.0
216.35,-128.02809357,0.623950785,79.0,-20.996451,-5.997265499999999,44.6739195,-1.0,-1.2,638.0
216.4,-128.02799626,0.62404778,78.0,-21.168512,-6.048996,44.596481,-1.0,-1.2,638.0
216.45,-128.02788692500002,0.6241569,77.5,-21.4017465,-6.095278,44.5348355,-1.05,-1.2,638.5
216.5,-128.02777759,0.62426602,77.0,-21.634981,-6.14156,44.47319,-1.1,-1.2,639.0
216.55,-128.0276654,0.6243786,76.0,-21.8707105,-6.158334,44.4345855,-1.1,-1.15,639.0
216.6,-128.02755321,0.62449118,75.0,-22.10644,-6.175108,44.395981,-1.1,-1.1,639.0
216.65,-128.027451895,0.624593945,74.5,-22.3237345,-6.159034,44.365166,-1.05,-1.05,639.5
216.7,-128.02735058,0.62469671,74.0,-22.541029,-6.14296,44.334351,-1.0,-1.0,640.0
216.75,-128.027228085,0.624821415,73.0,-22.78082,-6.09968,44.2974705,-0.95,-0.9,640.5
216.8,-128.02710559,0.62494612,72.0,-23.020611,-6.0564,44.26059,-0.9,-0.8,641.0
216.85,-128.02700256,0.62505177,71.5,-23.1667405,-6.027908,44.230164,-0.9,-0.75,641.0
216.9,-128.02689953,0.62515742,71.0,-23.31287,-5.999416,44.199738,-0.9,-0.7,641.0
216.95,-128.026784475,0.625275195,70.0,-23.417327,-5.975740500000001,44.1572115,-0.8500000000000001,-0.6499999999999999,641.5
217.0,-128.02666942,0.62539297,69.0,-23.521784,-5.952065,44.114685,-0.8,-0.6,642.0
217.05,-128.02656639,0.625499775,68.5,-23.530629,-5.9301885,44.0596235,-0.8,-0.55,642.5
217.1,-128.02646336,0.62560658,68.0,-23.539474,-5.908312,44.004562,-0.8,-0.5,643.0
217.15,-128.026351745,0.6257232,67.0,-23.4073085,-5.891372499999999,43.9267575,-0.8,-0.5,643.0
217.2,-128.02624013,0.62583982,66.0,-23.275143,-5.874433,43.848953,-0.8,-0.5,643.0
217.25,-128.02613481,0.62595009,65.0,-23.0019505,-5.8582715,43.7458875,-0.75,-0.5,643.5
217.3,-128.02602949,0.62606036,64.0,-22.728758,-5.84211,43.642822,-0.7,-0.5,644.0
217.35,-128.025917875,0.62617813,63.5,-22.284357,-5.81289,43.51416,-0.6499999999999999,-0.5,644.5
217.4,-128.02580626,0.6262959,63.0,-21.839956,-5.78367,43.385498,-0.6,-0.5,645.0
217.45,-128.02570208499998,0.62640617,62.0,-21.231217,-5.74052,43.2475965,-0.6,-0.55,645.0
217.5,-128.02559791,0.62651644,61.0,-20.622478,-5.69737,43.109695,-0.6,-0.6,645.0
217.55,-128.02548687,0.626634785,60.5,-19.883253,-5.559402,42.9376905,-0.4499999999999999,-0.6499999999999999,645.5
217.6,-128.02537583,0.62675313,60.0,-19.144028,-5.421434,42.765686,-0.3,-0.7,646.0
217.65,-128.02527279999998,0.6268634,59.0,-18.471167,-4.988148499999999,42.5324935,0.0,-0.7,646.5
217.7,-128.02516977,0.62697367,58.0,-17.798306,-4.554863,42.299301,0.3,-0.7,647.0
217.75,-128.025069605,0.627081625,57.5,-17.1656745,-3.8144055,42.01297,0.95,-0.7,647.0
217.8,-128.02496944,0.62718958,57.0,-16.533043,-3.073948,41.726639,1.6,-0.7,647.0
217.85,-128.02485268,0.62731716,56.0,-15.709931,-1.990027,41.388237,2.35,-0.7,647.5
217.9,-128.02473592,0.62744474,55.0,-14.886819,-0.906106,41.049835,3.1,-0.7,648.0
217.95,-128.02463747500002,0.62755385,54.5,-14.084376,0.2109820000000001,40.782341,3.7,-0.7,648.0
218.0,-128.02453903,0.62766296,54.0,-13.281933,1.32807,40.514847,4.3,-0.7,648.0
218.05,-128.024426275,0.62778881,53.5,-12.286345,2.6837165,40.248466500000006,5.199999999999999,-0.7,648.0
218.1,-128.02431352,0.62791466,53.0,-11.290757,4.039363,39.982086,6.1,-0.7,648.0
218.15,-128.02421393499998,0.628027805,53.0,-10.208943,5.298072,39.8091735,6.65,-0.7,648.0
218.2,-128.02411435,0.62814095,53.0,-9.127129,6.556781,39.636261,7.2,-0.7,648.0
218.25,-128.024007325,0.628263335,53.0,-7.801405499999999,8.022387,39.524948,7.800000000000001,-0.75,647.5
218.3,-128.0239003,0.62838572,53.0,-6.475682,9.487993,39.413635,8.4,-0.8,647.0
218.35,-128.023803575,0.628497135,53.5,-5.21026,10.9700505,39.391922,9.0,-0.8500000000000001,646.5
218.4,-128.02370685,0.62860855,54.0,-3.944838,12.452108,39.370209,9.6,-0.9,646.0
218.45,-128.02359525,0.62873959,54.5,-2.535623,14.185497000000002,39.4594195,10.2,-0.95,645.5
218.5,-128.02348365,0.62887063,55.0,-1.126408,15.918886,39.54863,10.8,-1.0,645.0
218.55,-128.02338807,0.6289826199999999,56.0,0.0067585000000001,17.434113500000002,39.722389500000006,11.2,-1.0,644.0
218.6,-128.02329249,0.62909461,57.0,1.139925,18.949341,39.896149,11.6,-1.0,643.0
218.65,-128.02318546499998,0.62922045,58.5,2.2813195000000004,20.773487,40.203545000000005,12.1,-0.95,642.0
218.7,-128.02307844,0.62934629,60.0,3.422714,22.597633,40.510941,12.6,-0.9,641.0
218.75,-128.02298401000002,0.62945655,61.5,4.1935590000000005,24.03127,40.8545075,12.95,-0.8500000000000001,640.0
218.8,-128.02288958,0.62956681,63.0,4.964404,25.464907,41.198074,13.3,-0.8,639.0
218.85,-128.02279915,0.629671875,64.5,5.736214,26.9106535,41.5855025,13.5,-0.75,637.5
218.9,-128.02270872,0.62977694,66.0,6.508024,28.3564,41.972931,13.7,-0.7,636.0
218.95,-128.02259998,0.629902785,69.0,7.347942,29.772219,42.475067,13.8,-0.6,634.5
219.0,-128.02249124,0.63002863,72.0,8.18786,31.188038,42.977203,13.9,-0.5,633.0
219.05,-128.02240081,0.63013081,74.5,8.892230000000001,32.2238105,43.4046705,13.8,-0.4,631.5
219.1,-128.02231038,0.63023299,77.0,9.5966,33.259583,43.832138,13.7,-0.3,630.0
219.15,-128.02220792999998,0.6303484500000001,81.0,10.419885,34.42034,44.3465195,13.5,-0.25,628.5
219.2,-128.02210548,0.63046391,85.0,11.24317,35.581097,44.860901,13.3,-0.2,627.0
219.25,-128.02201791,0.630560315,88.0,11.942193499999998,36.5663815,45.342972,13.25,-0.15,625.5
219.3,-128.02193034,0.63065672,91.0,12.641217,37.551666,45.825043,13.2,-0.1,624.0
219.35,-128.021830175,0.630765255,94.5,13.548285,38.8319375,46.447243,13.2,-0.05,622.5
219.4,-128.02173001,0.63087379,98.0,14.455353,40.112209,47.069443,13.2,-0.0,621.0
219.45,-128.021643005,0.6309650099999999,102.5,15.3121035,41.2954655,47.6667405,13.25,0.0,619.0
219.5,-128.021556,0.63105623,107.0,16.168854,42.478722,48.264038,13.3,-0.0,617.0
219.55,-128.0214627,0.631152065,111.5,17.134292000000002,43.7401905,48.990608,13.35,-0.05,615.5
219.6,-128.0213694,0.6312479,116.0,18.09973,45.001659,49.717178,13.4,-0.1,614.0
219.65,-128.02128583,0.63133162,120.0,19.0531,46.159336,50.437866,13.45,-0.1,612.5
219.7,-128.02120226,0.63141534,124.0,20.00647,47.317013,51.158554,13.5,-0.1,611.0
219.75,-128.021118685,0.63149617,129.0,21.0121585,48.444944500000005,51.9758605,13.6,-0.15,609.0
219.8,-128.02103511,0.631577,134.0,22.017847,49.572876,52.793167,13.7,-0.2,607.0
219.85,-128.02094409,0.631661875,139.5,23.212594,50.790373,53.810806,13.75,-0.2,605.0
219.9,-128.02085307,0.63174675,145.0,24.407341,52.00787,54.828445,13.8,-0.2,603.0
219.95,-128.02076376,0.631827015,150.5,25.6826975,53.1603225,55.976028,13.8,-0.25,601.0
220.0,-128.02067445,0.63190728,156.0,26.958054,54.312775,57.123611,13.8,-0.3,599.0
220.05,-128.020597165,0.631973685,162.0,28.2715305,55.3478015,58.263542,13.8,-0.3,597.0
220.1,-128.02051988,0.63204009,168.0,29.585007,56.382828,59.403473,13.8,-0.3,595.0
220.15,-128.020446025,0.6321001500000001,173.0,30.840294,57.253481,60.631157,13.8,-0.3,593.5
220.2,-128.02037217,0.63216021,178.0,32.095581,58.124134,61.858841,13.8,-0.3,592.0
220.25,-128.02028629,0.632226045,184.0,33.985042500000006,59.24329,63.555847,13.8,-0.3,589.5
220.3,-128.02020041,0.63229188,190.0,35.874504,60.362446,65.252853,13.8,-0.3,587.0
220.35,-128.0201317,0.63234155,196.5,37.5115835,61.178274,66.8627545,13.8,-0.3,585.0
220.4,-128.02006299,0.63239122,203.0,39.148663,61.994102,68.472656,13.8,-0.3,583.0
220.45,-128.01998283,0.6324455200000001,209.5,41.342644,62.903854,70.6910475,13.8,-0.3,581.0
220.5,-128.01990267,0.63249982,216.0,43.536625,63.813606,72.909439,13.8,-0.3,579.0
220.55,-128.019838535,0.63253968,221.5,45.722334,64.548473,74.949211,13.85,-0.3,577.0
220.6,-128.0197744,0.63257954,227.0,47.908043,65.28334,76.988983,13.9,-0.3,575.0
220.65,-128.019706825,0.6326176750000001,233.5,50.466051,65.97263699999999,79.5891725,13.95,-0.25,573.0
220.7,-128.01963925,0.63265581,240.0,53.024059,66.661934,82.189362,14.0,-0.2,571.0
220.75,-128.019567095,0.63269222,247.0,56.412336,67.346546,85.3911745,14.05,-0.2,568.5
220.8,-128.01949494,0.63272863,254.0,59.800613,68.031158,88.592987,14.1,-0.2,566.0
220.85,-128.01943595,0.63275522,261.0,62.8690985,68.4730415,91.6108705,14.2,-0.2,564.0
220.9,-128.01937696,0.63278181,268.0,65.937584,68.914925,94.628754,14.3,-0.2,562.0
220.95,-128.01930994499995,0.6328061,275.0,69.7606585,69.269707,98.4263,14.35,-0.2,559.5
221.0,-128.01924293,0.63283039,282.0,73.583733,69.624489,102.223846,14.4,-0.2,557.0
221.05,-128.01918966,0.63284659,288.0,76.7747005,69.77807250000001,105.5852965,14.45,-0.2,555.0
221.1,-128.01913639,0.63286279,294.0,79.965668,69.931656,108.946747,14.5,-0.2,553.0
221.15,-128.019072805,0.6328761199999999,301.0,84.42235199999999,69.9466745,113.1503755,14.6,-0.2,551.0
221.2,-128.01900922,0.63288945,308.0,88.879036,69.961693,117.354004,14.7,-0.2,549.0
221.25,-128.018957655,0.63289642,315.5,92.172848,69.8271865,120.76445,14.75,-0.25,546.5
221.3,-128.01890609,0.63290339,323.0,95.46666,69.69268,124.174896,14.8,-0.3,544.0
221.35,-128.018848795,0.632905175,330.0,99.143223,69.3829535,127.875427,14.8,-0.3,541.5
221.4,-128.0187915,0.63290696,337.0,102.819786,69.073227,131.575958,14.8,-0.3,539.0
221.45,-128.01874508999998,0.632903545,344.0,105.70113,68.69579300000001,134.3923185,14.75,-0.35,536.5
221.5,-128.01869868,0.63290013,351.0,108.582474,68.318359,137.208679,14.7,-0.4,534.0
221.55,-128.018647105,0.6328909549999999,358.5,111.487736,67.7880705,140.24827549999998,14.65,-0.4,532.0
221.6,-128.01859553,0.63288178,366.0,114.392998,67.257782,143.287872,14.6,-0.4,530.0
221.65,-128.01855426,0.63286913,371.5,116.784794,66.67554100000001,145.6930845,14.6,-0.4,528.0
221.7,-128.01851299,0.63285648,377.0,119.17659,66.0933,148.098297,14.6,-0.4,526.0
221.75,-128.01847286999998,0.63283979,384.0,121.327118,65.42715849999999,150.3774565,14.6,-0.4,523.5
221.8,-128.01843275,0.6328231,391.0,123.477646,64.761017,152.656616,14.6,-0.4,521.0
221.85,-128.01838974999998,0.6327983399999999,398.0,125.7087175,63.88356399999999,155.05249,14.65,-0.4,519.0
221.9,-128.01834675,0.63277358,405.0,127.939789,63.006111,157.448364,14.7,-0.4,517.0
221.95,-128.01831235,0.632748815,410.5,129.745781,62.1183355,159.286438,14.8,-0.4,515.0
222.0,-128.01827795,0.63272405,416.0,131.551773,61.23056,161.124512,14.9,-0.4,513.0
222.05,-128.0182401,0.6326889,424.5,133.3057555,60.177412,163.0489505,15.0,-0.4,510.5
222.1,-128.01820225,0.63265375,433.0,135.059738,59.124264,164.973389,15.1,-0.4,508.0
222.15,-128.01817185,0.6326197499999999,438.0,136.2595445,58.2620185,166.3817295,15.2,-0.35,506.0
222.2,-128.01814145,0.63258575,443.0,137.459351,57.399773,167.79007,15.3,-0.3,504.0
222.25,-128.01810932,0.63254252,450.0,138.7520145,56.295702000000006,169.192795,15.3,-0.3,502.0
222.3,-128.01807719,0.63249929,457.0,140.044678,55.191631,170.59552,15.3,-0.3,500.0
222.35,-128.01805194000002,0.632457785,463.5,140.959343,54.2809845,171.651535,15.3,-0.3,497.5
222.4,-128.01802669,0.63241628,470.0,141.874008,53.370338,172.70755,15.3,-0.3,495.0
222.45,-128.01799971,0.63236382,476.0,142.80285650000002,52.316761,173.80694599999998,15.25,-0.25,493.0
222.5,-128.01797273,0.63231136,482.0,143.731705,51.263184,174.906342,15.2,-0.2,491.0
222.55,-128.01795206,0.63226293,487.0,144.46185300000002,50.328289,175.7861635,15.2,-0.2,489.5
222.6,-128.01793139,0.6322145,492.0,145.192001,49.393394,176.665985,15.2,-0.2,488.0
222.65,-128.01790955500002,0.63215338,499.5,146.005119,48.2204185,177.639908,15.2,-0.2,485.5
222.7,-128.01788772,0.63209226,507.0,146.818237,47.047443,178.613831,15.2,-0.2,483.0
222.75,-128.01787105,0.632035175,511.5,147.4367445,46.0702015,-0.5771515000000136,15.2,-0.2,481.0
222.8,-128.01785438,0.63197809,516.0,148.055252,45.09296,-179.768134,15.2,-0.2,479.0
222.85,-128.01784057499998,0.631920425,522.0,148.68833899999998,44.0128,-179.03686950000002,15.25,-0.25,477.5
222.9,-128.01782677,0.63186276,528.0,149.321426,42.93264,-178.305605,15.3,-0.3,476.0
222.95,-128.017812375,0.6317900949999999,533.5,149.9316555,41.747465,-177.5089855,15.35,-0.3,474.0
223.0,-128.01779798,0.63171743,539.0,150.541885,40.56229,-176.712366,15.4,-0.3,472.0
223.05,-128.01778818000005,0.631655725,543.0,150.980972,39.615297,-176.1216395,15.4,-0.3,470.5
223.1,-128.01777838,0.63159402,547.0,151.420059,38.668304,-175.530913,15.4,-0.3,469.0
223.15,-128.017769135,0.63151443,552.5,151.914383,37.4876345,-174.8969865,15.35,-0.3,467.0
223.2,-128.01775989,0.63143484,558.0,152.408707,36.306965,-174.26306,15.3,-0.3,465.0
223.25,-128.017754095,0.631364475,563.0,152.780907,35.287802,-173.7183645,15.25,-0.35,463.0
223.3,-128.0177483,0.63129411,568.0,153.153107,34.268639,-173.173669,15.2,-0.4,461.0
223.35,-128.017744205,0.63120875,572.5,153.549332,33.0298255,-172.596469,15.2,-0.35,459.5
223.4,-128.01774011,0.63112339,577.0,153.945557,31.791012,-172.019269,15.2,-0.3,458.0
223.45,-128.01773832,0.631048985,581.5,154.26147500000002,30.710045,-171.5531565,15.25,-0.3,456.5
223.5,-128.01773653,0.63097458,586.0,154.577393,29.629078,-171.087044,15.3,-0.3,455.0
223.55,-128.01773702,0.630885755,590.5,154.9088975,28.394554,-170.560608,15.3,-0.3,453.5
223.6,-128.01773751,0.63079693,595.0,155.240402,27.16003,-170.034172,15.3,-0.3,452.0
223.65,-128.017740295,0.630716175,598.5,155.5159375,26.0049265,-169.604066,15.35,-0.3,450.5
223.7,-128.01774308,0.63063542,602.0,155.791473,24.849823,-169.17396,15.4,-0.3,449.0
223.75,-128.017747015,0.63055697,606.0,156.02536750000002,23.814294,-168.79114149999998,15.4,-0.3,447.5
223.8,-128.01775095,0.63047852,610.0,156.259262,22.778765,-168.408323,15.4,-0.3,446.0
223.85,-128.01775773499998,0.6303839200000001,613.5,156.514755,21.591939,-167.987441,15.4,-0.3,444.5
223.9,-128.01776452,0.63028932,617.0,156.770248,20.405113,-167.566559,15.4,-0.3,443.0
223.95,-128.01777246,0.6302039500000001,620.0,156.9824215,19.3304355,-167.23245250000002,15.35,-0.3,442.0
224.0,-128.0177804,0.63011858,623.0,157.194595,18.255758,-166.898346,15.3,-0.3,441.0
224.05,-128.017791195,0.630021665,626.0,157.386978,17.154144000000002,-166.537054,15.2,-0.25,440.0
224.1,-128.01780199,0.62992475,629.0,157.579361,16.05253,-166.175762,15.1,-0.2,439.0
224.15,-128.017813365,0.62983707,632.0,157.732216,15.0715045,-165.8569185,15.0,-0.2,438.0
224.2,-128.01782474,0.62974939,635.0,157.885071,14.090479,-165.538075,14.9,-0.2,437.0
224.25,-128.01783954,0.62964786,638.0,158.046219,12.8574915,-165.1631325,14.85,-0.2,435.5
224.3,-128.01785434,0.62954633,641.0,158.207367,11.624504,-164.78819,14.8,-0.2,434.0
224.35,-128.01786858000003,0.62945922,643.5,158.32806399999998,10.514985,-164.4570255,14.8,-0.2,433.0
224.4,-128.01788282,0.62937211,646.0,158.448761,9.405466,-164.125861,14.8,-0.2,432.0
224.45,-128.017900485,0.62926942,648.5,158.57257099999998,8.141111,-163.73857249999998,14.85,-0.2,431.5
224.5,-128.01791815,0.62916673,651.0,158.696381,6.876756,-163.351284,14.9,-0.2,431.0
224.55,-128.017934685,0.62908135,652.5,158.7869645,5.837023500000001,-163.02810499999998,14.95,-0.2,430.0
224.6,-128.01795122,0.62899597,654.0,158.877548,4.797291,-162.704926,15.0,-0.2,429.0
224.65,-128.0179746,0.628883475,656.0,158.985359,3.3337200000000005,-162.29613899999998,15.1,-0.2,428.5
224.7,-128.01799798,0.62877098,658.0,159.09317,1.870149,-161.887352,15.2,-0.2,428.0
224.75,-128.01801852,0.62867867,659.5,159.160034,0.8009225,-161.5573855,15.25,-0.2,427.0
224.8,-128.01803906,0.62858636,661.0,159.226898,-0.268304,-161.227419,15.3,-0.2,426.0
224.85,-128.01806417,0.62848136,662.5,159.295387,-1.5678785,-160.8668635,15.3,-0.2,425.5
224.9,-128.01808928,0.62837636,664.0,159.363876,-2.867453,-160.506308,15.3,-0.2,425.0
224.95,-128.018113255,0.6282805899999999,665.0,159.413635,-4.0076205,-160.190937,15.3,-0.2,424.5
225.0,-128.01813723,0.62818482,666.0,159.463394,-5.147788,-159.875566,15.3,-0.2,424.0
225.05,-128.018161205,0.62809366,666.5,159.49926,-6.183907,-159.5782375,15.3,-0.2,423.5
225.1,-128.01818518,0.6280025,667.0,159.535126,-7.220026,-159.280909,15.3,-0.2,423.0
225.15,-128.01821487,0.627894615,667.5,159.5642245,-8.486988,-158.9316315,15.25,-0.2,422.5
225.2,-128.01824456,0.62778673,668.0,159.593323,-9.75395,-158.582354,15.2,-0.2,422.0
225.25,-128.01827083,0.62769499,668.5,159.5996095,-10.7751275,-158.287056,15.15,-0.2,421.5
225.3,-128.0182971,0.62760325,669.0,159.605896,-11.796305,-157.991758,15.1,-0.2,421.0
225.35,-128.018329085,0.627498245,669.0,159.574791,-12.968401,-157.6529805,15.05,-0.2,421.0
225.4,-128.01836107,0.62739324,669.0,159.543686,-14.140497,-157.314203,15.0,-0.2,421.0
225.45,-128.01838906,0.627303235,669.0,159.4668885,-15.124872,-157.033433,14.9,-0.2,421.0
225.5,-128.01841705,0.62721323,669.0,159.390091,-16.109247,-156.752663,14.8,-0.2,421.0
225.55,-128.01845133,0.62710937,668.5,159.20813750000002,-17.226504,-156.4035465,14.7,-0.2,420.5
225.6,-128.01848561,0.62700551,668.0,159.026184,-18.343761,-156.05443,14.6,-0.2,420.0
225.65,-128.01851589,0.626916655,667.5,158.7529145,-19.2280995,-155.7503845,14.45,-0.15,420.0
225.7,-128.01854617,0.6268278,667.0,158.479645,-20.112438,-155.446339,14.3,-0.1,420.0
225.75,-128.018583885,0.62672048,666.0,157.9192965,-21.259527,-155.000068,14.15,-0.05,420.5
225.8,-128.0186216,0.62661316,665.0,157.358948,-22.406616,-154.553797,14.0,-0.0,421.0
225.85,-128.018654175,0.6265248800000001,664.0,156.7281345,-23.335082,-154.137518,13.9,0.05,421.0
225.9,-128.01868675,0.6264366,663.0,156.097321,-24.263548,-153.721239,13.8,0.1,421.0
225.95,-128.018725045,0.6263362,661.5,155.1698685,-25.341883,-153.1610805,13.75,0.15,421.0
226.0,-128.01876334,0.6262358,660.0,154.242416,-26.420218,-152.600922,13.7,0.2,421.0
226.05,-128.018797635,0.626148675,659.0,153.2388075,-27.385445,-152.039282,13.7,0.25,421.5
226.1,-128.01883193,0.62606155,658.0,152.235199,-28.350672,-151.477642,13.7,0.3,422.0
226.15,-128.018867945,0.62597557,656.0,151.12905899999998,-29.228351,-150.86226,13.65,0.35,422.5
226.2,-128.01890396,0.62588959,654.0,150.022919,-30.10603,-150.246878,13.6,0.4,423.0
226.25,-128.01894455,0.62579438,652.0,148.6239855,-31.003137,-149.5051585,13.5,0.45,423.5
226.3,-128.01898514,0.62569917,650.0,147.225052,-31.900244,-148.763439,13.4,0.5,424.0
226.35,-128.01902344500002,0.62561377,648.0,145.688286,-32.696597,-148.04220750000002,13.25,0.55,424.5
