Time,Longitude,Latitude,Altitude,Roll,Pitch,Yaw,AOA,AOS,TAS
126.4,-128.09686369,0.56598102,166.0,-49.071068,18.999672,-129.352264,11.5,0.5,563.0
126.45,-128.09698794,0.56590305,168.0,-50.124256,19.5602075,-130.5053535,11.55,0.5,562.0
126.5,-128.09711219,0.56582508,170.0,-51.177444,20.120743,-131.658443,11.6,0.5,561.0
126.55,-128.09721295999998,0.56575809,171.0,-52.078722,20.5593855,-132.66056600000002,11.65,0.5,560.5
126.6,-128.09731373,0.5656911,172.0,-52.98,20.998028,-133.662689,11.7,0.5,560.0
126.65,-128.097427665,0.56560968,174.0,-54.0944695,21.4795495,-134.85587700000002,11.8,0.5,559.0
126.7,-128.0975416,0.56552826,176.0,-55.208939,21.961071,-136.049065,11.9,0.5,558.0
126.75,-128.097636635,0.5654560900000001,178.0,-56.1939755,22.331441,-137.08860600000003,11.95,0.5,557.0
126.8,-128.09773167,0.56538392,180.0,-57.179012,22.701811,-138.128147,12.0,0.5,556.0
126.85,-128.09784216,0.56529385,182.5,-58.368925,23.083827,-139.39917350000002,12.0,0.55,555.0
126.9,-128.09795265,0.56520378,185.0,-59.558838,23.465843,-140.6702,12.0,0.6,554.0
126.95,-128.098041955,0.56512527,187.0,-60.6551705,23.7586505,-141.749748,12.05,0.6,553.5
127.0,-128.09813126,0.56504676,189.0,-61.751503,24.051458,-142.829296,12.1,0.6,553.0
127.05,-128.09823086,0.5649532399999999,191.5,-63.037632,24.3349645,-144.1171895,12.1,0.6,552.0
127.1,-128.09833046,0.56485972,194.0,-64.323761,24.618471,-145.405083,12.1,0.6,551.0
127.15,-128.098411735,0.5647771749999999,196.5,-65.35157000000001,24.8059385,-146.52022399999998,12.15,0.6,550.0
127.2,-128.09849301,0.56469463,199.0,-66.379379,24.993406,-147.635365,12.2,0.6,549.0
127.25,-128.098586875,0.564593045,201.5,-67.6566045,25.182204,-149.009927,12.2,0.6,548.0
127.3,-128.09868074,0.56449146,204.0,-68.93383,25.371002,-150.384489,12.2,0.6,547.0
127.35,-128.09875513999998,0.5644031549999999,206.5,-69.9847295,25.4931125,-151.5539005,12.25,0.6,546.0
127.4,-128.09882954,0.56431485,209.0,-71.035629,25.615223,-152.723312,12.3,0.6,545.0
127.45,-128.098911945,0.564209815,212.0,-72.096893,25.717783,-154.0893525,12.3,0.6,543.5
127.5,-128.09899435,0.56410478,215.0,-73.158157,25.820343,-155.455393,12.3,0.6,542.0
127.55,-128.09906187,0.56401187,217.5,-73.9424515,25.8879955,-156.6536525,12.35,0.6,541.5
127.6,-128.09912939,0.56391896,220.0,-74.726746,25.955648,-157.851912,12.4,0.6,541.0
127.65,-128.099203765,0.563805855,223.5,-75.5059815,26.016199,-159.25719850000002,12.4,0.5,539.5
127.7,-128.09927814,0.56369275,227.0,-76.285217,26.07675,-160.662485,12.4,0.4,538.0
127.75,-128.09933648999998,0.56359581,229.0,-76.83634950000001,26.109997,-161.8470775,12.45,0.4,537.0
127.8,-128.09939484,0.56349887,231.0,-77.387482,26.143244,-163.03167,12.5,0.4,536.0
127.85,-128.09945089500002,0.56339732,234.0,-77.96384850000001,26.165192,-164.2421555,12.5,0.35,535.0
127.9,-128.09950695,0.56329577,237.0,-78.540215,26.18714,-165.452641,12.5,0.3,534.0
127.95,-128.09956413999998,0.563180375,240.0,-79.0959475,26.1931375,-166.7585445,12.5,0.25,533.0
128.0,-128.09962133,0.56306498,243.0,-79.65168,26.199135,-168.064448,12.5,0.2,532.0
128.05,-128.09966707,0.5629628600000001,245.5,-80.130394,26.195876,-169.1759025,12.45,0.15,531.0
128.1,-128.09971281,0.56286074,248.0,-80.609108,26.192617,-170.287357,12.4,0.1,530.0
128.15,-128.099760255,0.562741315,252.0,-81.1522635,26.182638,-171.5882825,12.35,0.1,529.0
128.2,-128.0998077,0.56262189,256.0,-81.695419,26.172659,-172.889208,12.3,0.1,528.0
128.25,-128.099843705,0.562518625,258.0,-82.1296995,26.158167,-174.0233595,12.3,0.1,527.0
128.3,-128.09987971,0.56241536,260.0,-82.56398,26.143675,-175.157511,12.3,0.1,526.0
128.35,-128.099910555,0.56231441,262.5,-83.0298995,26.1197235,-176.277036,12.35,0.1,525.0
128.4,-128.0999414,0.56221346,265.0,-83.495819,26.095772,-177.396561,12.4,0.1,524.0
128.45,-128.09997395,0.56208886,269.0,-84.0532875,26.051572,1.2648390000000234,12.4,0.1,523.0
128.5,-128.1000065,0.56196426,273.0,-84.610756,26.007372,179.926239,12.4,0.1,522.0
128.55,-128.100030465,0.5618558149999999,275.5,-85.066246,25.9563095,178.751129,12.4,0.15,521.0
128.6,-128.10005443,0.56174737,278.0,-85.521736,25.905247,177.576019,12.4,0.2,520.0
128.65,-128.10007552000002,0.56162739,281.0,-85.9951935,25.835194,176.2912445,12.45,0.2,519.0
128.7,-128.10009661,0.56150741,284.0,-86.468651,25.765141,175.00647,12.5,0.2,518.0
128.75,-128.10011027000002,0.561403015,287.0,-86.822628,25.696789000000003,173.8953095,12.5,0.2,517.0
128.8,-128.10012393,0.56129862,290.0,-87.176605,25.628437,172.784149,12.5,0.2,516.0
128.85,-128.10013528000002,0.561175765,293.0,-87.5348205,25.5396785,171.4762725,12.5,0.2,514.5
128.9,-128.10014663,0.56105291,296.0,-87.893036,25.45092,170.168396,12.5,0.2,513.0
128.95,-128.10015169500002,0.560943905,298.5,-88.160057,25.3628455,169.00865149999998,12.55,0.2,512.5
129.0,-128.10015676,0.5608349,301.0,-88.427078,25.274771,167.848907,12.6,0.2,512.0
129.05,-128.1001578,0.560713215,304.5,-88.6611935,25.167721,166.56192,12.6,0.2,510.5
129.1,-128.10015884,0.56059153,308.0,-88.895309,25.060671,165.274933,12.6,0.2,509.0
129.15,-128.10015531,0.5604836849999999,310.5,-89.033508,24.9751895,164.109207,12.65,0.2,508.0
129.2,-128.10015178,0.56037584,313.0,-89.171707,24.889708,162.943481,12.7,0.2,507.0
129.25,-128.100141935,0.56025416,316.0,-89.3064115,24.7771105,161.6087185,12.75,0.15,506.0
129.3,-128.10013209,0.56013248,319.0,-89.441116,24.664513,160.273956,12.8,0.1,505.0
129.35,-128.10011996499998,0.5600258,322.0,-89.530571,24.5686745,159.096405,12.85,0.1,504.0
129.4,-128.10010784,0.55991912,325.0,-89.620026,24.472836,157.918854,12.9,0.1,503.0
129.45,-128.100091135,0.559815325,327.0,-89.6934205,24.3764205,156.770737,12.9,0.1,502.0
129.5,-128.10007443,0.55971153,329.0,-89.766815,24.280005,155.62262,12.9,0.1,501.0
129.55,-128.100050265,0.559592745,332.0,-89.82128499999999,24.169614,154.3108065,12.95,0.05,500.0
129.6,-128.1000261,0.55947396,335.0,-89.875755,24.059223,152.998993,13.0,0.0,499.0
129.65,-128.10000138,0.5593719,338.0,-89.8938675,23.976636,151.867737,13.0,0.0,498.0
129.7,-128.09997666,0.55926984,341.0,-89.91198,23.894049,150.736481,13.0,0.0,497.0
129.75,-128.09994276,0.55915453,343.5,-89.930859,23.7943785,149.4514925,13.05,0.0,496.0
129.8,-128.09990886,0.55903922,346.0,-89.949738,23.694708,148.166504,13.1,0.0,495.0
129.85,-128.09987612,0.558941205,349.0,-89.9867975,23.6073925,147.076523,13.1,0.0,494.0
129.9,-128.09984338,0.55884319,352.0,-90.023857,23.520077,145.986542,13.1,0.0,493.0
129.95,-128.09980089,0.558732495,354.5,-90.0948105,23.420771,144.726654,13.1,0.0,492.0
130.0,-128.0997584,0.5586218,357.0,-90.165764,23.321465,143.466766,13.1,0.0,491.0
130.05,-128.099717645,0.5585266799999999,359.5,-90.245735,23.231953,142.3700865,13.1,0.05,490.0
130.1,-128.09967689,0.55843156,362.0,-90.325706,23.142441,141.273407,13.1,0.1,489.0
130.15,-128.09962523500002,0.558323755,364.5,-90.422245,23.032832,140.002243,13.1,0.1,488.0
130.2,-128.09957358,0.55821595,367.0,-90.518784,22.923223,138.731079,13.1,0.1,487.0
130.25,-128.099525955,0.558126025,370.0,-90.604355,22.828238,137.6587675,13.15,0.1,486.0
130.3,-128.09947833,0.5580361,373.0,-90.689926,22.733253,136.586456,13.2,0.1,485.0
130.35,-128.09941866000003,0.557933495,375.5,-90.8202245,22.6076265,135.333038,13.2,0.15,484.5
130.4,-128.09935899,0.55783089,378.0,-90.950523,22.482,134.07962,13.2,0.2,484.0
130.45,-128.099306215,0.5577478899999999,380.0,-91.0733185,22.367871,133.045715,13.2,0.2,483.0
130.5,-128.09925344,0.55766489,382.0,-91.196114,22.253742,132.01181,13.2,0.2,482.0
130.55,-128.099186325,0.5575680599999999,385.0,-91.333462,22.1074935,130.78071599999998,13.2,0.25,481.0
130.6,-128.09911921,0.55747123,388.0,-91.47081,21.961245,129.549622,13.2,0.3,480.0
130.65,-128.09905727,0.55739054,390.0,-91.5766105,21.8339085,128.49916100000002,13.2,0.3,479.0
130.7,-128.09899533,0.55730985,392.0,-91.682411,21.706572,127.4487,13.2,0.3,478.0
130.75,-128.09892192,0.55721937,394.5,-91.8334425,21.539443,126.2540895,13.2,0.3,477.0
130.8,-128.09884851,0.55712889,397.0,-91.984474,21.372314,125.059479,13.2,0.3,476.0
130.85,-128.09878142000002,0.557053975,399.5,-92.141903,21.2124195,124.0331725,13.2,0.3,475.5
130.9,-128.09871433,0.55697906,402.0,-92.299332,21.052525,123.006866,13.2,0.3,475.0
130.95,-128.09863348,0.55689493,404.5,-92.4753535,20.860367,121.8174435,13.2,0.3,474.0
131.0,-128.09855263,0.5568108,407.0,-92.651375,20.668209,120.628021,13.2,0.3,473.0
131.05,-128.09848096000002,0.556741655,409.0,-92.795906,20.484168,119.6259,13.2,0.35,472.0
131.1,-128.09840929,0.55667251,411.0,-92.940437,20.300127,118.623779,13.2,0.4,471.0
131.15,-128.098333035,0.556604525,413.0,-93.0621185,20.1168195,117.5894775,13.15,0.4,470.5
131.2,-128.09825678,0.55653654,415.0,-93.1838,19.933512,116.555176,13.1,0.4,470.0
131.25,-128.09816448,0.55646049,417.5,-93.3021355,19.6998475,115.361328,13.1,0.4,469.0
131.3,-128.09807218,0.55638444,420.0,-93.420471,19.466183,114.16748,13.1,0.4,468.0
131.35,-128.09799307,0.556323955,422.0,-93.496147,19.2702495,113.1801145,13.1,0.35,467.0
131.4,-128.09791396,0.55626347,424.0,-93.571823,19.074316,112.192749,13.1,0.3,466.0
131.45,-128.09783084,0.556205295,426.0,-93.633911,18.8711175,111.1960905,13.1,0.3,465.5
131.5,-128.09774772,0.55614712,428.0,-93.695999,18.667919,110.199432,13.1,0.3,465.0
131.55,-128.097651995,0.55608434,430.0,-93.7295225,18.431593,109.072998,13.1,0.3,464.0
131.6,-128.09755627,0.55602156,432.0,-93.763046,18.195267,107.946564,13.1,0.3,463.0
131.65,-128.09747144,0.5559708800000001,434.0,-93.778549,18.008068,106.990509,13.05,0.3,462.5
131.7,-128.09738661,0.5559202,436.0,-93.794052,17.820869,106.034454,13.0,0.3,462.0
131.75,-128.097284015,0.555863775,438.0,-93.818264,17.590894499999997,104.9288175,13.0,0.3,461.0
131.8,-128.09718142,0.55580735,440.0,-93.842476,17.36092,103.823181,13.0,0.3,460.0
131.85,-128.09709143499998,0.5557624400000001,442.0,-93.8819235,17.141289,102.896362,12.95,0.3,459.5
131.9,-128.09700145,0.55571753,444.0,-93.921371,16.921658,101.969543,12.9,0.3,459.0
131.95,-128.096895425,0.55566918,446.0,-94.008869,16.682032,100.9256435,12.85,0.3,458.0
132.0,-128.0967894,0.55562083,448.0,-94.096367,16.442406,99.881744,12.8,0.3,457.0
132.05,-128.09669713,0.555582845,449.5,-94.190304,16.223512999999997,99.004364,12.7,0.3,456.5
132.1,-128.09660486,0.55554486,451.0,-94.284241,16.00462,98.126984,12.6,0.3,456.0
132.15,-128.096500565,0.55550631,453.0,-94.37896,15.7684555,97.1860965,12.55,0.3,455.5
132.2,-128.09639627,0.55546776,455.0,-94.473679,15.532291,96.245209,12.5,0.3,455.0
132.25,-128.096299995,0.555436125,456.5,-94.5662995,15.305112,95.345932,12.45,0.35,454.5
132.3,-128.09620372,0.55540449,458.0,-94.65892,15.077933,94.446655,12.4,0.4,454.0
132.35,-128.09609255,0.5553717149999999,459.5,-94.757309,14.811572,93.4444275,12.35,0.4,453.5
132.4,-128.09598138,0.55533894,461.0,-94.855698,14.545211,92.4422,12.3,0.4,453.0
132.45,-128.095889125,0.5553153749999999,462.5,-94.9279255,14.316279,91.6110535,12.25,0.4,452.5
132.5,-128.09579687,0.55529181,464.0,-95.000153,14.087347,90.779907,12.2,0.4,452.0
132.55,-128.0956817,0.555266535,466.0,-95.097527,13.804204,89.7973935,12.15,0.4,451.0
132.6,-128.09556653,0.55524126,468.0,-95.194901,13.521061,88.81488,12.1,0.4,450.0
132.65,-128.09546912000002,0.555223465,469.0,-95.28471,13.277569499999998,87.98603800000001,12.05,0.4,449.5
132.7,-128.09537171,0.55520567,470.0,-95.374519,13.034078,87.157196,12.0,0.4,449.0
132.75,-128.095274305,0.55519076,471.5,-95.450111,12.7853365,86.36631750000001,11.95,0.45,448.5
132.8,-128.0951769,0.55517585,473.0,-95.525703,12.536595,85.575439,11.9,0.5,448.0
132.85,-128.095060595,0.5551621099999999,474.5,-95.585693,12.2449835,84.642349,11.8,0.5,447.5
132.9,-128.09494429,0.55514837,476.0,-95.645683,11.953372,83.709259,11.7,0.5,447.0
132.95,-128.094847465,0.55514038,477.0,-95.6892395,11.6831885,82.9366455,11.7,0.45,447.0
133.0,-128.09475064,0.55513239,478.0,-95.732796,11.413005,82.164032,11.7,0.4,447.0
133.05,-128.094637775,0.555126145,479.5,-95.77742,11.1057985,81.2649385,11.6,0.4,446.5
133.1,-128.09452491,0.5551199,481.0,-95.822044,10.798592,80.365845,11.5,0.4,446.0
133.15,-128.09442408,0.55511768,482.5,-95.8447685,10.5299175,79.5760195,11.5,0.4,445.5
133.2,-128.09432325,0.55511546,484.0,-95.867493,10.261243,78.786194,11.5,0.4,445.0
133.25,-128.094223565,0.55511612,485.0,-95.8837055,9.9847465,77.99842849999999,11.45,0.4,444.5
133.3,-128.09412388,0.55511678,486.0,-95.899918,9.70825,77.210663,11.4,0.4,444.0
133.35,-128.09400816,0.555121495,487.0,-95.919922,9.387453,76.3052065,11.35,0.35,444.0
133.4,-128.09389244,0.55512621,488.0,-95.939926,9.066656,75.39975,11.3,0.3,444.0
133.45,-128.09379906499998,0.555132635,489.0,-95.951626,8.814658,74.6867755,11.3,0.3,443.5
133.5,-128.09370569,0.55513906,490.0,-95.963326,8.56266,73.973801,11.3,0.3,443.0
133.55,-128.093589975,0.555150695,491.0,-95.967274,8.207753,73.031357,11.25,0.3,442.5
133.6,-128.09347426,0.55516233,492.0,-95.971222,7.852846,72.088913,11.2,0.3,442.0
133.65,-128.093372295,0.555175685,493.0,-95.9724615,7.588176000000001,71.27853400000001,11.2,0.3,442.0
133.7,-128.09327033,0.55518904,494.0,-95.973701,7.323506,70.468155,11.2,0.3,442.0
133.75,-128.09315634,0.5552075949999999,494.5,-95.970634,6.989228000000001,69.54959099999999,11.2,0.3,441.5
133.8,-128.09304235,0.55522615,495.0,-95.967567,6.65495,68.631027,11.2,0.3,441.0
133.85,-128.092950705,0.55524353,496.0,-95.9585225,6.407083,67.9148405,11.2,0.3,441.0
133.9,-128.09285906,0.55526091,497.0,-95.949478,6.159216,67.198654,11.2,0.3,441.0
133.95,-128.09274507499998,0.555286385,497.5,-95.930107,5.8303625,66.254753,11.2,0.3,440.5
134.0,-128.09263109,0.55531186,498.0,-95.910736,5.501509,65.310852,11.2,0.3,440.0
134.05,-128.092534865,0.555336745,498.5,-95.885563,5.235613000000001,64.5791625,11.15,0.3,440.0
134.1,-128.09243864,0.55536163,499.0,-95.86039,4.969717,63.847473,11.1,0.3,440.0
134.15,-128.09232867,0.55539287,500.0,-95.8342095,4.668599,63.089607,11.0,0.3,440.0
134.2,-128.0922187,0.55542411,501.0,-95.808029,4.367481,62.331741,10.9,0.3,440.0
134.25,-128.0921242,0.555454755,501.5,-95.8238755,4.118649,61.7224195,10.75,0.3,439.5
134.3,-128.0920297,0.5554854,502.0,-95.839722,3.869817,61.113098,10.6,0.3,439.0
134.35,-128.091919735,0.55552356,502.5,-95.9304275,3.5551185,60.4454575,10.4,0.35,439.0
134.4,-128.09180977,0.55556172,503.0,-96.021133,3.24042,59.777817,10.2,0.4,439.0
134.45,-128.091726155,0.55559409,503.0,-96.0971755,3.0309885,59.317055,10.0,0.4,439.0
134.5,-128.09164254,0.55562646,503.0,-96.173218,2.821557,58.856293,9.8,0.4,439.0
134.55,-128.091534875,0.555670385,503.5,-96.2957385,2.502218,58.2628555,9.6,0.4,439.0
134.6,-128.09142721,0.55571431,504.0,-96.418259,2.182879,57.669418,9.4,0.4,439.0
134.65,-128.09133329000002,0.555755915,504.0,-96.515007,1.9140035,57.1347275,9.2,0.45,439.0
134.7,-128.09123937,0.55579752,504.0,-96.611755,1.645128,56.600037,9.0,0.5,439.0
134.75,-128.09113343,0.5558477900000001,504.5,-96.6914555,1.3320975,56.011574,8.85,0.5,439.0
134.8,-128.09102749,0.55589806,505.0,-96.771156,1.019067,55.423111,8.7,0.5,439.0
134.85,-128.090942165,0.55594139,505.0,-96.8012695,0.757709,54.9178925,8.6,0.5,439.0
134.9,-128.09085684,0.55598472,505.0,-96.831383,0.496351,54.412674,8.5,0.5,439.0
134.95,-128.09076464499998,0.5560332450000001,505.0,-96.8106385,0.2030675,53.828903,8.4,0.5,439.0
135.0,-128.09067245,0.55608177,505.0,-96.789894,-0.090216,53.245132,8.3,0.5,439.0
135.05,-128.0905711,0.556138955,505.0,-96.713215,-0.4185165,52.591522,8.25,0.5,439.5
135.1,-128.09046975,0.55619614,505.0,-96.636536,-0.746817,51.937912,8.2,0.5,440.0
135.15,-128.09038844000003,0.556244655,505.0,-96.5459175,-0.986424,51.4176405,8.149999999999999,0.5,440.0
135.2,-128.09030713,0.55629317,505.0,-96.455299,-1.226031,50.897369,8.1,0.5,440.0
135.25,-128.09020177000002,0.55635843,505.0,-96.241642,-1.5689525,50.1812665,8.05,0.45,440.0
135.3,-128.09009641,0.55642369,505.0,-96.027985,-1.911874,49.465164,8.0,0.4,440.0
135.35,-128.09001625000002,0.556476245,505.0,-95.777035,-2.15166,48.947296,7.95,0.4,440.5
135.4,-128.08993609,0.5565288,505.0,-95.526085,-2.391446,48.429428,7.9,0.4,441.0
135.45,-128.0898525,0.556586545,504.5,-95.1743965,-2.6306855,47.8834,7.85,0.35,441.0
135.5,-128.08976891,0.55664429,504.0,-94.822708,-2.869925,47.337372,7.8,0.3,441.0
135.55,-128.089673865,0.556713005,503.5,-94.258072,-3.1672635,46.698883,7.75,0.25,441.5
135.6,-128.08957882,0.55678172,503.0,-93.693436,-3.464602,46.060394,7.7,0.2,442.0
135.65,-128.08950382,0.5568383050000001,503.0,-93.268864,-3.6478775,45.60688,7.6,0.2,442.0
135.7,-128.08942882,0.55689489,503.0,-92.844292,-3.831153,45.153366,7.5,0.2,442.0
135.75,-128.089332065,0.5569710999999999,502.5,-92.1567345,-4.0708635,44.57843,7.35,0.15,442.5
135.8,-128.08923531,0.55704731,502.0,-91.469177,-4.310574,44.003494,7.2,0.1,443.0
135.85,-128.089157455,0.55711197,501.5,-90.8047635,-4.4976415,43.58419000000001,7.1,0.05,443.0
135.9,-128.0890796,0.55717663,501.0,-90.14035,-4.684709,43.164886,7.0,0.0,443.0
135.95,-128.08899602,0.557248795,500.5,-89.407505,-4.860253,42.740074,6.8,0.0,443.5
136.0,-128.08891244,0.55732096,500.0,-88.67466,-5.035797,42.315262,6.6,-0.0,444.0
136.05,-128.088835155,0.557390235,499.5,-87.945839,-5.187474,41.899231,6.449999999999999,-0.05,444.0
136.1,-128.08875787,0.55745951,499.0,-87.217018,-5.339151,41.4832,6.3,-0.1,444.0
136.15,-128.08867314999998,0.55753802,498.5,-86.37436299999999,-5.4902945,41.0385435,6.199999999999999,-0.1,444.5
136.2,-128.08858843,0.55761653,498.0,-85.531708,-5.641438,40.593887,6.1,-0.1,445.0
136.25,-128.08851630499998,0.55768638,497.0,-84.7980425,-5.7519985,40.203460500000006,5.949999999999999,-0.1,445.5
136.3,-128.08844418,0.55775623,496.0,-84.064377,-5.862559,39.813034,5.8,-0.1,446.0
136.35,-128.088362325,0.55783877,495.5,-83.1590615,-5.9760175,39.3807525,5.699999999999999,-0.1,446.5
136.4,-128.08828047,0.55792131,495.0,-82.253746,-6.089476,38.948471,5.6,-0.1,447.0
136.45,-128.088209495,0.5579951949999999,494.0,-81.400051,-6.1774045,38.584648,5.5,-0.1,447.5
136.5,-128.08813852,0.55806908,493.0,-80.546356,-6.265333,38.220825,5.4,-0.1,448.0
136.55,-128.088060105,0.55815335,492.5,-79.524475,-6.35665,37.853752,5.300000000000001,-0.1,448.0
136.6,-128.08798169,0.55823762,492.0,-78.502594,-6.447967,37.486679,5.2,-0.1,448.0
136.65,-128.087914725,0.55831208,491.0,-77.6811445,-6.515934,37.21521,5.050000000000001,-0.1,448.5
136.7,-128.08784776,0.55838654,490.0,-76.859695,-6.583901,36.943741,4.9,-0.1,449.0
136.75,-128.08776992499998,0.558476575,489.0,-75.79969750000001,-6.6679675,36.6514285,4.7,-0.1,449.5
136.8,-128.08769209,0.55856661,488.0,-74.7397,-6.752034,36.359116,4.5,-0.1,450.0
136.85,-128.087626275,0.5586445250000001,487.5,-73.87752900000001,-6.817724,36.118782,4.35,-0.05,450.5
136.9,-128.08756046,0.55872244,487.0,-73.015358,-6.883414,35.878448,4.2,-0.0,451.0
136.95,-128.087487205,0.5588124750000001,486.0,-72.1307755,-6.947955,35.604102999999995,4.05,0.0,451.5
137.0,-128.08741395,0.55890251,485.0,-71.246193,-7.012496,35.329758,3.9,-0.0,452.0
137.05,-128.087349855,0.5589827350000001,484.0,-70.49049400000001,-7.0683745,35.1011125,3.8,0.0,452.5
137.1,-128.08728576,0.55906296,483.0,-69.734795,-7.124253,34.872467,3.7,0.0,453.0
137.15,-128.0872148,0.559155295,482.0,-68.99029200000001,-7.1979125,34.6603165,3.55,0.05,453.5
137.2,-128.08714384,0.55924763,481.0,-68.245789,-7.271572,34.448166,3.4,0.1,454.0
137.25,-128.087080895,0.559331315,480.0,-67.6543125,-7.3549845,34.2975085,3.25,0.15,455.0
137.3,-128.08701795,0.559415,479.0,-67.062836,-7.438397,34.146851,3.1,0.2,456.0
137.35,-128.08694928,0.55950791,478.0,-66.41173549999999,-7.546461499999999,34.0229495,2.9000000000000004,0.2,456.5
137.4,-128.08688061,0.55960082,477.0,-65.760635,-7.654526,33.899048,2.7,0.2,457.0
137.45,-128.0868211,0.5596839250000001,476.5,-65.070709,-7.7761755,33.8200305,2.5,0.2,457.5
137.5,-128.08676159,0.55976703,476.0,-64.380783,-7.897825,33.741013,2.3,0.2,458.0
137.55,-128.08669693500002,0.5598587850000001,474.5,-63.5941085,-8.046105,33.69032300000001,2.1,0.25,458.5
137.6,-128.08663228,0.55995054,473.0,-62.807434,-8.194385,33.639633,1.9,0.3,459.0
137.65,-128.08657449,0.5600342199999999,472.0,-61.998766,-8.352358500000001,33.621071,1.65,0.3,459.5
137.7,-128.0865167,0.5601179,471.0,-61.190098,-8.510332,33.602509,1.4,0.3,460.0
137.75,-128.08644575,0.56022235,470.0,-60.0271705,-8.735562,33.583458,1.2,0.3,460.5
137.8,-128.0863748,0.5603268,469.0,-58.864243,-8.960792,33.564407,1.0,0.3,461.0
137.85,-128.08632216,0.56040528,468.0,-58.058805500000005,-9.109317,33.5325165,0.85,0.25,461.5
137.9,-128.08626952,0.56048376,467.0,-57.253368,-9.257842,33.500626,0.7,0.2,462.0
137.95,-128.086208875,0.56057609,466.0,-56.157991,-9.4455695,33.434128,0.55,0.2,462.5
138.0,-128.08614823,0.56066842,465.0,-55.062614,-9.633297,33.36763,0.4,0.2,463.0
138.05,-128.08607956999998,0.5607734449999999,464.0,-53.792274500000005,-9.818964,33.247260999999995,0.3,0.2,464.0
138.1,-128.08601091,0.56087847,463.0,-52.521935,-10.004631,33.126892,0.2,0.2,465.0
138.15,-128.08595484,0.560965605,461.5,-51.5846065,-10.1138125,32.986534,0.2,0.15,465.5
138.2,-128.08589877,0.56105274,460.0,-50.647278,-10.222994,32.846176,0.2,0.1,466.0
138.25,-128.08583412000002,0.561153725,459.0,-49.496256,-10.3262585,32.648369,0.2,0.05,466.5
138.3,-128.08576947,0.56125471,458.0,-48.345234,-10.429523,32.450562,0.2,0.0,467.0
138.35,-128.08571283,0.561344155,456.5,-47.260626,-10.5034975,32.259536999999995,0.3,0.0,468.0
138.4,-128.08565619,0.5614336,455.0,-46.176018,-10.577472,32.068512,0.4,-0.0,469.0
138.45,-128.085591545,0.56153689,454.0,-45.004223,-10.6466955,31.8479155,0.4,-0.05,469.5
138.5,-128.0855269,0.56164018,453.0,-43.832428,-10.715919,31.627319,0.4,-0.1,470.0
138.55,-128.085470835,0.561731355,452.0,-42.712347,-10.780539999999998,31.446983,0.45,-0.15,470.5
138.6,-128.08541477,0.56182253,451.0,-41.592266,-10.845161,31.266647,0.5,-0.2,471.0
138.65,-128.08536271,0.561907935,449.5,-40.6778795,-10.9023925,31.1204605,0.5,-0.25,472.0
138.7,-128.08531065,0.56199334,448.0,-39.763493,-10.959624,30.974274,0.5,-0.3,473.0
138.75,-128.08524543,0.562101245,446.5,-38.5349465,-11.0465835,30.8064045,0.5,-0.3,473.5
138.8,-128.08518021,0.56220915,445.0,-37.3064,-11.133543,30.638535,0.5,-0.3,474.0
138.85,-128.085125295,0.5623009000000001,444.0,-36.1229915,-11.228242,30.524292000000003,0.45,-0.35,474.5
138.9,-128.08507038,0.56239265,443.0,-34.939583,-11.322941,30.410049,0.4,-0.4,475.0
138.95,-128.08500687999998,0.562499975,441.5,-33.539831,-11.4433545,30.2949825,0.3,-0.4,476.0
139.0,-128.08494338,0.5626073,440.0,-32.140079,-11.563768,30.179916,0.2,-0.4,477.0
139.05,-128.084892465,0.562694435,439.0,-31.0232315,-11.6652475,30.1015395,0.15,-0.45,477.5
139.1,-128.08484155,0.56278157,438.0,-29.906384,-11.766727,30.023163,0.1,-0.5,478.0
139.15,-128.08477748,0.56289178,436.5,-28.522214,-11.9009495,29.9394835,0.05,-0.5,478.5
139.2,-128.08471341,0.56300199,435.0,-27.138044,-12.035172,29.855804,-0.0,-0.5,479.0
139.25,-128.08465963999998,0.5630954699999999,433.5,-26.2064035,-12.134326,29.798889,-0.1,-0.5,479.5
139.3,-128.08460587,0.56318895,432.0,-25.274763,-12.23348,29.741974,-0.2,-0.5,480.0
139.35,-128.08454409,0.56329743,430.5,-24.588300500000003,-12.316279,29.6964035,-0.2,-0.45,481.0
139.4,-128.08448231,0.56340591,429.0,-23.901838,-12.399078,29.650833,-0.2,-0.4,482.0
139.45,-128.08442854,0.563499965,428.0,-23.5077065,-12.452725,29.622879,-0.25,-0.35,482.5
139.5,-128.08437477,0.56359402,427.0,-23.113575,-12.506372,29.594925,-0.3,-0.3,483.0
139.55,-128.084322145,0.5636869200000001,425.5,-22.868828,-12.5423045,29.5744555,-0.3,-0.25,484.0
139.6,-128.08426952,0.56377982,424.0,-22.624081,-12.578237,29.553986,-0.3,-0.2,485.0
139.65,-128.08420717,0.563891185,422.5,-22.417845,-12.6098765,29.534218,-0.25,-0.15,485.5
139.7,-128.08414482,0.56400255,421.0,-22.211609,-12.641516,29.51445,-0.2,-0.1,486.0
139.75,-128.08409334,0.564094875,419.5,-22.0910255,-12.660926,29.4983445,-0.2,-0.05,486.5
139.8,-128.08404186,0.5641872,418.0,-21.970442,-12.680336,29.482239,-0.2,0.0,487.0
139.85,-128.08397951,0.564299715,416.5,-21.8661225,-12.700793,29.460785,-0.2,0.05,488.0
139.9,-128.08391716,0.56441223,415.0,-21.761803,-12.72125,29.439331,-0.2,0.1,489.0
139.95,-128.08386568,0.5645051299999999,413.5,-21.738356,-12.7405205,29.4208145,-0.2,0.15,489.5
140.0,-128.0838142,0.56459803,412.0,-21.714909,-12.759791,29.402298,-0.2,0.2,490.0
140.05,-128.083752995,0.56470824,410.5,-21.8656935,-12.783631,29.382805,-0.2,0.25,491.0
140.1,-128.08369179,0.56481845,409.0,-22.016478,-12.807471,29.363312,-0.2,0.3,492.0
140.15,-128.08363917,0.5649153899999999,407.5,-22.363991,-12.8279975,29.3527375,-0.2,0.35,492.5
140.2,-128.08358655,0.56501233,406.0,-22.711504,-12.848524,29.342163,-0.2,0.4,493.0
140.25,-128.08352649,0.56512254,404.5,-23.473482,-12.8727865,29.338936,-0.2,0.45,493.5
140.3,-128.08346643,0.56523275,403.0,-24.23546,-12.897049,29.335709,-0.2,0.5,494.0
140.35,-128.08341438,0.5653285299999999,401.5,-25.1401595,-12.9161145,29.336716000000003,-0.2,0.55,495.0
140.4,-128.08336233,0.56542431,400.0,-26.044859,-12.93518,29.337723,-0.2,0.6,496.0
140.45,-128.083301125,0.5655374049999999,398.0,-27.216429,-12.949572,29.3323215,-0.2,0.6499999999999999,496.5
140.5,-128.08323992,0.5656505,396.0,-28.387999,-12.963964,29.32692,-0.2,0.7,497.0
140.55,-128.08318673000002,0.565749745,395.0,-29.548769,-12.960199500000002,29.301018,-0.2,0.75,497.5
140.6,-128.08313354,0.56584899,394.0,-30.709539,-12.956435,29.275116,-0.2,0.8,498.0
140.65,-128.08308091499998,0.565946505,392.0,-31.615832,-12.9318205,29.215019,-0.2,0.8500000000000001,499.0
140.7,-128.08302829,0.56604402,390.0,-32.522125,-12.907206,29.154922,-0.2,0.9,500.0
140.75,-128.082967095,0.56616,388.5,-33.4397315,-12.848491500000002,29.0277175,-0.1,0.9,500.5
140.8,-128.0829059,0.56627598,387.0,-34.357338,-12.789777,28.900513,-0.0,0.9,501.0
140.85,-128.08285442,0.56637234,385.5,-34.987385,-12.725057,28.751717,0.1,0.9,502.0
140.9,-128.08280294,0.5664687,384.0,-35.617432,-12.660337,28.602921,0.2,0.9,503.0
140.95,-128.082742315,0.566585255,382.0,-36.323769,-12.5953025,28.4045105,0.3,0.9,503.5
141.0,-128.08268169,0.56670181,380.0,-37.030106,-12.530268,28.2061,0.4,0.9,504.0
141.05,-128.082630785,0.566799325,379.0,-37.668375,-12.4991655,28.0392225,0.45,0.9,504.5
141.1,-128.08257988,0.56689684,378.0,-38.306644,-12.468063,27.872345,0.5,0.9,505.0
141.15,-128.082527835,0.566998965,376.0,-38.894304,-12.463935,27.7020495,0.55,0.8500000000000001,506.0
141.2,-128.08247579,0.56710109,374.0,-39.481964,-12.459807,27.531754,0.6,0.8,507.0
141.25,-128.082416885,0.567215915,372.5,-39.919504,-12.499545,27.3508075,0.6,0.75,507.5
141.3,-128.08235798,0.56733074,371.0,-40.357044,-12.539283,27.169861,0.6,0.7,508.0
141.35,-128.08230650500002,0.567433445,369.0,-40.554506,-12.615963,27.014786,0.55,0.6499999999999999,509.0
141.4,-128.08225503,0.56753615,367.0,-40.751968,-12.692643,26.859711,0.5,0.6,510.0
141.45,-128.0821967,0.567653855,365.5,-40.7867335,-12.7925495,26.688171500000003,0.45,0.55,510.5
141.5,-128.08213837,0.56777156,364.0,-40.821499,-12.892456,26.516632,0.4,0.5,511.0
141.55,-128.082088615,0.56787311,362.5,-40.752226,-12.9840445,26.370414500000003,0.35,0.4,511.5
141.6,-128.08203886,0.56797466,361.0,-40.682953,-13.075633,26.224197,0.3,0.3,512.0
141.65,-128.081981675,0.56809294,359.5,-40.524416,-13.185147,26.057373,0.3,0.25,513.0
141.7,-128.08192449,0.56821122,358.0,-40.365879,-13.294661,25.890549,0.3,0.2,514.0
141.75,-128.08187587999998,0.5683121950000001,356.0,-40.207945,-13.3745375,25.7487565,0.25,0.15,514.5
141.8,-128.08182727,0.56841317,354.0,-40.050011,-13.454414,25.606964,0.2,0.1,515.0
141.85,-128.081769515,0.56853491,352.5,-39.846041,-13.5178015,25.422722,0.2,0.05,516.0
141.9,-128.08171176,0.56865665,351.0,-39.642071,-13.581189,25.23848,0.2,0.0,517.0
141.95,-128.081663725,0.568759355,349.5,-39.4382935,-13.6128935,25.077469,0.2,0.0,517.5
142.0,-128.08161569,0.56886206,348.0,-39.234516,-13.644598,24.916458,0.2,-0.0,518.0
142.05,-128.081567655,0.56896649,346.0,-38.998541,-13.667472,24.7572935,0.25,-0.05,519.0
142.1,-128.08151962,0.56907092,344.0,-38.762566,-13.690346,24.598129,0.3,-0.1,520.0
142.15,-128.081464155,0.569193235,342.5,-38.385096,-13.7031595,24.4156415,0.3,-0.1,520.5
142.2,-128.08140869,0.56931555,341.0,-38.007626,-13.715973,24.233154,0.3,-0.1,521.0
142.25,-128.08136066,0.569421715,339.0,-37.6021215,-13.7163585,24.078102,0.35,-0.15,522.0
142.3,-128.08131263,0.56952788,337.0,-37.196617,-13.716744,23.92305,0.4,-0.2,523.0
142.35,-128.081258315,0.5696507749999999,335.0,-36.638427500000006,-13.7306655,23.7662735,0.4,-0.2,523.5
142.4,-128.081204,0.56977367,333.0,-36.080238,-13.744587,23.609497,0.4,-0.2,524.0
142.45,-128.08115654,0.569880985,331.5,-35.512291000000005,-13.761956,23.485008,0.4,-0.2,524.5
142.5,-128.08110908,0.5699883,330.0,-34.944344,-13.779325,23.360519,0.4,-0.2,525.0
142.55,-128.08105591,0.57011177,328.0,-34.288605000000004,-13.768883,23.212677,0.4,-0.2,526.0
142.6,-128.08100274,0.57023524,326.0,-33.632866,-13.758441,23.064835,0.4,-0.2,527.0
142.65,-128.08095643,0.57034313,324.5,-33.115261000000004,-13.7374655,22.9371645,0.4,-0.2,527.5
142.7,-128.08091012,0.57045102,323.0,-32.597656,-13.71649,22.809494,0.4,-0.2,528.0
142.75,-128.08086380999998,0.570561795,321.0,-31.9750615,-13.6885815,22.6826935,0.45,-0.15,529.0
142.8,-128.0808175,0.57067257,319.0,-31.352467,-13.660673,22.555893,0.5,-0.1,530.0
142.85,-128.08076719000002,0.570792575,317.5,-30.719779000000003,-13.6082835,22.4110335,0.55,-0.1,530.5
142.9,-128.08071688,0.57091258,316.0,-30.087091,-13.555894,22.266174,0.6,-0.1,531.0
142.95,-128.080671145,0.57102451,314.5,-29.4991795,-13.5005205,22.139732,0.6,-0.1,531.5
143.0,-128.08062541,0.57113644,313.0,-28.911268,-13.445147,22.01329,0.6,-0.1,532.0
143.05,-128.08057339,0.571263945,311.0,-28.238639,-13.4089915,21.8908385,0.6,-0.1,533.0
143.1,-128.08052137,0.57139145,309.0,-27.56601,-13.372836,21.768387,0.6,-0.1,534.0
143.15,-128.08047621,0.571503375,307.0,-27.056538,-13.368917,21.682518,0.6,-0.1,534.5
143.2,-128.08043105,0.5716153,305.0,-26.547066,-13.364998,21.596649,0.6,-0.1,535.0
143.25,-128.080380745,0.57174338,303.5,-25.9152775,-13.381234,21.513786,0.55,-0.1,536.0
143.3,-128.08033044,0.57187146,302.0,-25.283489,-13.39747,21.430923,0.5,-0.1,537.0
143.35,-128.080286425,0.57198281,300.0,-24.769757,-13.4193165,21.3657605,0.4,-0.1,537.5
143.4,-128.08024241,0.57209416,298.0,-24.256025,-13.441163,21.300598,0.3,-0.1,538.0
143.45,-128.08020011000002,0.5722032,296.5,-23.7541635,-13.458341,21.236595,0.3,-0.1,538.5
143.5,-128.08015781,0.57231224,295.0,-23.252302,-13.475519,21.172592,0.3,-0.1,539.0
143.55,-128.080108085,0.572442055,293.0,-22.5874135,-13.483142,21.0920945,0.25,-0.1,540.0
143.6,-128.08005836,0.57257187,291.0,-21.922525,-13.490765,21.011597,0.2,-0.1,541.0
143.65,-128.08001606,0.57268264,289.0,-21.4314985,-13.485069,20.9399035,0.2,-0.05,541.5
143.7,-128.07997376,0.57279341,287.0,-20.940472,-13.479373,20.86821,0.2,-0.0,542.0
143.75,-128.079925175,0.5729214899999999,285.5,-20.3668805,-13.449087,20.779663,0.2,-0.05,542.5
143.8,-128.07987659,0.57304957,284.0,-19.793289,-13.418801,20.691116,0.2,-0.1,543.0
143.85,-128.079833725,0.57316438,282.5,-19.2562025,-13.3387275,20.597122,0.25,-0.1,544.0
143.9,-128.07979086,0.57327919,281.0,-18.719116,-13.258654,20.503128,0.3,-0.1,545.0
143.95,-128.07974285,0.57340842,278.5,-18.111578,-13.12287,20.3827895,0.4,-0.1,545.5
144.0,-128.07969484,0.57353765,276.0,-17.50404,-12.987086,20.262451,0.5,-0.1,546.0
144.05,-128.079651975,0.573653615,274.5,-16.971421499999998,-12.8762845,20.1631775,0.55,-0.1,546.5
144.1,-128.07960911,0.57376958,273.0,-16.438803,-12.765483,20.063904,0.6,-0.1,547.0
144.15,-128.07955995999998,0.5739028500000001,271.5,-15.8501505,-12.68793,19.975502,0.6499999999999999,-0.1,548.0
144.2,-128.07951081,0.57403612,270.0,-15.261498,-12.610377,19.8871,0.7,-0.1,549.0
144.25,-128.07947023,0.574149195,268.0,-14.855499,-12.599876,19.834221,0.6499999999999999,-0.1,549.5
144.3,-128.07942965,0.57426227,266.0,-14.4495,-12.589375,19.781342,0.6,-0.1,550.0
144.35,-128.07938279,0.57439208,264.5,-14.0729625,-12.6306185,19.742264,0.5,-0.1,551.0
144.4,-128.07933593,0.57452189,263.0,-13.696425,-12.671862,19.703186,0.4,-0.1,552.0
144.45,-128.079293635,0.5746395799999999,261.5,-13.4148445,-12.744201,19.683159,0.3,-0.1,552.5
144.5,-128.07925134,0.57475727,260.0,-13.133264,-12.81654,19.663132,0.2,-0.1,553.0
144.55,-128.07921076500003,0.5748709249999999,258.0,-12.9313815,-12.8927115,19.6510545,0.0499999999999999,-0.1,553.5
144.6,-128.07917019,0.57498458,256.0,-12.729499,-12.968883,19.638977,-0.1,-0.1,554.0
144.65,-128.07912104500002,0.5751247749999999,254.5,-12.514287,-13.0508695,19.626526,-0.15,-0.1,555.0
144.7,-128.0790719,0.57526497,253.0,-12.299075,-13.132856,19.614075,-0.2,-0.1,556.0
144.75,-128.07903132500002,0.5753792,251.0,-12.117778,-13.170124,19.598175,-0.3,-0.05,556.5
144.8,-128.07899075,0.57549343,249.0,-11.936481,-13.207392,19.582275,-0.4,-0.0,557.0
144.85,-128.07894389,0.57562843,247.0,-11.711463,-13.203188,19.5526505,-0.35,0.0,557.5
144.9,-128.07889703,0.57576343,245.0,-11.486445,-13.198984,19.523026,-0.3,0.0,558.0
144.95,-128.07885703,0.5758770799999999,244.0,-11.290626,-13.164163,19.490265,-0.3,0.0,558.5
145.0,-128.07881703,0.57599073,243.0,-11.094807,-13.129342,19.457504,-0.3,0.0,559.0
145.05,-128.0787696,0.576128615,241.0,-10.8752765,-13.069126,19.416,-0.25,0.0,560.0
145.1,-128.07872217,0.5762665,239.0,-10.655746,-13.00891,19.374496,-0.2,0.0,561.0
145.15,-128.07868216999998,0.576381305,237.0,-10.484359,-12.954597,19.3368225,-0.15,0.0,561.5
145.2,-128.07864217,0.57649611,235.0,-10.312972,-12.900284,19.299149,-0.1,0.0,562.0
145.25,-128.07859417,0.576635725,233.5,-10.124861,-12.8466585,19.2556155,-0.05,0.0,563.0
145.3,-128.07854617,0.57677534,232.0,-9.93675,-12.793033,19.212082,-0.0,0.0,564.0
145.35,-128.078505025,0.576894185,230.5,-9.7770665,-12.765905,19.178566,0.0,0.0,564.5
145.4,-128.07846388,0.57701303,229.0,-9.617383,-12.738777,19.14505,-0.0,0.0,565.0
145.45,-128.07841645,0.57715207,227.0,-9.4656975,-12.733723,19.1104355,-0.05,0.0,565.5
145.5,-128.07836902,0.57729111,225.0,-9.314012,-12.728669,19.075821,-0.1,0.0,566.0
145.55,-128.078330165,0.57740534,223.5,-9.2128145,-12.7311545,19.049789500000003,-0.1,0.0,566.5
145.6,-128.07829131,0.57751957,222.0,-9.111617,-12.73364,19.023758,-0.1,0.0,567.0
145.65,-128.07824274,0.57766149,220.0,-8.9928615,-12.7336085,18.9902345,-0.15,0.0,568.0
145.7,-128.07819417,0.57780341,218.0,-8.874106,-12.733577,18.956711,-0.2,0.0,569.0
145.75,-128.0781536,0.577923985,216.5,-8.7861765,-12.7255165,18.927925,-0.2,0.0,569.5
145.8,-128.07811303,0.57804456,215.0,-8.698247,-12.717456,18.899139,-0.2,0.0,570.0
145.85,-128.07807189,0.5781657099999999,213.5,-8.614082,-12.7062105,18.870964,-0.2,0.0,570.5
145.9,-128.07803075,0.57828686,212.0,-8.529917,-12.694965,18.842789,-0.2,0.0,571.0
145.95,-128.077983895,0.578426475,210.0,-8.441419,-12.685193,18.8119585,-0.2,0.0,571.5
146.0,-128.07793704,0.57856609,208.0,-8.352921,-12.675421,18.781128,-0.2,0.0,572.0
146.05,-128.07789646999998,0.5786878200000001,206.5,-8.290463500000001,-12.6690275,18.755493,-0.25,0.0,572.5
146.1,-128.0778559,0.57880955,205.0,-8.228006,-12.662634,18.729858,-0.3,0.0,573.0
146.15,-128.07780904999998,0.5789503149999999,203.0,-8.163155,-12.6521575,18.700943,-0.3,0.0,574.0
146.2,-128.0777622,0.57909108,201.0,-8.098304,-12.641681,18.672028,-0.3,0.0,575.0
146.25,-128.07772162999998,0.579212235,199.0,-8.047475,-12.626419,18.646149,-0.3,0.0,575.5
146.3,-128.07768106,0.57933339,197.0,-7.996646,-12.611157,18.62027,-0.3,0.0,576.0
146.35,-128.07763363499998,0.5794764649999999,195.5,-7.944925,-12.5818745,18.5859985,-0.3,0.0,576.5
