Time,Longitude,Latitude,Altitude,Roll,Pitch,Yaw,AOA,AOS,TAS
186.4,-128.09256007,0.58651054,492.0,111.659988,-26.653357,-6.290405,13.9,-0.2,454.0
186.45,-128.09259223499998,0.586602785,489.5,110.879791,-27.129469,-5.2475965,13.9,-0.15,454.5
186.5,-128.0926244,0.58669503,487.0,110.099594,-27.605581,-4.204788,13.9,-0.1,455.0
186.55,-128.092656575,0.58679766,484.5,109.1165925,-28.113774,-2.9569625,13.9,-0.1,455.5
186.6,-128.09268875,0.58690029,482.0,108.133591,-28.621967,-1.709137,13.9,-0.1,456.0
186.65,-128.09271347,0.58699312,480.0,107.1620715,-29.0369185,-0.5833895,13.9,-0.1,456.5
186.7,-128.09273819,0.58708595,478.0,106.190552,-29.45187,0.542358,13.9,-0.1,457.0
186.75,-128.09276291999998,0.587192045,474.5,105.0193175,-29.8670485,1.8679045,13.9,-0.05,457.5
186.8,-128.09278765,0.58729814,471.0,103.848083,-30.282227,3.193451,13.9,-0.0,458.0
186.85,-128.092805495,0.587389825,468.5,102.849937,-30.580883,4.3537675,13.9,0.0,458.5
186.9,-128.09282334,0.58748151,466.0,101.851791,-30.879539,5.514084,13.9,0.0,459.0
186.95,-128.092839475,0.58758646,463.0,100.6079825,-31.190335,6.8817595,13.9,0.0,459.5
187.0,-128.09285561,0.58769141,460.0,99.364174,-31.501131,8.249435,13.9,0.0,460.0
187.05,-128.092866005,0.58778252,457.0,98.250393,-31.7268305,9.456863,13.95,0.0,460.5
187.1,-128.0928764,0.58787363,454.0,97.136612,-31.95253,10.664291,14.0,0.0,461.0
187.15,-128.09288395,0.587982625,450.5,95.859268,-32.156582,12.125,14.0,0.0,461.5
187.2,-128.0928915,0.58809162,447.0,94.581924,-32.360634,13.585709,14.0,0.0,462.0
187.25,-128.092894445,0.5881815850000001,444.5,93.471458,-32.4958535,14.818306,14.05,0.0,463.0
187.3,-128.09289739,0.58827155,442.0,92.360992,-32.631073,16.050903,14.1,0.0,464.0
187.35,-128.092896325,0.58836152,438.5,91.343029,-32.719085500000006,17.2609555,14.1,0.0,464.5
187.4,-128.09289526,0.58845149,435.0,90.325066,-32.807098,18.471008,14.1,-0.0,465.0
187.45,-128.092889625,0.58855646,431.0,89.13072600000001,-32.8655185,19.95343,14.1,0.0,465.5
187.5,-128.09288399,0.58866143,427.0,87.936386,-32.923939,21.435852,14.1,-0.0,466.0
187.55,-128.09287547999998,0.58874968,424.5,86.90522,-32.937363,22.6720045,14.1,-0.05,466.5
187.6,-128.09286697,0.58883793,422.0,85.874054,-32.950787,23.908157,14.1,-0.1,467.0
187.65,-128.092852165,0.588940025,417.5,84.79688250000001,-32.931099,25.3172455,14.15,-0.1,468.0
187.7,-128.09283736,0.58904212,413.0,83.719711,-32.911411,26.726334,14.2,-0.1,469.0
187.75,-128.092820825,0.58913037,410.0,82.833271,-32.8688755,27.9509965,14.2,-0.15,469.5
187.8,-128.09280429,0.58921862,407.0,81.946831,-32.82634,29.175659,14.2,-0.2,470.0
187.85,-128.09277975,0.589320725,403.0,80.9229395,-32.742819,30.627121,14.2,-0.25,470.5
187.9,-128.09275521,0.58942283,399.0,79.899048,-32.659298,32.078583,14.2,-0.3,471.0
187.95,-128.09273122500002,0.58950763,395.0,79.1396905,-32.571766,33.3035735,14.2,-0.3,472.0
188.0,-128.09270724,0.58959243,391.0,78.380333,-32.484234,34.528564,14.2,-0.3,473.0
188.05,-128.0926741,0.58968935,387.0,77.4814875,-32.3495425,35.968452,14.25,-0.35,473.5
188.1,-128.09264096,0.58978627,383.0,76.582642,-32.214851,37.40834,14.3,-0.4,474.0
188.15,-128.09260838,0.58986935,380.0,75.8414195,-32.078076,38.6255185,14.3,-0.4,474.5
188.2,-128.0925758,0.58995243,377.0,75.100197,-31.941301,39.842697,14.3,-0.4,475.0
188.25,-128.09254035499998,0.5900326300000001,373.0,74.42990499999999,-31.797013,41.011345000000006,14.35,-0.4,476.0
188.3,-128.09250491,0.59011283,369.0,73.759613,-31.652725,42.179993,14.4,-0.4,477.0
188.35,-128.09245801999998,0.59020688,365.0,72.96228049999999,-31.452834,43.6075595,14.4,-0.4,477.5
188.4,-128.09241113,0.59030093,361.0,72.164948,-31.252943,45.035126,14.4,-0.4,478.0
188.45,-128.09236651499998,0.59038056,357.0,71.49100899999999,-31.0573435,46.3013385,14.45,-0.4,479.0
188.5,-128.0923219,0.59046019,353.0,70.81707,-30.861744,47.567551,14.5,-0.4,480.0
188.55,-128.092273845,0.590536935,350.0,70.16909050000001,-30.6477995,48.771904,14.5,-0.4,480.5
188.6,-128.09222579,0.59061368,347.0,69.521111,-30.433855,49.976257,14.5,-0.4,481.0
188.65,-128.09216629,0.5907002450000001,342.5,68.839478,-30.1773865,51.3342895,14.5,-0.4,481.5
188.7,-128.09210679,0.59078681,338.0,68.157845,-29.920918,52.692322,14.5,-0.4,482.0
188.75,-128.092053575,0.590856645,334.5,67.6545945,-29.708832,53.7978135,14.5,-0.4,482.5
188.8,-128.09200036,0.59092648,331.0,67.151344,-29.496746,54.903305,14.5,-0.4,483.0
188.85,-128.091933405,0.5910067050000001,327.0,66.5550955,-29.224449,56.1555785,14.45,-0.4,483.5
188.9,-128.09186645,0.59108693,323.0,65.958847,-28.952152,57.407852,14.4,-0.4,484.0
188.95,-128.09180463500002,0.591154465,319.0,65.4725875,-28.719154000000003,58.43914,14.3,-0.4,485.0
189.0,-128.09174282,0.591222,315.0,64.986328,-28.486156,59.470428,14.2,-0.4,486.0
189.05,-128.091666695,0.5912976249999999,311.5,64.4022275,-28.211462500000003,60.618515,14.05,-0.35,486.5
189.1,-128.09159057,0.59137325,308.0,63.818127,-27.936769,61.766602,13.9,-0.3,487.0
189.15,-128.09152188000002,0.5914356000000001,304.5,63.196011,-27.668863,62.701523,13.8,-0.3,487.5
189.2,-128.09145319,0.59149795,301.0,62.573895,-27.400957,63.636444,13.7,-0.3,488.0
189.25,-128.09136675000002,0.5915695400000001,296.5,61.685406,-27.0425015,64.71255500000001,13.5,-0.25,489.0
189.3,-128.09128031,0.59164113,292.0,60.796917,-26.684046,65.788666,13.3,-0.2,490.0
189.35,-128.09120645500002,0.5916971449999999,289.0,59.9909325,-26.3551635,66.65596,13.2,-0.15,490.5
189.4,-128.0911326,0.59175316,286.0,59.184948,-26.026281,67.523254,13.1,-0.1,491.0
189.45,-128.091041565,0.591816685,282.5,58.099949,-25.567021,68.54002349999999,13.0,-0.05,491.5
189.5,-128.09095053,0.59188021,279.0,57.01495,-25.107761,69.556793,12.9,0.0,492.0
189.55,-128.090870375,0.591931035,275.0,56.077238,-24.700755,70.36947599999999,12.85,0.1,492.5
189.6,-128.09079022,0.59198186,271.0,55.139526,-24.293749,71.182159,12.8,0.2,493.0
189.65,-128.090707765,0.59203038,268.0,54.1379585,-23.872445,71.90280150000001,12.65,0.2,493.5
189.7,-128.09062531,0.5920789,265.0,53.136391,-23.451141,72.623444,12.5,0.2,494.0
189.75,-128.09052682,0.59213205,261.5,52.0004005,-22.9802895,73.355614,12.3,0.25,495.0
189.8,-128.09042833,0.5921852,258.0,50.86441,-22.509438,74.087784,12.1,0.3,496.0
189.85,-128.09033957,0.592229115,254.5,49.9668025,-22.11422,74.6470645,11.9,0.35,496.5
189.9,-128.09025081,0.59227303,251.0,49.069195,-21.719002,75.206345,11.7,0.4,497.0
189.95,-128.090144295,0.592320995,247.5,48.1869965,-21.2742215,75.7851335,11.45,0.4,497.5
190.0,-128.09003778,0.59236896,244.0,47.304798,-20.829441,76.363922,11.2,0.4,498.0
190.05,-128.089945005,0.59240769,241.0,46.674328,-20.4518205,76.8240205,10.95,0.35,499.0
190.1,-128.08985223,0.59244642,238.0,46.043858,-20.0742,77.284119,10.7,0.3,500.0
190.15,-128.08974628,0.59248689,234.5,45.442221,-19.657256500000003,77.771393,10.45,0.25,500.5
190.2,-128.08964033,0.59252736,231.0,44.840584,-19.240313,78.258667,10.2,0.2,501.0
190.25,-128.089541825,0.5925620549999999,228.5,44.325487,-18.8268225,78.719513,10.05,0.2,501.5
190.3,-128.08944332,0.59259675,226.0,43.81039,-18.413332,79.180359,9.9,0.2,502.0
190.35,-128.089327055,0.592634345,223.0,43.327295,-17.9649285,79.6806795,9.75,0.15,502.5
190.4,-128.08921079,0.59267194,220.0,42.8442,-17.516525,80.181,9.6,0.1,503.0
190.45,-128.08911228,0.592701445,217.0,42.531128,-17.2254305,80.52505500000001,9.35,0.05,504.0
190.5,-128.08901377,0.59273095,214.0,42.218056,-16.934336,80.86911,9.1,-0.0,505.0
190.55,-128.08889807,0.5927622,211.5,41.8711585,-16.733925,81.126251,8.7,-0.05,505.5
190.6,-128.08878237,0.59279345,209.0,41.524261,-16.533514,81.383392,8.3,-0.1,506.0
190.65,-128.08868328,0.59281834,206.5,41.15196,-16.499202,81.4737395,7.9,-0.15,506.5
190.7,-128.08858419,0.59284323,204.0,40.779659,-16.46489,81.564087,7.5,-0.2,507.0
190.75,-128.08845761,0.5928727600000001,201.0,40.0572415,-16.5887215,81.53544600000001,6.7,-0.2,508.0
190.8,-128.08833103,0.59290229,198.0,39.334824,-16.712553,81.506805,5.9,-0.2,509.0
190.85,-128.0882285,0.5929243,195.5,38.387434,-16.875374,81.431274,5.4,-0.15,509.5
190.9,-128.08812597,0.59294631,193.0,37.440044,-17.038195,81.355743,4.9,-0.1,510.0
190.95,-128.08800396499998,0.59297065,190.5,35.75296,-17.2354955,81.28724650000001,4.300000000000001,-0.05,511.0
191.0,-128.08788196,0.59299499,188.0,34.065876,-17.432796,81.21875,3.7,-0.0,512.0
191.05,-128.08777599,0.59301527,185.5,32.204578500000004,-17.5418825,81.226242,3.3,0.05,513.0
191.1,-128.08767002,0.59303555,183.0,30.343281,-17.650969,81.233734,2.9,0.1,514.0
191.15,-128.08754457499998,0.59305816,180.5,28.0312805,-17.650883999999998,81.3367765,2.7,0.2,514.5
191.2,-128.08741913,0.59308077,178.0,25.71928,-17.650799,81.439819,2.5,0.3,515.0
191.25,-128.087310295,0.5930999050000001,176.0,23.793871000000003,-17.5177835,81.5848845,2.45,0.35,516.0
191.3,-128.08720146,0.59311904,174.0,21.868462,-17.384768,81.72995,2.4,0.4,517.0
191.35,-128.08708919,0.593138175,171.5,20.3904335,-17.1369805,81.9009245,2.5,0.45,517.5
191.4,-128.08697692,0.59315731,169.0,18.912405,-16.889193,82.071899,2.6,0.5,518.0
191.45,-128.08685319,0.59317761,166.5,17.7370455,-16.48082,82.26904300000001,2.8,0.55,519.0
191.5,-128.08672946,0.59319791,164.0,16.561686,-16.072447,82.466187,3.0,0.6,520.0
191.55,-128.086617765,0.5932158949999999,161.5,15.7629065,-15.5805185,82.63639850000001,3.25,0.6,521.0
191.6,-128.08650607,0.59323388,159.0,14.964127,-15.08859,82.80661,3.5,0.6,522.0
191.65,-128.086379475,0.593253025,157.0,14.3256915,-14.523251,82.97169500000001,3.75,0.6,522.5
191.7,-128.08625288,0.59327217,155.0,13.687256,-13.957912,83.13678,4.0,0.6,523.0
191.75,-128.086134875,0.593289585,153.0,13.2936675,-13.5103965,83.2455445,4.15,0.55,523.5
191.8,-128.08601687,0.593307,151.0,12.900079,-13.062881,83.354309,4.3,0.5,524.0
191.85,-128.08590689,0.5933232500000001,149.0,12.6426685,-12.742778,83.416641,4.35,0.45,525.0
191.9,-128.08579691,0.5933395,147.0,12.385258,-12.422675,83.478973,4.4,0.4,526.0
191.95,-128.08566630500002,0.5933575,144.5,12.128816,-12.197182,83.5074615,4.25,0.35,526.5
192.0,-128.0855357,0.5933755,142.0,11.872374,-11.971689,83.53595,4.1,0.3,527.0
192.05,-128.08541827,0.59339118,140.0,11.614824,-11.9331355,83.5241245,3.85,0.25,528.0
192.1,-128.08530084,0.59340686,138.0,11.357274,-11.894582,83.512299,3.6,0.2,529.0
192.15,-128.08516679500002,0.593424285,136.0,11.02002,-11.968297,83.4836885,3.25,0.15,529.5
192.2,-128.08503275,0.59344171,134.0,10.682766,-12.042012,83.455078,2.9,0.1,530.0
192.25,-128.08491761,0.593456235,132.5,10.337476,-12.1324955,83.441742,2.6,0.1,530.5
192.3,-128.08480247,0.59347076,131.0,9.992186,-12.222979,83.428406,2.3,0.1,531.0
192.35,-128.08466556000002,0.5934876149999999,129.0,9.5535455,-12.309025,83.4429475,2.0,0.1,532.0
192.4,-128.08452865,0.59350447,127.0,9.114905,-12.395071,83.457489,1.7,0.1,533.0
192.45,-128.084412935,0.5935189949999999,125.5,8.767866999999999,-12.402786,83.505234,1.6,0.1,533.5
192.5,-128.08429722,0.59353352,124.0,8.420829,-12.410501,83.552979,1.5,0.1,534.0
192.55,-128.08418151,0.5935474700000001,122.5,8.067072,-12.326786,83.636414,1.45,0.15,534.5
192.6,-128.0840658,0.59356142,121.0,7.713315,-12.243071,83.719849,1.4,0.2,535.0
192.65,-128.08393404499998,0.593577115,119.0,7.389533999999999,-12.047124,83.84513849999999,1.45,0.3,535.5
192.7,-128.08380229,0.59359281,117.0,7.065753,-11.851177,83.970428,1.5,0.4,536.0
192.75,-128.083680845,0.59360676,115.5,6.8289115,-11.5968305,84.09761,1.65,0.45,537.0
192.8,-128.0835594,0.59362071,114.0,6.59207,-11.342484,84.224792,1.8,0.5,538.0
192.85,-128.083420775,0.59363699,112.0,6.374266499999999,-11.0090865,84.3673095,1.95,0.55,538.5
192.9,-128.08328215,0.59365327,110.0,6.156463,-10.675689,84.509827,2.1,0.6,539.0
192.95,-128.083164715,0.593666645,108.5,6.049507999999999,-10.506081,84.6082155,2.1,0.6499999999999999,539.5
193.0,-128.08304728,0.59368002,107.0,5.942553,-10.336473,84.706604,2.1,0.7,540.0
193.05,-128.08290864999998,0.59369514,105.5,5.8924825,-10.317807,84.79415900000001,1.95,0.75,541.0
193.1,-128.08277002,0.59371026,104.0,5.842412,-10.299141,84.881714,1.8,0.8,542.0
193.15,-128.08265087,0.593723635,102.5,5.848315,-10.4312375,84.9352875,1.6,0.8500000000000001,542.5
193.2,-128.08253172,0.59373701,101.0,5.854218,-10.563334,84.988861,1.4,0.9,543.0
193.25,-128.08239480499998,0.5937515600000001,99.5,5.8889665,-10.7845125,85.03855899999999,1.1,0.9,543.5
193.3,-128.08225789,0.59376611,98.0,5.923715,-11.005691,85.088257,0.8,0.9,544.0
193.35,-128.08213931,0.59377833,96.5,5.954022999999999,-11.2072285,85.12634299999999,0.5,0.95,544.5
193.4,-128.08202073,0.59379055,95.0,5.984331,-11.408766,85.164429,0.2,1.0,545.0
193.45,-128.08188153,0.593805095,93.5,5.994244,-11.5854615,85.2095185,0.0,1.0,545.5
193.5,-128.08174233,0.59381964,92.0,6.004157,-11.762157,85.254608,-0.2,1.0,546.0
193.55,-128.081623745,0.593831285,90.0,5.9538755000000005,-11.798232,85.3041075,-0.25,1.0,546.5
193.6,-128.08150516,0.59384293,88.0,5.903594,-11.834307,85.353607,-0.3,1.0,547.0
193.65,-128.08136252,0.59385748,86.5,5.776521,-11.698164,85.42030349999999,-0.2,1.0,548.0
193.7,-128.08121988,0.59387203,85.0,5.649448,-11.562021,85.487,-0.1,1.0,549.0
193.75,-128.081101875,0.593883675,84.0,5.5248345,-11.3574515,85.53476,0.05,1.0,549.5
193.8,-128.08098387,0.59389532,83.0,5.400221,-11.152882,85.58252,0.2,1.0,550.0
193.85,-128.08086242000002,0.5939069699999999,81.5,5.29952,-10.945836,85.609009,0.4,0.95,550.5
193.9,-128.08074097,0.59391862,80.0,5.198819,-10.73879,85.635498,0.6,0.9,551.0
193.95,-128.080597755,0.593932015,78.5,5.123574,-10.5858855,85.62870799999999,0.6499999999999999,0.8500000000000001,551.5
194.0,-128.08045454,0.59394541,77.0,5.048329,-10.432981,85.621918,0.7,0.8,552.0
194.05,-128.08031534,0.5939582299999999,75.0,4.9557375,-10.369509,85.57901,0.7,0.75,552.5
194.1,-128.08017614,0.59397105,73.0,4.863146,-10.306037,85.536102,0.7,0.7,553.0
194.15,-128.08005412,0.593982695,71.5,4.7296405,-10.3051715,85.4798585,0.6,0.6,553.5
194.2,-128.0799321,0.59399434,70.0,4.596135,-10.304306,85.423615,0.5,0.5,554.0
194.25,-128.07980607000002,0.594005415,69.0,4.4582455,-10.343654,85.35543849999999,0.4,0.4,554.5
194.3,-128.07968004,0.59401649,68.0,4.320356,-10.383002,85.287262,0.3,0.3,555.0
194.35,-128.07953625,0.594029315,66.5,4.1674385,-10.461523499999998,85.20404049999999,0.2,0.2,555.5
194.4,-128.07939246,0.59404214,65.0,4.014521,-10.540045,85.120819,0.1,0.1,556.0
194.45,-128.079271585,0.59405263,63.5,3.9131425,-10.6117925,85.0459745,-0.05,0.0,556.5
194.5,-128.07915071,0.59406312,62.0,3.811764,-10.68354,84.97113,-0.2,-0.1,557.0
194.55,-128.07900635,0.5940759449999999,60.5,3.7243235,-10.761848,84.89035,-0.3,-0.15,557.5
194.6,-128.07886199,0.59408877,59.0,3.636883,-10.840156,84.80957,-0.4,-0.2,558.0
194.65,-128.07873825,0.59409984,58.0,3.5547975000000003,-10.8999055,84.7529905,-0.45,-0.25,558.5
194.7,-128.07861451,0.59411091,57.0,3.472712,-10.959655,84.696411,-0.5,-0.3,559.0
194.75,-128.07846843,0.594123735,55.0,3.3396645,-10.993299,84.6456755,-0.55,-0.35,560.0
194.8,-128.07832235,0.59413656,53.0,3.206617,-11.026943,84.59494,-0.6,-0.4,561.0
194.85,-128.07819804000002,0.5941470600000001,52.0,3.0636970000000003,-11.0254455,84.5615385,-0.55,-0.45,561.5
194.9,-128.07807373,0.59415756,51.0,2.920777,-11.023948,84.528137,-0.5,-0.5,562.0
194.95,-128.077952855,0.59416805,50.0,2.7683705,-11.0104625,84.48713649999999,-0.5,-0.55,562.5
195.0,-128.07783198,0.59417854,49.0,2.615964,-10.996977,84.446136,-0.5,-0.6,563.0
195.05,-128.0776859,0.59419194,47.0,2.4714555,-11.000786,84.3658595,-0.5,-0.6499999999999999,563.5
195.1,-128.07753982,0.59420534,45.0,2.326947,-11.004595,84.285583,-0.5,-0.7,564.0
195.15,-128.07741779999998,0.594215835,44.0,2.224633,-11.0382645,84.190582,-0.55,-0.8,564.5
195.2,-128.07729578,0.59422633,43.0,2.122319,-11.071934,84.095581,-0.6,-0.9,565.0
195.25,-128.07714397,0.5942397349999999,41.5,1.9644375,-11.1164085,83.9415285,-0.6,-1.0,565.5
195.3,-128.07699216,0.59425314,40.0,1.806556,-11.160883,83.787476,-0.6,-1.1,566.0
195.35,-128.07686612999998,0.594264795,38.5,1.647669,-11.1455545,83.6626435,-0.6,-1.2000000000000002,566.5
195.4,-128.0767401,0.59427645,37.0,1.488782,-11.130226,83.537811,-0.6,-1.3,567.0
195.45,-128.076596885,0.59428927,35.5,1.229464,-10.8965525,83.444748,-0.4,-1.4,567.5
195.5,-128.07645367,0.59430209,34.0,0.970146,-10.662879,83.351685,-0.2,-1.5,568.0
195.55,-128.076327065,0.59431374,32.5,0.656445,-10.0266295,83.339478,0.2499999999999999,-1.5,568.5
195.6,-128.07620046,0.59432539,31.0,0.342744,-9.39038,83.327271,0.7,-1.5,569.0
195.65,-128.07605896500002,0.5943387899999999,29.5,-0.0220119999999999,-8.365733500000001,83.375214,1.7,-1.35,570.0
195.7,-128.07591747,0.59435219,28.0,-0.386768,-7.341087,83.423157,2.7,-1.2,571.0
195.75,-128.075782845,0.594365,26.5,-0.740447,-6.2028155,83.5089875,3.4,-1.1,571.5
195.8,-128.07564822,0.59437781,25.0,-1.094126,-5.064544,83.594818,4.1,-1.0,572.0
195.85,-128.07552276500002,0.59439004,24.0,-1.3813965,-4.0206265,83.687729,4.8,-0.8,572.0
195.9,-128.07539731,0.59440227,23.0,-1.668667,-2.976709,83.78064,5.5,-0.6,572.0
195.95,-128.075248365,0.5944168249999999,21.5,-1.900711,-1.9024005,83.89193750000001,6.05,-0.4,572.5
196.0,-128.07509942,0.59443138,20.0,-2.132755,-0.828092,84.003235,6.6,-0.2,573.0
196.05,-128.0749774,0.5944436049999999,19.5,-2.2378,-0.0447485,84.083191,6.85,-0.1,573.0
196.1,-128.07485538,0.59445583,19.0,-2.342845,0.738595,84.163147,7.1,0.0,573.0
196.15,-128.07469899,0.59447155,18.0,-2.3635200000000003,1.73888,84.24902349999999,7.35,0.15,573.0
196.2,-128.0745426,0.59448727,17.0,-2.384195,2.739165,84.3349,7.6,0.3,573.0
196.25,-128.07441656999998,0.594500075,16.5,-2.321797,3.3819035,84.37936400000001,7.65,0.35,573.5
196.3,-128.07429054,0.59451288,16.0,-2.259399,4.024642,84.423828,7.7,0.4,574.0
196.35,-128.07413988,0.5945280150000001,15.5,-2.1128,4.80284,84.446396,7.7,0.45,574.0
196.4,-128.07398922,0.59454315,15.0,-1.966201,5.581038,84.468964,7.7,0.5,574.0
196.45,-128.073859755,0.5945565349999999,15.0,-1.804032,6.234509,84.464783,7.7,0.5,573.5
196.5,-128.07373029,0.59456992,15.0,-1.641863,6.88798,84.460602,7.7,0.5,573.0
196.55,-128.07358248999998,0.5945850500000001,15.0,-1.431158,7.6063695,84.434067,7.7,0.45,573.0
196.6,-128.07343469,0.59460018,15.0,-1.220453,8.324759,84.407532,7.7,0.4,573.0
196.65,-128.073305795,0.594613565,15.0,-1.007177,8.921332,84.37524450000001,7.7,0.35,573.0
196.7,-128.0731769,0.59462695,15.0,-0.793901,9.517905,84.342957,7.7,0.3,573.0
196.75,-128.073029675,0.594642085,15.5,-0.5915125,10.11655,84.301529,7.6,0.25,573.0
196.8,-128.07288245,0.59465722,16.0,-0.389124,10.715195,84.260101,7.5,0.2,573.0
196.85,-128.07275699500002,0.594670025,16.5,-0.2816335,11.18345,84.221298,7.35,0.1,572.5
196.9,-128.07263154,0.59468283,17.0,-0.174143,11.651705,84.182495,7.2,0.0,572.0
196.95,-128.07247744,0.59469912,17.5,-0.1994004999999999,12.173088,84.1369325,7.050000000000001,0.0,572.0
197.0,-128.07232334,0.59471541,18.0,-0.224658,12.694471,84.09137,6.9,-0.0,572.0
197.05,-128.07219558999998,0.594728215,19.0,-0.3975039999999999,13.148144,84.0549625,6.75,-0.05,571.5
197.1,-128.07206784,0.59474102,20.0,-0.57035,13.601817,84.018555,6.6,-0.1,571.0
197.15,-128.071920615,0.59475673,21.0,-0.8540700000000001,14.081654,83.978928,6.5,-0.1,571.0
197.2,-128.07177339,0.59477244,22.0,-1.13779,14.561491,83.939301,6.4,-0.1,571.0
197.25,-128.071647935,0.594785245,23.0,-1.433489,14.9159515,83.9102175,6.25,-0.05,571.0
197.3,-128.07152248,0.59479805,24.0,-1.729188,15.270412,83.881134,6.1,-0.0,571.0
197.35,-128.07138098500002,0.594813175,25.5,-2.2068725,15.5780165,83.8486175,5.9,0.0,570.5
197.4,-128.07123949,0.5948283,27.0,-2.684557,15.885621,83.816101,5.7,0.0,570.0
197.45,-128.071104865,0.5948428450000001,28.5,-3.3184195,16.075674499999998,83.784607,5.4,0.05,569.5
197.5,-128.07097024,0.59485739,30.0,-3.952282,16.265728,83.753113,5.1,0.1,569.0
197.55,-128.07084765000002,0.59487019,31.5,-4.632746,16.3702945,83.72543350000001,4.8,0.15,569.0
197.6,-128.07072506,0.59488299,33.0,-5.31321,16.474861,83.697754,4.5,0.2,569.0
197.65,-128.07057726,0.5948992799999999,35.0,-6.149338,16.51678,83.666046,4.1,0.25,568.5
197.7,-128.07042946,0.59491557,37.0,-6.985466,16.558699,83.634338,3.7,0.3,568.0
197.75,-128.07030458000003,0.594929525,38.5,-7.711663,16.528814500000003,83.6116485,3.4000000000000004,0.3,568.0
197.8,-128.0701797,0.59494348,40.0,-8.43786,16.49893,83.588959,3.1,0.3,568.0
197.85,-128.0700382,0.5949597600000001,42.0,-9.2834975,16.446906,83.5622405,2.75,0.35,567.5
197.9,-128.0698967,0.59497604,44.0,-10.129135,16.394882,83.535522,2.4,0.4,567.0
197.95,-128.069771245,0.59499,46.0,-10.945903,16.3949735,83.49633750000001,2.15,0.4,567.0
198.0,-128.06964579,0.59500396,48.0,-11.762671,16.395065,83.457153,1.9,0.4,567.0
198.05,-128.06950315,0.595020815,50.5,-12.652246,16.486494999999998,83.384567,1.7999999999999998,0.4,566.5
198.1,-128.06936051,0.59503767,53.0,-13.541821,16.577925,83.311981,1.7,0.4,566.0
198.15,-128.06923619999998,0.595052785,54.5,-14.402423,16.74906,83.22099299999999,1.7,0.4,566.0
198.2,-128.06911189,0.5950679,56.0,-15.263025,16.920195,83.130005,1.7,0.4,566.0
198.25,-128.06898701,0.59508301,58.0,-16.165141000000002,17.124382,83.0194855,1.75,0.4,565.5
198.3,-128.06886213,0.59509812,60.0,-17.067257,17.328569,82.908966,1.8,0.4,565.0
198.35,-128.06871949,0.59511613,62.5,-18.353401,17.595727500000002,82.7620695,1.85,0.45,565.0
198.4,-128.06857685,0.59513414,65.0,-19.639545,17.862886,82.615173,1.9,0.5,565.0
198.45,-128.068457695,0.595149825,67.0,-20.769675,18.0801725,82.4799805,1.95,0.55,564.5
198.5,-128.06833854,0.59516551,69.0,-21.899805,18.297459,82.344788,2.0,0.6,564.0
198.55,-128.068197045,0.59518467,71.5,-23.3928755,18.5827925,82.1419375,2.1,0.6,563.5
198.6,-128.06805555,0.59520383,74.0,-24.885946,18.868126,81.939087,2.2,0.6,563.0
198.65,-128.067937545,0.59522009,76.0,-26.1961485,19.1118315,81.7503665,2.25,0.6499999999999999,563.0
198.7,-128.06781954,0.59523635,78.0,-27.506351,19.355537,81.561646,2.3,0.7,563.0
198.75,-128.06767632999998,0.595257245,80.0,-29.224612,19.644823,81.29267899999999,2.35,0.75,562.5
198.8,-128.06753312,0.59527814,82.0,-30.942873,19.934109,81.023712,2.4,0.8,562.0
198.85,-128.06741282500002,0.59529671,84.5,-32.518626,20.153458,80.76972950000001,2.45,0.8500000000000001,561.5
198.9,-128.06729253,0.59531528,87.0,-34.094379,20.372807,80.515747,2.5,0.9,561.0
198.95,-128.06717166,0.595334425,89.5,-35.768482000000006,20.5440105,80.2636565,2.5,0.95,560.5
199.0,-128.06705079,0.59535357,92.0,-37.442585,20.715214,80.011566,2.5,1.0,560.0
199.05,-128.06691216500002,0.5953767649999999,94.5,-39.438532,20.8464385,79.7185975,2.45,1.0,559.5
199.1,-128.06677354,0.59539996,97.0,-41.434479,20.977663,79.425629,2.4,1.0,559.0
199.15,-128.06665668,0.595420835,99.0,-43.183773,21.048462,79.1834415,2.35,1.05,559.0
199.2,-128.06653982,0.59544171,101.0,-44.933067,21.119261,78.941254,2.3,1.1,559.0
199.25,-128.066404635,0.59546721,104.0,-47.256809,21.162345,78.6408845,2.2,1.1,558.5
199.3,-128.06626945,0.59549271,107.0,-49.580551,21.205429,78.340515,2.1,1.1,558.0
199.35,-128.06614973,0.5955158899999999,109.5,-51.5996015,21.2050295,78.085327,2.0,1.1,557.5
199.4,-128.06603001,0.59553907,112.0,-53.618652,21.20463,77.830139,1.9,1.1,557.0
199.45,-128.06591086499998,0.595563985,114.0,-55.794792,21.1790725,77.5694885,1.7999999999999998,1.1,556.5
199.5,-128.06579172,0.5955889,116.0,-57.970932,21.153515,77.308838,1.7,1.1,556.0
199.55,-128.06565482,0.59561844,119.5,-60.5030975,21.1038325,76.9864195,1.6,1.1,555.5
199.6,-128.06551792,0.59564798,123.0,-63.035263,21.05415,76.664001,1.5,1.1,555.0
199.65,-128.065403935,0.59567404,125.0,-65.28034600000001,20.9980385,76.3740535,1.45,1.1,555.0
199.7,-128.06528995,0.5957001,127.0,-67.525429,20.941927,76.084106,1.4,1.1,555.0
199.75,-128.06515305,0.595732525,130.0,-70.33274850000001,20.856886,75.70703850000001,1.35,1.1,554.0
199.8,-128.06501615,0.59576495,133.0,-73.140068,20.771845,75.329971,1.3,1.1,553.0
199.85,-128.06490273999998,0.5957938899999999,135.0,-75.41224650000001,20.6900005,74.97751600000001,1.35,1.1,553.0
199.9,-128.06478933,0.59582283,137.0,-77.684425,20.608156,74.625061,1.4,1.1,553.0
199.95,-128.06465644,0.59585756,140.0,-80.546047,20.484492000000003,74.1303785,1.45,1.1,552.5
200.0,-128.06452355,0.59589229,143.0,-83.407669,20.360828,73.635696,1.5,1.1,552.0
200.05,-128.06440957,0.59592354,145.5,-85.966404,20.219031,73.1269835,1.6,1.15,551.5
200.1,-128.06429559,0.59595479,148.0,-88.525139,20.077234,72.618271,1.7,1.2,551.0
200.15,-128.06418046,0.595987775,150.0,-91.0022925,19.894739,72.025429,1.85,1.2,550.5
200.2,-128.06406533,0.59602076,152.0,-93.479446,19.712244,71.432587,2.0,1.2,550.0
200.25,-128.06393416999998,0.596060675,154.5,-96.4083785,19.4165485,70.70309449999999,2.25,1.25,550.0
200.3,-128.06380301,0.59610059,157.0,-99.337311,19.120853,69.973602,2.5,1.3,550.0
200.35,-128.06369246499997,0.5961353,159.5,-101.7166785,18.812352,69.3795925,2.65,1.3,549.5
200.4,-128.06358192,0.59617001,162.0,-104.096046,18.503851,68.785583,2.8,1.3,549.0
200.45,-128.063449045,0.59621512,164.5,-106.739082,18.072219,68.12346600000001,2.95,1.35,548.5
200.5,-128.06331617,0.59626023,167.0,-109.382118,17.640587,67.461349,3.1,1.4,548.0
200.55,-128.063206205,0.596298975,168.5,-111.457245,17.177781,66.934738,3.2,1.4,547.5
200.6,-128.06309624,0.59633772,170.0,-113.532372,16.714975,66.408127,3.3,1.4,547.0
200.65,-128.062969095,0.59638513,173.0,-115.2765885,16.1374155,65.81594849999999,3.45,1.35,546.5
200.7,-128.06284195,0.59643254,176.0,-117.020805,15.559856,65.22377,3.6,1.3,546.0
200.75,-128.062731985,0.5964759,177.5,-118.0062825,15.0471485,64.7347565,3.7,1.2000000000000002,546.0
200.8,-128.06262202,0.59651926,179.0,-118.99176,14.534441,64.245743,3.8,1.1,546.0
200.85,-128.06249144499998,0.5965730149999999,181.0,-119.7758215,13.8314445,63.6920775,3.95,1.0,545.5
200.9,-128.06236087,0.59662677,183.0,-120.559883,13.128448,63.138412,4.1,0.9,545.0
200.95,-128.062250335,0.59667417,185.0,-120.9230765,12.535973,62.6608045,4.25,0.75,545.0
201.0,-128.0621398,0.59672157,187.0,-121.28627,11.943498,62.183197,4.4,0.6,545.0
201.05,-128.06201954,0.596775895,189.0,-121.516403,11.3113415,61.6705935,4.5,0.4499999999999999,544.5
201.1,-128.06189928,0.59683022,191.0,-121.746536,10.679185,61.15799,4.6,0.3,544.0
201.15,-128.061787035,0.5968833849999999,192.0,-121.877197,10.0864705,60.6938175,4.65,0.2,544.0
201.2,-128.06167479,0.59693655,193.0,-122.007858,9.493756,60.229645,4.7,0.1,544.0
201.25,-128.06156426500002,0.596991445,195.0,-122.080467,8.9915075,59.8366015,4.7,0.0,543.5
201.3,-128.06145374,0.59704634,197.0,-122.153076,8.489259,59.443558,4.7,-0.1,543.0
201.35,-128.06133004499998,0.5971099,198.0,-122.165657,8.0125,59.1313705,4.5,-0.15,543.0
201.4,-128.06120635,0.59717346,199.0,-122.178238,7.535741,58.819183,4.3,-0.2,543.0
201.45,-128.061096405,0.5972323900000001,200.5,-122.01857,7.1815155,58.604721,4.1,-0.25,543.0
201.5,-128.06098646,0.59729132,202.0,-121.858902,6.82729,58.390259,3.9,-0.3,543.0
201.55,-128.06086678,0.597358335,203.0,-121.3983115,6.4989075,58.177376,3.65,-0.3,543.0
201.6,-128.0607471,0.59742535,204.0,-120.937721,6.170525,57.964493,3.4,-0.3,543.0
201.65,-128.060641735,0.5974860049999999,205.0,-120.3710555,5.9352175,57.8155135,3.15,-0.3,542.5
201.7,-128.06053637,0.59754666,206.0,-119.80439,5.69991,57.666534,2.9,-0.3,542.0
201.75,-128.060408105,0.5976223350000001,207.0,-118.955391,5.433517,57.516418,2.55,-0.3,542.0
201.8,-128.06027984,0.59769801,208.0,-118.106392,5.167124,57.366302,2.2,-0.3,542.0
201.85,-128.06017677,0.597760975,209.0,-117.478611,4.9988915,57.260559,2.0,-0.3,542.5
201.9,-128.0600737,0.59782394,210.0,-116.85083,4.830659,57.154816,1.8,-0.3,543.0
201.95,-128.05996834,0.59788921,210.5,-116.0624505,4.643449,57.0320055,1.6,-0.25,543.0
202.0,-128.05986298,0.59795448,211.0,-115.274071,4.456239,56.909195,1.4,-0.2,543.0
202.05,-128.05974387999998,0.598030725,211.5,-114.264225,4.2410555,56.7293015,1.25,-0.15,543.0
202.1,-128.05962478,0.59810697,212.0,-113.254379,4.025872,56.549408,1.1,-0.1,543.0
202.15,-128.05951942500002,0.598175125,212.5,-112.1715125,3.82459,56.3733675,1.0,-0.05,543.0
202.2,-128.05941407,0.59824328,213.0,-111.088646,3.623308,56.197327,0.9,-0.0,543.0
202.25,-128.05929784,0.59832067,213.5,-109.6459275,3.4020735,56.022720500000005,0.8,0.0,543.0
202.3,-128.05918161,0.59839806,214.0,-108.203209,3.180839,55.848114,0.7,0.0,543.0
202.35,-128.05908026,0.5984656349999999,214.5,-106.736969,2.9975025000000004,55.7417525,0.55,0.0,543.0
202.4,-128.05897891,0.59853321,215.0,-105.270729,2.814166,55.635391,0.4,0.0,543.0
202.45,-128.058858675,0.598616375,215.5,-103.2697715,2.59636,55.5538635,0.25,0.0,543.5
202.5,-128.05873844,0.59869954,216.0,-101.268814,2.378554,55.472336,0.1,0.0,544.0
202.55,-128.05863996,0.5987676900000001,216.0,-99.2058565,2.169352,55.4225465,0.0,0.0,544.0
202.6,-128.05854148,0.59883584,216.0,-97.142899,1.96015,55.372757,-0.1,0.0,544.0
202.65,-128.058422385,0.59892016,216.5,-94.55069,1.705069,55.3111115,-0.25,0.0,544.0
202.7,-128.05830329,0.59900448,217.0,-91.958481,1.449988,55.249466,-0.4,-0.0,544.0
202.75,-128.058203665,0.59907551,217.0,-89.6781655,1.227493,55.177948,-0.5,-0.05,544.5
202.8,-128.05810404,0.59914654,217.0,-87.39785,1.004998,55.10643,-0.6,-0.1,545.0
202.85,-128.057987245,0.599231435,217.5,-84.5068015,0.7275185000000001,54.9997865,-0.6499999999999999,-0.1,545.0
202.9,-128.05787045,0.59931633,218.0,-81.615753,0.450039,54.893143,-0.7,-0.1,545.0
202.95,-128.05777025,0.59938967,218.0,-79.1198845,0.2173595,54.781975,-0.75,-0.15,545.5
203.0,-128.05767005,0.59946301,218.0,-76.624016,-0.01532,54.670807,-0.8,-0.2,546.0
203.05,-128.057555545,0.5995473250000001,218.0,-73.71101,-0.273452,54.5127565,-0.8500000000000001,-0.25,546.0
203.1,-128.05744104,0.59963164,218.0,-70.798004,-0.531584,54.354706,-0.9,-0.3,546.0
203.15,-128.05734199,0.599705555,218.0,-68.0763625,-0.7528705,54.190262,-0.9,-0.35,546.0
203.2,-128.05724294,0.59977947,218.0,-65.354721,-0.974157,54.025818,-0.9,-0.4,546.0
203.25,-128.05714389500002,0.599854545,218.0,-62.7844145,-1.1634535,53.840545500000005,-0.9,-0.45,546.5
203.3,-128.05704485,0.59992962,218.0,-60.214108,-1.35275,53.655273,-0.9,-0.5,547.0
203.35,-128.056929195,0.6000173950000001,217.5,-57.079081,-1.5585535,53.4312515,-0.9,-0.55,547.0
203.4,-128.05681354,0.60010517,217.0,-53.944054,-1.764357,53.20723,-0.9,-0.6,547.0
203.45,-128.056715065,0.60018024,217.0,-51.215931,-1.9247685,53.0195925,-0.9,-0.6499999999999999,547.5
203.5,-128.05661659,0.60025531,217.0,-48.487808,-2.08518,52.831955,-0.9,-0.7,548.0
203.55,-128.05650495,0.6003419249999999,217.0,-45.4816645,-2.246649,52.6276625,-0.9,-0.75,548.0
203.6,-128.05639331,0.60042854,217.0,-42.475521,-2.408118,52.42337,-0.9,-0.8,548.0
203.65,-128.05629197500002,0.60050765,217.0,-39.7292175,-2.543892,52.250251500000005,-0.9,-0.8,548.5
203.7,-128.05619064,0.60058676,217.0,-36.982914,-2.679666,52.077133,-0.9,-0.8,549.0
203.75,-128.056077855,0.6006751100000001,216.5,-33.901803,-2.81473,51.896713000000005,-0.95,-0.8500000000000001,549.0
203.8,-128.05596507,0.60076346,216.0,-30.820692,-2.949794,51.716293,-1.0,-0.9,549.0
203.85,-128.05586717,0.600841415,216.0,-28.3418085,-3.040927,51.5661085,-1.0,-0.9,549.5
203.9,-128.05576927,0.60091937,216.0,-25.862925,-3.13206,51.415924,-1.0,-0.9,550.0
203.95,-128.05565534,0.60101003,215.5,-22.7521935,-3.223369,51.2531435,-1.05,-0.9,550.0
204.0,-128.05554141,0.60110069,215.0,-19.641462,-3.314678,51.090363,-1.1,-0.9,550.0
204.05,-128.05544121999998,0.60118095,215.0,-17.042543000000002,-3.371214,50.956955,-1.1,-0.9,550.5
204.1,-128.05534103,0.60126121,215.0,-14.443624,-3.42775,50.823547,-1.1,-0.9,551.0
204.15,-128.05524485,0.60133859,214.5,-11.9292235,-3.464035,50.705879,-1.1,-0.95,551.0
204.2,-128.05514867,0.60141597,214.0,-9.414823,-3.50032,50.588211,-1.1,-1.0,551.0
204.25,-128.055035885,0.6015072,213.5,-6.628405,-3.521197,50.4724275,-1.1,-1.0,551.5
204.3,-128.0549231,0.60159843,213.0,-3.841987,-3.542074,50.356644,-1.1,-1.0,552.0
204.35,-128.05482406,0.6016786949999999,213.0,-1.7657634999999998,-3.559376,50.284218,-1.05,-1.0,552.5
204.4,-128.05472502,0.60175896,213.0,0.31046,-3.576678,50.211792,-1.0,-1.0,553.0
204.45,-128.05461338,0.601849615,212.5,2.505269,-3.616493,50.1633225,-1.05,-0.95,553.0
204.5,-128.05450174,0.60194027,212.0,4.700078,-3.656308,50.114853,-1.1,-0.9,553.0
204.55,-128.05440498500002,0.602019375,211.5,6.323754,-3.6989135,50.0994415,-1.1,-0.9,553.5
204.6,-128.05430823,0.60209848,211.0,7.94743,-3.741519,50.08403,-1.1,-0.9,554.0
204.65,-128.05419774,0.60218856,210.5,9.434745,-3.787174,50.0963285,-1.1,-0.8500000000000001,554.5
204.7,-128.05408725,0.60227864,210.0,10.92206,-3.832829,50.108627,-1.1,-0.8,555.0
204.75,-128.053988205,0.6023589,210.0,11.8475095,-3.867429,50.1522595,-1.1,-0.75,555.0
204.8,-128.05388916,0.60243916,210.0,12.772959,-3.902029,50.195892,-1.1,-0.7,555.0
204.85,-128.053777525,0.602530395,209.5,13.4148055,-3.9429765,50.2777175,-1.05,-0.6,555.5
204.9,-128.05366589,0.60262163,209.0,14.056652,-3.983924,50.359543,-1.0,-0.5,556.0
204.95,-128.05356627499998,0.6027030449999999,208.5,14.334945,-4.021497999999999,50.450371,-1.0,-0.45,556.5
205.0,-128.05346666,0.60278446,208.0,14.613238,-4.059072,50.541199,-1.0,-0.4,557.0
205.05,-128.05335502,0.60287512,207.5,14.7326085,-4.093377,50.654587,-0.95,-0.3,557.5
205.1,-128.05324338,0.60296578,207.0,14.851979,-4.127682,50.767975,-0.9,-0.2,558.0
205.15,-128.05314491,0.603045465,206.5,14.837129,-4.154808,50.86763,-0.8500000000000001,-0.15,558.0
205.2,-128.05304644,0.60312515,206.0,14.822279,-4.181934,50.967285,-0.8,-0.1,558.0
205.25,-128.05295026,0.6032031,205.5,14.7031105,-4.2065920000000006,51.062622,-0.8,-0.05,558.5
205.3,-128.05285408,0.60328105,205.0,14.583942,-4.23125,51.157959,-0.8,0.0,559.0
205.35,-128.05274015,0.6033734399999999,204.5,14.298551,-4.263807,51.2641525,-0.75,0.1,559.5
205.4,-128.05262622,0.60346583,204.0,14.01316,-4.296364,51.370346,-0.7,0.2,560.0
205.45,-128.052524315,0.6035478249999999,203.5,13.618345,-4.326981,51.4570615,-0.7,0.2,560.5
205.5,-128.05242241,0.60362982,203.0,13.22353,-4.357598,51.543777,-0.7,0.2,561.0
205.55,-128.052310195,0.6037193249999999,202.5,12.7024945,-4.3948925,51.628799,-0.7,0.25,561.5
205.6,-128.05219798,0.60380883,202.0,12.181459,-4.432187,51.713821,-0.7,0.3,562.0
205.65,-128.052100085,0.60388736,202.0,11.666413,-4.4748265,51.777069,-0.7,0.3,562.0
205.7,-128.05200219,0.60396589,202.0,11.151367,-4.517466,51.840317,-0.7,0.3,562.0
205.75,-128.051885395,0.60405886,201.0,10.4017035,-4.581567,51.9023895,-0.75,0.35,562.5
205.8,-128.0517686,0.60415183,200.0,9.65204,-4.645668,51.964462,-0.8,0.4,563.0
205.85,-128.05166841,0.604232095,199.5,8.988588,-4.693873,52.0094605,-0.8,0.4,563.5
205.9,-128.05156822,0.60431236,199.0,8.325136,-4.742078,52.054459,-0.8,0.4,564.0
205.95,-128.051453145,0.60440302,198.5,7.6072645,-4.7841235,52.09536,-0.8,0.4,564.5
206.0,-128.05133807,0.60449368,198.0,6.889393,-4.826169,52.136261,-0.8,0.4,565.0
206.05,-128.05123731,0.6045739450000001,197.5,6.281336,-4.8556095,52.160492,-0.8,0.4,565.0
206.1,-128.05113655,0.60465421,197.0,5.673279,-4.88505,52.184723,-0.8,0.4,565.0
206.15,-128.051019755,0.6047465999999999,196.5,5.0741055,-4.904144,52.2012025,-0.8,0.35,565.5
206.2,-128.05090296,0.60483899,196.0,4.474932,-4.923238,52.217682,-0.8,0.3,566.0
206.25,-128.05080219500002,0.6049180999999999,195.5,4.028278,-4.928622,52.2237475,-0.8,0.3,566.5
206.3,-128.05070143,0.60499721,195.0,3.581624,-4.934006,52.229813,-0.8,0.3,567.0
206.35,-128.050581775,0.605091335,194.5,3.1795085,-4.94308,52.223488,-0.75,0.25,567.5
