Time,Longitude,Latitude,Altitude,Roll,Pitch,Yaw,AOA,AOS,TAS
166.4,-128.06890654,0.60350822,1106.0,167.093475,-26.82284,-93.594063,12.6,-0.8,327.0
166.45,-128.068977005,0.603498925,1105.0,168.1940685,-27.478835,-93.7020305,12.4,-0.8500000000000001,327.5
166.5,-128.06904747,0.60348963,1104.0,169.294662,-28.13483,-93.809998,12.2,-0.9,328.0
166.55,-128.069128815,0.60347975,1102.5,170.74813799999998,-28.9235015,-93.9881555,11.9,-0.95,329.0
166.6,-128.06921016,0.60346987,1101.0,172.201614,-29.712173,-94.166313,11.6,-1.0,330.0
166.65,-128.069279475,0.60346173,1099.5,173.50560000000002,-30.410259,-94.353157,11.4,-1.0,330.5
166.7,-128.06934879,0.60345359,1098.0,174.809586,-31.108345,-94.540001,11.2,-1.0,331.0
166.75,-128.069430135,0.6034442849999999,1096.0,176.26560999999998,-31.894951,-94.8042605,11.0,-0.95,332.0
166.8,-128.06951148,0.60343498,1094.0,177.721634,-32.681557,-95.06852,10.8,-0.9,333.0
166.85,-128.06958136999998,0.60342684,1092.5,10.64638500000001,-33.4121555,-95.3353885,10.65,-0.9,333.5
166.9,-128.06965126,0.6034187,1091.0,-156.428864,-34.142754,-95.602257,10.5,-0.9,334.0
166.95,-128.06972974,0.6034099749999999,1088.5,-166.627083,-34.956608,-95.9440195,10.4,-0.8,335.5
167.0,-128.06980822,0.60340125,1086.0,-176.825302,-35.770462,-96.285782,10.3,-0.7,337.0
167.05,-128.06987868,0.6033931100000001,1084.5,-175.51660900000002,-36.525255,-96.6520615,10.25,-0.6499999999999999,337.5
167.1,-128.06994914,0.60338497,1083.0,-174.207916,-37.280048,-97.018341,10.2,-0.6,338.0
167.15,-128.07001674,0.60337683,1080.5,-172.870216,-38.113346,-97.407192,10.25,-0.55,339.5
167.2,-128.07008434,0.60336869,1078.0,-171.532516,-38.946644,-97.796043,10.3,-0.5,341.0
167.25,-128.070161675,0.60335939,1075.5,-170.0768355,-39.8714865,-98.2999685,10.35,-0.45,342.0
167.3,-128.07023901,0.60335009,1073.0,-168.621155,-40.796329,-98.803894,10.4,-0.4,343.0
167.35,-128.070304315,0.603341955,1071.0,-167.3020785,-41.5437675,-99.277611,10.45,-0.35,344.0
167.4,-128.07036962,0.60333382,1069.0,-165.983002,-42.291206,-99.751328,10.5,-0.3,345.0
167.45,-128.07044581000002,0.60332452,1066.5,-164.24999250000002,-43.186216,-100.359032,10.5,-0.25,346.0
167.5,-128.070522,0.60331522,1064.0,-162.516983,-44.081226,-100.966736,10.5,-0.2,347.0
167.55,-128.070585585,0.60330651,1061.0,-161.1807325,-44.783737,-101.529682,10.55,-0.2,348.0
167.6,-128.07064917,0.6032978,1058.0,-159.844482,-45.486248,-102.092628,10.6,-0.2,349.0
167.65,-128.07072249499998,0.60328735,1055.0,-158.2286605,-46.2921255,-102.8051715,10.65,-0.15,350.5
167.7,-128.07079582,0.6032769,1052.0,-156.612839,-47.098003,-103.517715,10.7,-0.1,352.0
167.75,-128.07085768500002,0.6032676100000001,1049.5,-155.0111925,-47.793783,-104.1664085,10.7,-0.1,353.0
167.8,-128.07091955,0.60325832,1047.0,-153.409546,-48.489563,-104.815102,10.7,-0.1,354.0
167.85,-128.070989435,0.60324672,1043.0,-151.7018815,-49.171488,-105.582985,10.65,-0.1,355.5
167.9,-128.07105932,0.60323512,1039.0,-149.994217,-49.853413,-106.350868,10.6,-0.1,357.0
167.95,-128.07111889499998,0.603224685,1036.5,-148.6143115,-50.346922000000006,-106.9989545,10.5,-0.1,358.0
168.0,-128.07117847,0.60321425,1034.0,-147.234406,-50.840431,-107.647041,10.4,-0.1,359.0
168.05,-128.07124835000002,0.603201495,1030.5,-145.4256745,-51.3454095,-108.383682,10.2,-0.1,360.5
168.1,-128.07131823,0.60318874,1027.0,-143.616943,-51.850388,-109.120323,10.0,-0.1,362.0
168.15,-128.07137666,0.603176575,1023.0,-142.052841,-52.1740095,-109.677883,9.75,-0.1,363.5
168.2,-128.07143509,0.60316441,1019.0,-140.488739,-52.497631,-110.235443,9.5,-0.1,365.0
168.25,-128.07150095999998,0.6031499300000001,1015.5,-138.7491915,-52.744318,-110.773678,9.1,-0.1,366.5
168.3,-128.07156683,0.60313545,1012.0,-137.009644,-52.991005,-111.311913,8.7,-0.1,368.0
168.35,-128.07162124500002,0.6031227100000001,1009.0,-135.511208,-53.1110155,-111.649582,8.35,-0.1,369.0
168.4,-128.07167566,0.60310997,1006.0,-134.012772,-53.231026,-111.987251,8.0,-0.1,370.0
168.45,-128.07173122,0.603095495,1002.0,-132.40885200000002,-53.2974625,-112.256771,7.5,-0.1,372.0
168.5,-128.07178678,0.60308102,998.0,-130.804932,-53.363899,-112.526291,7.0,-0.1,374.0
168.55,-128.07184806499998,0.6030642399999999,993.5,-129.070908,-53.405382,-112.759579,6.55,-0.1,375.5
168.6,-128.07190935,0.60304746,989.0,-127.336884,-53.446865,-112.992867,6.1,-0.1,377.0
168.65,-128.071961475,0.6030324149999999,985.0,-125.632824,-53.4807035,-113.173958,5.65,-0.1,378.5
168.7,-128.0720136,0.60301737,981.0,-123.928764,-53.514542,-113.355049,5.2,-0.1,380.0
168.75,-128.0720766,0.6029977,976.5,-121.8520125,-53.5730175,-113.6104355,4.85,-0.05,382.0
168.8,-128.0721396,0.60297803,972.0,-119.775261,-53.631493,-113.865822,4.5,0.0,384.0
168.85,-128.07219,0.60296126,968.5,-118.0018005,-53.713468500000005,-114.165417,4.3,0.0,385.0
168.9,-128.0722404,0.60294449,965.0,-116.22834,-53.795444,-114.465012,4.1,0.0,386.0
168.95,-128.07230054,0.60292367,961.0,-113.7226065,-53.946714,-114.9908795,3.95,0.05,388.0
169.0,-128.07236068,0.60290285,957.0,-111.216873,-54.097984,-115.516747,3.8,0.1,390.0
169.05,-128.07241165,0.602884345,952.5,-109.032585,-54.238796,-116.128872,3.8,0.1,391.5
169.1,-128.07246262,0.60286584,948.0,-106.848297,-54.379608,-116.740997,3.8,0.1,393.0
169.15,-128.0725113,0.60284676,944.0,-104.2957075,-54.536541,-117.4613495,3.9,0.05,394.5
169.2,-128.07255998,0.60282768,940.0,-101.743118,-54.693474,-118.181702,4.0,0.0,396.0
169.25,-128.072617825,0.602804555,934.5,-98.9415585,-54.847645,-119.18351,4.15,-0.05,398.5
169.3,-128.07267567,0.60278143,929.0,-96.139999,-55.001816,-120.185318,4.3,-0.1,401.0
169.35,-128.072723775,0.6027600449999999,925.0,-93.882259,-55.101635,-121.1158655,4.449999999999999,-0.1,402.0
169.4,-128.07277188,0.60273866,921.0,-91.624519,-55.201454,-122.046413,4.6,-0.1,403.0
169.45,-128.072829145,0.6027126549999999,916.5,-88.95792,-55.2758825,-123.1832195,4.75,-0.15,405.0
169.5,-128.07288641,0.60268665,912.0,-86.291321,-55.350311,-124.320026,4.9,-0.2,407.0
169.55,-128.072932795,0.602663535,907.0,-84.2955855,-55.370676,-125.2420175,5.050000000000001,-0.3,408.5
169.6,-128.07297918,0.60264042,902.0,-82.29985,-55.391041,-126.164009,5.2,-0.4,410.0
169.65,-128.07303415500002,0.6026109550000001,897.0,-79.920383,-55.3749505,-127.185974,5.300000000000001,-0.45,412.0
169.7,-128.07308913,0.60258149,892.0,-77.540916,-55.35886,-128.207939,5.4,-0.5,414.0
169.75,-128.07313494,0.60255607,887.0,-75.61137,-55.318943,-128.948265,5.4,-0.55,415.5
169.8,-128.07318075,0.60253065,882.0,-73.681824,-55.279026,-129.688591,5.4,-0.6,417.0
169.85,-128.073232855,0.60249946,877.0,-71.58521300000001,-55.221983,-130.38071050000002,5.35,-0.6499999999999999,419.0
169.9,-128.07328496,0.60246827,872.0,-69.488602,-55.16494,-131.07283,5.3,-0.7,421.0
169.95,-128.07333076499998,0.60243881,868.0,-67.60779600000001,-55.119551,-131.503601,5.15,-0.75,422.5
170.0,-128.07337657,0.60240935,864.0,-65.72699,-55.074162,-131.934372,5.0,-0.8,424.0
170.05,-128.073420085,0.602379895,859.0,-63.96361,-55.054583,-132.1648295,4.75,-0.8,425.5
170.1,-128.0734636,0.60235044,854.0,-62.20023,-55.035004,-132.395287,4.5,-0.8,427.0
170.15,-128.07351513,0.6023134800000001,849.0,-60.0994225,-55.0607795,-132.438618,4.15,-0.8500000000000001,429.0
170.2,-128.07356666,0.60227652,844.0,-57.998615,-55.086555,-132.481949,3.8,-0.9,431.0
170.25,-128.07361017,0.602244185,839.5,-56.0878315,-55.1538715,-132.378321,3.45,-0.9,432.5
170.3,-128.07365368,0.60221185,835.0,-54.177048,-55.221188,-132.274693,3.1,-0.9,434.0
170.35,-128.07370578,0.602171425,829.0,-51.8703635,-55.3226685,-132.103228,2.6,-0.8500000000000001,436.0
170.4,-128.07375788,0.602131,823.0,-49.563679,-55.424149,-131.931763,2.1,-0.8,438.0
170.45,-128.073801385,0.60209578,818.5,-47.9024085,-55.4491615,-131.89773,1.9,-0.8,439.5
170.5,-128.07384489,0.60206056,814.0,-46.241138,-55.474174,-131.863697,1.7,-0.8,441.0
170.55,-128.07389527,0.602019565,809.0,-44.427103,-55.3712575,-132.02399250000002,1.6,-0.7,443.0
170.6,-128.07394565,0.60197857,804.0,-42.613068,-55.268341,-132.184288,1.5,-0.6,445.0
170.65,-128.07398973,0.601941615,798.5,-41.3868695,-55.111683,-132.3945025,1.55,-0.5,446.5
170.7,-128.07403381,0.60190466,793.0,-40.160671,-54.955025,-132.604717,1.6,-0.4,448.0
170.75,-128.074076745,0.6018677100000001,788.5,-39.229002,-54.769728,-132.82528100000002,1.65,-0.35,449.5
170.8,-128.07411968,0.60183076,784.0,-38.297333,-54.584431,-133.045845,1.7,-0.3,451.0
170.85,-128.074170625,0.601785725,777.5,-37.466484,-54.350134,-133.3034495,1.7999999999999998,-0.2,453.5
170.9,-128.07422157,0.60174069,771.0,-36.635635,-54.115837,-133.561054,1.9,-0.1,456.0
170.95,-128.074264505,0.6017020049999999,767.0,-36.1811485,-53.9470425,-133.7572785,1.95,0.0,457.5
171.0,-128.07430744,0.60166332,763.0,-35.726662,-53.778248,-133.953503,2.0,0.1,459.0
171.05,-128.07435896,0.60161598,757.5,-35.419715999999994,-53.605696,-134.1559185,2.0,0.15,460.5
171.1,-128.07441048,0.60156864,752.0,-35.11277,-53.433144,-134.358334,2.0,0.2,462.0
171.15,-128.074455125,0.6015270749999999,746.5,-35.0770475,-53.310152,-134.5186825,1.95,0.25,464.0
171.2,-128.07449977,0.60148551,741.0,-35.041325,-53.18716,-134.679031,1.9,0.3,466.0
171.25,-128.07455129,0.601436435,735.5,-35.2853815,-53.101303,-134.8356015,1.85,0.4,467.5
171.3,-128.07460281,0.60138736,730.0,-35.529438,-53.015446,-134.992172,1.8,0.5,469.0
171.35,-128.07464574,0.6013457950000001,725.5,-35.9418505,-52.9816705,-135.1002995,1.7000000000000002,0.5,470.5
171.4,-128.07468867,0.60130423,721.0,-36.354263,-52.947895,-135.208427,1.6,0.5,472.0
171.45,-128.07473961,0.601252855,715.5,-37.063875,-52.931978,-135.345129,1.5,0.55,474.0
171.5,-128.07479055,0.60120148,710.0,-37.773487,-52.916061,-135.481831,1.4,0.6,476.0
171.55,-128.07483577,0.6011558749999999,704.0,-38.4228,-52.9203125,-135.606205,1.25,0.6,477.5
171.6,-128.07488099,0.60111027,698.0,-39.072113,-52.924564,-135.730579,1.1,0.6,479.0
171.65,-128.074931355,0.601058315,692.5,-39.8006115,-52.931299,-135.9093685,1.0,0.6,481.0
171.7,-128.07498172,0.60100636,687.0,-40.52911,-52.938034,-136.088158,0.9,0.6,483.0
171.75,-128.075026365,0.60096018,681.5,-40.997925,-52.9193685,-136.3087215,0.9,0.6,485.0
171.8,-128.07507101,0.600914,676.0,-41.46674,-52.900703,-136.529285,0.9,0.6,487.0
171.85,-128.07511737,0.6008643549999999,671.5,-41.77582,-52.8674925,-136.836208,0.9,0.55,488.0
171.9,-128.07516373,0.60081471,667.0,-42.0849,-52.834282,-137.143131,0.9,0.5,489.0
171.95,-128.075215245,0.600759295,661.0,-42.1555615,-52.785103,-137.5360525,0.9,0.45,491.0
172.0,-128.07526676,0.60070388,655.0,-42.226223,-52.735924,-137.928974,0.9,0.4,493.0
172.05,-128.07531197,0.6006542349999999,649.5,-42.0720655,-52.662121,-138.341486,1.0,0.3,495.0
172.1,-128.07535718,0.60060459,644.0,-41.917908,-52.588318,-138.753998,1.1,0.2,497.0
172.15,-128.07540983500002,0.600545715,638.0,-41.6142045,-52.488354,-139.25432999999998,1.2000000000000002,0.15,498.5
172.2,-128.07546249,0.60048684,632.0,-41.310501,-52.38839,-139.754662,1.3,0.1,500.0
172.25,-128.075505985,0.600436625,627.5,-40.987911,-52.30032,-140.15373649999998,1.35,0.05,501.5
172.3,-128.07554948,0.60038641,623.0,-40.665321,-52.21225,-140.552811,1.4,-0.0,503.0
172.35,-128.075600985,0.60032638,616.0,-40.3075195,-52.12262,-140.9726715,1.45,-0.05,505.0
172.4,-128.07565249,0.60026635,609.0,-39.949718,-52.03299,-141.392532,1.5,-0.1,507.0
172.45,-128.075697705,0.6002126699999999,604.0,-39.6589315,-51.96295,-141.72706599999998,1.5,-0.15,508.5
172.5,-128.07574292,0.60015899,599.0,-39.368145,-51.89291,-142.0616,1.5,-0.2,510.0
172.55,-128.07579213000002,0.6000983849999999,593.5,-39.1185035,-51.8469275,-142.334198,1.45,-0.2,511.5
172.6,-128.07584134,0.60003778,588.0,-38.868862,-51.800945,-142.606796,1.4,-0.2,513.0
172.65,-128.075885405,0.59998295,582.0,-38.7247105,-51.7967125,-142.7674805,1.2999999999999998,-0.2,515.0
172.7,-128.07592947,0.59992812,576.0,-38.580559,-51.79248,-142.928165,1.2,-0.2,517.0
172.75,-128.075973535,0.599872135,571.0,-38.476677,-51.80064,-143.051544,1.05,-0.2,518.0
172.8,-128.0760176,0.59981615,566.0,-38.372795,-51.8088,-143.174923,0.9,-0.2,519.0
172.85,-128.07607195999998,0.59974516,560.0,-38.22882250000001,-51.7995835,-143.321232,0.8,-0.2,521.0
172.9,-128.07612632,0.59967417,554.0,-38.08485,-51.790367,-143.467541,0.7,-0.2,523.0
172.95,-128.076166945,0.5996204949999999,548.0,-37.983963,-51.7703095,-143.5677415,0.6499999999999999,-0.15,524.5
173.0,-128.07620757,0.59956682,542.0,-37.883076,-51.750252,-143.667942,0.6,-0.1,526.0
173.05,-128.07626136,0.5994941,536.0,-37.729126,-51.712204,-143.7804605,0.5,-0.05,528.0
173.1,-128.07631515,0.59942138,530.0,-37.575176,-51.674156,-143.892979,0.4,-0.0,530.0
173.15,-128.07635749000002,0.599363085,525.5,-37.4548835,-51.644165,-143.9466765,0.35,0.05,531.5
173.2,-128.07639983,0.59930479,521.0,-37.334591,-51.614174,-144.000374,0.3,0.1,533.0
173.25,-128.0764519,0.599232075,513.5,-37.186462500000005,-51.577614,-144.019474,0.2,0.2,535.0
173.3,-128.07650397,0.59915936,506.0,-37.038334,-51.541054,-144.038574,0.1,0.3,537.0
173.35,-128.076547455,0.599098185,501.0,-36.9173185,-51.507578,-144.020353,0.05,0.35,538.0
173.4,-128.07659094,0.59903701,496.0,-36.796303,-51.474102,-144.002132,-0.0,0.4,539.0
173.45,-128.07664243,0.59896314,490.0,-36.6327095,-51.41642,-143.946756,-0.1,0.55,541.0
173.5,-128.07669392,0.59888927,484.0,-36.469116,-51.358738,-143.89138,-0.2,0.7,543.0
173.55,-128.076736835,0.598827515,478.0,-36.3236465,-51.29583,-143.8326835,-0.25,0.8,544.5
173.6,-128.07677975,0.59876576,472.0,-36.178177,-51.232922,-143.773987,-0.3,0.9,546.0
173.65,-128.076822085,0.598703435,467.0,-35.998178499999995,-51.1515675,-143.7146035,-0.3,1.0,547.5
173.7,-128.07686442,0.59864111,462.0,-35.81818,-51.070213,-143.65522,-0.3,1.1,549.0
173.75,-128.07691534,0.5985666599999999,455.5,-35.5456905,-50.9570825,-143.5921975,-0.35,1.25,551.0
173.8,-128.07696626,0.59849221,449.0,-35.273201,-50.843952,-143.529175,-0.4,1.4,553.0
173.85,-128.077010885,0.59842527,443.0,-34.960376499999995,-50.7367475,-143.4906905,-0.35,1.5,554.5
173.9,-128.07705551,0.59835833,437.0,-34.647552,-50.629543,-143.452206,-0.3,1.6,556.0
173.95,-128.07710528500002,0.5982838800000001,430.5,-34.2471675,-50.5217415,-143.4286405,-0.3,1.7000000000000002,557.5
174.0,-128.07715506,0.59820943,424.0,-33.846783,-50.41394,-143.405075,-0.3,1.8,559.0
174.05,-128.07719797,0.5981447950000001,419.0,-33.412472,-50.3229825,-143.397705,-0.3,1.9,560.5
174.1,-128.07724088,0.59808016,414.0,-32.978161,-50.232025,-143.390335,-0.3,2.0,562.0
174.15,-128.077295805,0.59799706,406.5,-32.424226000000004,-50.1439095,-143.3977605,-0.3,2.05,564.0
174.2,-128.07735073,0.59791396,399.0,-31.870291,-50.055794,-143.405186,-0.3,2.1,566.0
174.25,-128.07739478000002,0.59784644,394.0,-31.363182,-49.995144,-143.41959,-0.3,2.1,567.5
174.3,-128.07743883,0.59777892,389.0,-30.856073,-49.934494,-143.433994,-0.3,2.1,569.0
174.35,-128.07749032,0.5977004349999999,382.5,-30.2824115,-49.8849925,-143.460611,-0.3,2.1500000000000004,570.5
174.4,-128.07754181,0.59762195,376.0,-29.70875,-49.835491,-143.487228,-0.3,2.2,572.0
174.45,-128.077587005,0.597552125,369.5,-29.1891995,-49.813503,-143.5094545,-0.35,2.2,573.5
174.5,-128.0776322,0.5974823,363.0,-28.669649,-49.791515,-143.531681,-0.4,2.2,575.0
174.55,-128.07768369,0.59740266,356.5,-28.096198,-49.7925585,-143.547291,-0.45,2.2,576.5
174.6,-128.07773518,0.59732302,350.0,-27.522747,-49.793602,-143.562901,-0.5,2.2,578.0
174.65,-128.07777980499998,0.5972543450000001,345.0,-26.9964715,-49.816429,-143.5643295,-0.55,2.1500000000000004,579.5
174.7,-128.07782443,0.59718567,340.0,-26.470196,-49.839256,-143.565758,-0.6,2.1,581.0
174.75,-128.07787649,0.597103725,333.5,-25.9317455,-49.877403,-143.54652399999998,-0.7,2.1,582.5
174.8,-128.07792855,0.59702178,327.0,-25.393295,-49.91555,-143.52729,-0.8,2.1,584.0
174.85,-128.07797489,0.59695022,320.5,-24.9479065,-49.951439,-143.484554,-0.8500000000000001,2.1,585.5
174.9,-128.07802123,0.59687866,314.0,-24.502518,-49.987328,-143.441818,-0.9,2.1,587.0
174.95,-128.07807443000002,0.59679556,307.5,-24.0321915,-50.014992,-143.35567250000005,-0.95,2.1500000000000004,589.0
175.0,-128.07812763,0.59671246,301.0,-23.561865,-50.042656,-143.269527,-1.0,2.2,591.0
175.05,-128.07817511500002,0.59663917,294.5,-23.16453,-50.0433195,-143.1671275,-1.05,2.25,592.5
175.1,-128.0782226,0.59656588,288.0,-22.767195,-50.043983,-143.064728,-1.1,2.3,594.0
175.15,-128.07827237499998,0.59648855,282.5,-22.361293,-50.023195,-142.93825900000002,-1.1,2.35,595.0
175.2,-128.07832215,0.59641122,277.0,-21.955391,-50.002407,-142.81179,-1.1,2.4,596.0
175.25,-128.078375925,0.5963275450000001,270.5,-21.5496085,-49.9451005,-142.6914345,-1.1,2.5,598.0
175.3,-128.0784297,0.59624387,264.0,-21.143826,-49.887794,-142.571079,-1.1,2.6,600.0
175.35,-128.07847604,0.596172885,257.5,-20.8019325,-49.7835635,-142.5048885,-1.0,2.6500000000000004,601.5
175.4,-128.07852238,0.5961019,251.0,-20.460039,-49.679333,-142.438698,-0.9,2.7,603.0
175.45,-128.078580735,0.596011875,244.0,-20.090989,-49.4032535,-142.48445149999998,-0.7,2.75,604.5
175.5,-128.07863909,0.59592185,237.0,-19.721939,-49.127174,-142.530205,-0.5,2.8,606.0
175.55,-128.07868543,0.595850295,232.0,-19.3692685,-48.6343095,-142.7872565,-0.15,2.75,607.0
175.6,-128.07873177,0.59577874,227.0,-19.016598,-48.141445,-143.044308,0.2,2.7,608.0
175.65,-128.07878955,0.595689865,219.0,-18.385559,-47.1538335,-143.66626200000002,1.15,2.55,610.0
175.7,-128.07884733,0.59560099,211.0,-17.75452,-46.166222,-144.288216,2.1,2.4,612.0
175.75,-128.07890111,0.59551847,205.5,-17.052784,-45.023884,-145.083891,2.85,2.2,613.5
175.8,-128.07895489,0.59543595,200.0,-16.351048,-43.881546,-145.879566,3.6,2.0,615.0
175.85,-128.079010385,0.5953499600000001,193.5,-15.5722755,-42.350254,-146.8320695,4.7,1.7,616.0
175.9,-128.07906588,0.59526397,187.0,-14.793503,-40.818962,-147.784573,5.8,1.4,617.0
175.95,-128.079120225,0.595177985,180.5,-14.1429545,-39.139166,-148.736598,7.050000000000001,1.1,618.5
176.0,-128.07917457,0.595092,174.0,-13.492406,-37.45937,-149.688623,8.3,0.8,620.0
176.05,-128.07923577999998,0.59499217,167.5,-12.8811475,-35.2744065,-150.7015085,9.5,0.5,621.0
176.1,-128.07929699,0.59489234,161.0,-12.269889,-33.089443,-151.714394,10.7,0.2,622.0
176.15,-128.079349615,0.59480405,156.5,-11.855839499999998,-30.833515,-152.5245165,11.7,0.0,622.5
176.2,-128.07940224,0.59471576,152.0,-11.44179,-28.577587,-153.334639,12.7,-0.2,623.0
176.25,-128.079457155,0.594621125,146.0,-11.223477,-26.395433500000003,-154.0279695,13.9,-0.35,623.0
176.3,-128.07951207,0.59452649,140.0,-11.005164,-24.21328,-154.7213,15.1,-0.5,623.0
176.35,-128.079573845,0.5944162749999999,134.5,-11.014534,-22.336757,-155.2975595,15.9,-0.55,622.5
176.4,-128.07963562,0.59430606,129.0,-11.023904,-20.460234,-155.873819,16.7,-0.6,622.0
176.45,-128.079687665,0.59420854,124.5,-11.2165485,-19.550561,-156.1663265,16.799999999999997,-0.6,621.0
176.5,-128.07973971,0.59411102,120.0,-11.409193,-18.640888,-156.458834,16.9,-0.6,620.0
176.55,-128.07980662,0.5939835,114.0,-11.888429,-18.104187,-156.69579449999998,16.1,-0.5,619.5
176.6,-128.07987353,0.59385598,108.0,-12.367665,-17.567486,-156.932755,15.3,-0.4,619.0
176.65,-128.079927285,0.5937486599999999,104.5,-12.8896085,-17.2318505,-157.121523,14.55,-0.35,619.0
176.7,-128.07998104,0.59364134,101.0,-13.411552,-16.896215,-157.310291,13.8,-0.3,619.0
176.75,-128.08004337,0.593512665,96.0,-13.800463,-16.1587615,-157.5853565,13.1,-0.2,619.0
176.8,-128.0801057,0.59338399,91.0,-14.189374,-15.421308,-157.860422,12.4,-0.1,619.0
176.85,-128.08015888,0.5932709,88.0,-14.1171075,-14.4293585,-158.15058399999998,12.35,-0.1,619.5
176.9,-128.08021206,0.59315781,85.0,-14.044841,-13.437409,-158.440746,12.3,-0.1,620.0
176.95,-128.08027438,0.593019915,81.0,-13.6401625,-11.758272000000002,-158.8278005,12.6,-0.1,620.0
177.0,-128.0803367,0.59288202,77.0,-13.235484,-10.079135,-159.214855,12.9,-0.1,620.0
177.05,-128.080388725,0.592763165,74.0,-12.848256,-8.559046500000001,-159.5431775,13.35,-0.1,619.5
177.1,-128.08044075,0.59264431,71.0,-12.461028,-7.038958,-159.8715,13.8,-0.1,619.0
177.15,-128.080503635,0.59249603,68.0,-12.063769,-5.33289,-160.2266215,14.2,-0.15,619.0
177.2,-128.08056652,0.59234775,65.0,-11.66651,-3.626822,-160.581743,14.6,-0.2,619.0
177.25,-128.080617395,0.59222255,62.5,-11.3921165,-2.419978,-160.802721,14.65,-0.2,618.0
177.3,-128.08066827,0.59209735,60.0,-11.117723,-1.213134,-161.023699,14.7,-0.2,617.0
177.35,-128.08071857,0.591971575,58.0,-10.920386,-0.3513685,-161.184371,14.55,-0.2,616.5
177.4,-128.08076887,0.5918458,56.0,-10.723049,0.510397,-161.345043,14.4,-0.2,616.0
177.45,-128.08082545500002,0.5916981,54.0,-10.5273275,1.5224080000000002,-161.505088,14.05,-0.2,615.5
177.5,-128.08088204,0.5915504,52.0,-10.331606,2.534419,-161.665133,13.7,-0.2,615.0
177.55,-128.08093119,0.59142059,50.5,-10.193789,3.528147,-161.8225815,13.5,-0.15,614.5
177.6,-128.08098034,0.59129078,49.0,-10.055972,4.521875,-161.98003,13.3,-0.1,614.0
177.65,-128.0810352,0.5911402,48.0,-9.9050215,5.814609,-162.179182,13.3,-0.1,613.5
177.7,-128.08109006,0.59098962,47.0,-9.754071,7.107343,-162.378334,13.3,-0.1,613.0
177.75,-128.081134635,0.590863275,46.5,-9.618262,8.310870000000001,-162.554057,13.4,-0.1,612.5
177.8,-128.08117921,0.59073693,46.0,-9.482453,9.514397,-162.72978,13.5,-0.1,612.0
177.85,-128.08123292,0.59058347,45.5,-9.3196395,10.970766,-162.9397945,13.6,-0.05,611.5
177.9,-128.08128663,0.59043001,45.0,-9.156826,12.427135,-163.149809,13.7,-0.0,611.0
177.95,-128.081330625,0.59029905,45.0,-9.030916,13.573308,-163.3201865,13.8,0.0,610.0
178.0,-128.08137462,0.59016809,45.0,-8.905006,14.719481,-163.490564,13.9,-0.0,609.0
178.05,-128.081422615,0.590023285,45.5,-8.7722905,15.9134915,-163.6646,13.9,0.0,608.0
178.1,-128.08147061,0.58987848,46.0,-8.639575,17.107502,-163.838636,13.9,-0.0,607.0
178.15,-128.081513455,0.58974579,46.5,-8.5159125,18.144946,-163.974801,13.75,0.0,606.0
178.2,-128.0815563,0.5896131,47.0,-8.39225,19.18239,-164.110966,13.6,-0.0,605.0
178.25,-128.08160543,0.5894573350000001,48.0,-8.261280500000002,20.235381,-164.2570005,13.3,0.0,604.0
178.3,-128.08165456,0.58930157,49.0,-8.130311,21.288372,-164.403035,13.0,-0.0,603.0
178.35,-128.081693975,0.5891740750000001,50.5,-8.037975,22.1294555,-164.523657,12.8,0.0,602.0
178.4,-128.08173339,0.58904658,52.0,-7.945639,22.970539,-164.644279,12.6,-0.0,601.0
178.45,-128.081777945,0.58889947,53.5,-7.8517035,24.0189085,-164.7942495,12.45,0.0,600.0
178.5,-128.0818225,0.58875236,55.0,-7.757768,25.067278,-164.94422,12.3,-0.0,599.0
178.55,-128.081859625,0.5886266,57.0,-7.664704,26.001342,-165.07604600000002,12.2,0.0,598.0
178.6,-128.08189675,0.58850084,59.0,-7.57164,26.935406,-165.207872,12.1,-0.0,597.0
178.65,-128.08193444,0.58837046,61.0,-7.331486,27.833223500000003,-165.3139715,11.95,0.0,596.5
178.7,-128.08197213,0.58824008,63.0,-7.091332,28.731041,-165.420071,11.8,-0.0,596.0
178.75,-128.08201382,0.588092975,66.5,-6.374723,29.497986,-165.45600000000002,11.4,-0.1,594.5
178.8,-128.08205551,0.58794587,70.0,-5.658114,30.264931,-165.491929,11.0,-0.2,593.0
178.85,-128.08208919999998,0.58782415,72.5,-4.729035,30.6994745,-165.44407,10.6,-0.25,592.0
178.9,-128.08212289,0.58770243,75.0,-3.799956,31.134018,-165.396211,10.2,-0.3,591.0
178.95,-128.08216115,0.587563975,78.0,-2.210506,31.540561500000003,-165.26777299999998,9.65,-0.4,590.0
179.0,-128.08219941,0.58742552,81.0,-0.621056,31.947105,-165.139335,9.1,-0.5,589.0
179.05,-128.08223253,0.587304375,84.5,1.0286615,32.229309,-164.97670699999998,8.6,-0.55,588.0
179.1,-128.08226565,0.58718323,88.0,2.678379,32.511513,-164.814079,8.1,-0.6,587.0
179.15,-128.08230334,0.58704824,91.5,4.728856500000001,32.8429145,-164.5759105,7.65,-0.7,586.0
179.2,-128.08234103,0.58691325,95.0,6.779334,33.174316,-164.337742,7.2,-0.8,585.0
179.25,-128.08237243500002,0.58679903,99.0,8.7632735,33.534004,-164.08267999999998,6.9,-0.8,584.0
179.3,-128.08240384,0.58668481,103.0,10.747213,33.893692,-163.827618,6.6,-0.8,583.0
179.35,-128.08243582,0.5865717399999999,106.0,12.600237,34.2685415,-163.5131495,6.449999999999999,-0.8500000000000001,582.5
179.4,-128.0824678,0.58645867,109.0,14.453261,34.643391,-163.198681,6.3,-0.9,582.0
179.45,-128.08250492,0.58632887,113.0,16.851026,35.1689665,-162.744076,6.199999999999999,-0.9,581.0
179.5,-128.08254204,0.58619907,117.0,19.248791,35.694542,-162.289471,6.1,-0.9,580.0
179.55,-128.082574025,0.586090615,121.5,21.235515,36.1829415,-161.8111155,6.15,-0.95,579.0
179.6,-128.08260601,0.58598216,126.0,23.222239,36.671341,-161.33276,6.2,-1.0,578.0
179.65,-128.082644285,0.585858125,130.0,25.409156,37.356388,-160.606973,6.35,-1.0,577.0
179.7,-128.08268256,0.58573409,134.0,27.596073,38.041435,-159.881186,6.5,-1.0,576.0
179.75,-128.082716265,0.585627365,137.5,29.4057025,38.7532765,-159.0868485,6.75,-1.0,575.0
179.8,-128.08274997,0.58552064,141.0,31.215332,39.465118,-158.292511,7.0,-1.0,574.0
179.85,-128.08279053500002,0.585400065,146.5,33.105932,40.305542,-157.2191465,7.45,-0.95,573.0
179.9,-128.0828311,0.58527949,152.0,34.996532,41.145966,-156.145782,7.9,-0.9,572.0
179.95,-128.082866535,0.5851808350000001,156.0,36.4466915,41.814457,-155.1212995,8.15,-0.8500000000000001,571.0
180.0,-128.08290197,0.58508218,160.0,37.896851,42.482948,-154.096817,8.4,-0.8,570.0
180.05,-128.082945405,0.58496737,164.5,39.755568,43.2683675,-152.7611645,8.75,-0.75,568.5
180.1,-128.08298884,0.58485256,169.0,41.614285,44.053787,-151.425512,9.1,-0.7,567.0
180.15,-128.083028285,0.58475563,174.0,43.4304105,44.6622655,-150.181593,9.35,-0.7,566.0
180.2,-128.08306773,0.5846587,179.0,45.246536,45.270744,-148.937674,9.6,-0.7,565.0
180.25,-128.08311404,0.5845531150000001,184.0,47.405609,45.83181,-147.47328499999998,9.75,-0.7,563.5
180.3,-128.08316035,0.58444753,189.0,49.564682,46.392876,-146.008896,9.9,-0.7,562.0
180.35,-128.083203805,0.58435579,193.5,51.6988525,46.8243255,-144.6514875,10.0,-0.7,561.0
180.4,-128.08324726,0.58426405,198.0,53.833023,47.255775,-143.294079,10.1,-0.7,560.0
180.45,-128.083290155,0.584180385,203.0,55.8335475,47.576471,-141.93929500000002,10.2,-0.7,558.5
180.5,-128.08333305,0.58409672,208.0,57.834072,47.897167,-140.584511,10.3,-0.7,557.0
180.55,-128.083386245,0.58400151,213.5,60.238901,48.1865785,-138.907139,10.4,-0.75,555.0
180.6,-128.08343944,0.5839063,219.0,62.64373,48.47599,-137.229767,10.5,-0.8,553.0
180.65,-128.083488635,0.58382551,224.5,64.975277,48.65983,-135.695267,10.55,-0.8,551.5
180.7,-128.08353783,0.58374472,230.0,67.306824,48.84367,-134.160767,10.6,-0.8,550.0
180.75,-128.083595045,0.5836598900000001,235.5,69.837288,48.9346715,-132.40481,10.7,-0.8,548.5
180.8,-128.08365226,0.58357506,241.0,72.367752,49.025673,-130.648853,10.8,-0.8,547.0
180.85,-128.0837049,0.58350292,245.5,74.49153899999999,49.0168,-129.1015585,10.8,-0.8,546.0
180.9,-128.08375754,0.58343078,250.0,76.615326,49.007927,-127.554264,10.8,-0.8,545.0
180.95,-128.08382221,0.58335113,255.5,79.32811749999999,48.883972,-125.734152,10.85,-0.8500000000000001,543.0
181.0,-128.08388688,0.58327148,261.0,82.040909,48.760017,-123.91404,10.9,-0.9,541.0
181.05,-128.08394354,0.58320741,266.5,84.0906295,48.5817125,-122.394125,10.95,-0.8500000000000001,539.5
181.1,-128.0840002,0.58314334,272.0,86.14035,48.403408,-120.87421,11.0,-0.8,538.0
181.15,-128.084069455,0.583073495,277.5,88.308971,48.122795,-119.0988805,11.05,-0.8,536.5
181.2,-128.08413871,0.58300365,283.0,90.477592,47.842182,-117.323551,11.1,-0.8,535.0
181.25,-128.08419995999998,0.582947075,287.5,92.287605,47.520689,-115.7889005,11.2,-0.75,534.0
181.3,-128.08426121,0.5828905,292.0,94.097618,47.199196,-114.25425,11.3,-0.7,533.0
181.35,-128.08433678,0.58282872,298.5,95.9657555,46.768164,-112.4418755,11.45,-0.6499999999999999,531.0
181.4,-128.08441235,0.58276694,305.0,97.833893,46.337132,-110.629501,11.6,-0.6,529.0
181.45,-128.08447876000002,0.582717855,309.5,99.286484,45.922102,-109.0907285,11.7,-0.55,527.5
181.5,-128.08454517,0.58266877,314.0,100.739075,45.507072,-107.551956,11.8,-0.5,526.0
181.55,-128.08461617,0.58262199,319.5,102.202946,45.0117375,-105.972847,12.0,-0.45,524.5
181.6,-128.08468717,0.58257521,325.0,103.666817,44.516403,-104.393738,12.2,-0.4,523.0
181.65,-128.08477019999998,0.582527265,330.5,105.180149,43.9202955,-102.643265,12.35,-0.35,521.5
181.7,-128.08485323,0.58247932,336.0,106.693481,43.324188,-100.892792,12.5,-0.3,520.0
181.75,-128.084926525,0.5824411899999999,340.0,107.969284,42.743099,-99.4390605,12.6,-0.25,518.5
181.8,-128.08499982,0.58240306,344.0,109.245087,42.16201,-97.985329,12.7,-0.2,517.0
181.85,-128.085088585,0.58236434,350.5,110.5390855,41.4769745,-96.36203,12.85,-0.2,515.0
181.9,-128.08517735,0.58232562,357.0,111.833084,40.791939,-94.738731,13.0,-0.2,513.0
181.95,-128.08525581,0.582295555,361.0,112.8117215,40.1888695,-93.439758,13.1,-0.2,511.5
182.0,-128.08533427,0.58226549,365.0,113.790359,39.5858,-92.140785,13.2,-0.2,510.0
182.05,-128.085425335,0.5822365700000001,370.0,114.786224,38.8827115,-90.7633515,13.2,-0.15,508.5
182.1,-128.0855164,0.58220765,375.0,115.782089,38.179623,-89.385918,13.2,-0.1,507.0
182.15,-128.085598305,0.582186815,380.0,116.548023,37.5680735,-88.248455,13.2,-0.1,505.5
182.2,-128.08568021,0.58216598,385.0,117.313957,36.956524,-87.110992,13.2,-0.1,504.0
182.25,-128.08576556,0.582148025,389.0,118.026226,36.3216495,-85.9998625,13.2,-0.15,502.5
182.3,-128.08585091,0.58213007,393.0,118.738495,35.686775,-84.888733,13.2,-0.2,501.0
182.35,-128.08595058,0.58211383,397.5,119.5032195,34.9243775,-83.647999,13.2,-0.2,499.5
182.4,-128.08605025,0.58209759,402.0,120.267944,34.16198,-82.407265,13.2,-0.2,498.0
182.45,-128.08613445499998,0.582088285,406.5,120.8389855,33.526562,-81.40123750000001,13.2,-0.2,496.5
182.5,-128.08621866,0.58207898,411.0,121.410027,32.891144,-80.39521,13.2,-0.2,495.0
182.55,-128.08632235,0.58207254,415.5,122.058537,32.080057,-79.2027855,13.2,-0.2,494.0
182.6,-128.08642604,0.5820661,420.0,122.707047,31.26897,-78.010361,13.2,-0.2,493.0
182.65,-128.08651484,0.58206429,424.0,123.2240185,30.541292,-77.02338800000001,13.2,-0.25,491.5
182.7,-128.08660364,0.58206248,428.0,123.74099,29.813614,-76.036415,13.2,-0.3,490.0
182.75,-128.086706765,0.582064695,432.5,124.261532,28.980716,-74.916649,13.25,-0.3,488.5
182.8,-128.08680989,0.58206691,437.0,124.782074,28.147818,-73.796883,13.3,-0.3,487.0
182.85,-128.086898695,0.5820731699999999,440.0,125.166271,27.420514500000003,-72.85355799999999,13.35,-0.3,486.0
182.9,-128.0869875,0.58207943,443.0,125.550468,26.693211,-71.910233,13.4,-0.3,485.0
182.95,-128.08709349499998,0.582090295,446.5,125.935398,25.791163500000003,-70.82622950000001,13.45,-0.3,483.5
183.0,-128.08719949,0.58210116,450.0,126.320328,24.889116,-69.742226,13.5,-0.3,482.0
183.05,-128.08729174,0.58211434,454.0,126.568428,24.1460285,-68.825756,13.5,-0.3,481.0
183.1,-128.08738399,0.58212752,458.0,126.816528,23.402941,-67.909286,13.5,-0.3,480.0
183.15,-128.087476815,0.582144735,460.5,127.005554,22.6659755,-67.03743349999999,13.55,-0.3,479.0
183.2,-128.08756964,0.58216195,463.0,127.19458,21.92901,-66.165581,13.6,-0.3,478.0
183.25,-128.08767851,0.5821855,467.0,127.357849,20.970248,-65.118496,13.6,-0.25,476.5
183.3,-128.08778738,0.58220905,471.0,127.521118,20.011486,-64.071411,13.6,-0.2,475.0
183.35,-128.08788021499998,0.582233185,473.5,127.590927,19.2793045,-63.2016485,13.65,-0.2,474.0
183.4,-128.08797305,0.58225732,476.0,127.660736,18.547123,-62.331886,13.7,-0.2,473.0
183.45,-128.088081355,0.58228952,479.0,127.693348,17.6162575,-61.3315235,13.7,-0.2,472.0
183.5,-128.08818966,0.58232172,482.0,127.72596,16.685392,-60.331161,13.7,-0.2,471.0
183.55,-128.088281355,0.58235278,484.5,127.707764,15.916404,-59.4809455,13.75,-0.2,470.0
183.6,-128.08837305,0.58238384,487.0,127.689568,15.147416,-58.63073,13.8,-0.2,469.0
183.65,-128.08847907,0.58242354,490.0,127.6335605,14.276343,-57.6432345,13.8,-0.15,468.0
183.7,-128.08858509,0.58246324,493.0,127.577553,13.40527,-56.655739,13.8,-0.1,467.0
183.75,-128.08867621500002,0.58250064,494.5,127.495327,12.6231035,-55.811329,13.85,-0.1,466.5
183.8,-128.08876734,0.58253804,496.0,127.413101,11.840937,-54.966919,13.9,-0.1,466.0
183.85,-128.08885904,0.582579485,498.5,127.3118705,11.0890635,-54.1108935,13.9,-0.1,465.0
183.9,-128.08895074,0.58262093,501.0,127.21064,10.33719,-53.254868,13.9,-0.1,464.0
183.95,-128.08905505500002,0.5826715849999999,503.0,127.0690955,9.487219,-52.2733765,13.95,-0.1,463.0
184.0,-128.08915937,0.58272224,505.0,126.927551,8.637248,-51.291885,14.0,-0.1,462.0
184.05,-128.08926254,0.58277751,506.5,126.74958,7.7436535,-50.30632,14.0,-0.1,461.5
184.1,-128.08936571,0.58283278,508.0,126.571609,6.850059,-49.320755,14.0,-0.1,461.0
184.15,-128.089452835,0.5828828800000001,510.0,126.423904,6.1117395000000005,-48.492386,14.05,-0.15,460.0
184.2,-128.08953996,0.58293298,512.0,126.276199,5.37342,-47.664017,14.1,-0.2,459.0
184.25,-128.08962537,0.5829848049999999,513.0,126.1438065,4.662875,-46.841263,14.1,-0.2,458.5
184.3,-128.08971078,0.58303663,514.0,126.011414,3.95233,-46.018509,14.1,-0.2,458.0
184.35,-128.08980937500002,0.58310171,515.5,125.8619045,3.080912,-45.0438005,14.1,-0.2,457.5
184.4,-128.08990797,0.58316679,517.0,125.712395,2.209494,-44.069092,14.1,-0.2,457.0
184.45,-128.08999052,0.5832249650000001,518.0,125.5905765,1.4975545,-43.255806,14.1,-0.25,456.5
184.5,-128.09007307,0.58328314,519.0,125.468758,0.785615,-42.44252,14.1,-0.3,456.0
184.55,-128.090167665,0.583353415,520.0,125.331627,-0.0302584999999999,-41.504051,14.15,-0.3,455.5
184.6,-128.09026226,0.58342369,521.0,125.194496,-0.846132,-40.565582,14.2,-0.3,455.0
184.65,-128.09034424,0.58348936,521.5,125.0600775,-1.624326,-39.6984555,14.2,-0.3,454.5
184.7,-128.09042622,0.58355503,522.0,124.925659,-2.40252,-38.831329,14.2,-0.3,454.0
184.75,-128.090517385,0.5836328049999999,522.5,124.7663575,-3.2556555,-37.872459,14.2,-0.35,453.5
184.8,-128.09060855,0.58371058,523.0,124.607056,-4.108791,-36.913589,14.2,-0.4,453.0
184.85,-128.09068538000002,0.58377972,523.0,124.4630815,-4.819318,-36.0817715,14.2,-0.4,452.5
184.9,-128.09076221,0.58384886,523.0,124.319107,-5.529845,-35.249954,14.2,-0.4,452.0
184.95,-128.09084879,0.583932405,523.5,124.1199415,-6.4114615,-34.275444,14.2,-0.4,452.0
185.0,-128.09093537,0.58401595,524.0,123.920776,-7.293078,-33.300934,14.2,-0.4,452.0
185.05,-128.091005905,0.58408798,524.0,123.7465055,-7.9818645,-32.4971085,14.2,-0.45,451.5
185.1,-128.09107644,0.58416001,524.0,123.572235,-8.670651,-31.693283,14.2,-0.5,451.0
185.15,-128.09115787000002,0.5842481749999999,523.5,123.337406,-9.507244,-30.6989365,14.2,-0.5,451.0
185.2,-128.0912393,0.58433634,523.0,123.102577,-10.343837,-29.70459,14.2,-0.5,451.0
185.25,-128.091305825,0.58441356,522.5,122.858883,-11.10449,-28.8599475,14.2,-0.45,451.0
185.3,-128.09137235,0.58449078,522.0,122.615189,-11.865143,-28.015305,14.2,-0.4,451.0
185.35,-128.09143716,0.58456973,521.5,122.362202,-12.546302,-27.1613545,14.2,-0.4,451.0
185.4,-128.09150197,0.58464868,521.0,122.109215,-13.227461,-26.307404,14.2,-0.4,451.0
185.45,-128.09157481,0.58474262,520.5,121.737709,-14.0743715,-25.297539,14.2,-0.4,451.0
185.5,-128.09164765,0.58483656,520.0,121.366203,-14.921282,-24.287674,14.2,-0.4,451.0
185.55,-128.09170731,0.58492013,519.0,121.0154725,-15.6154845,-23.4055865,14.2,-0.4,451.0
185.6,-128.09176697,0.5850037,518.0,120.664742,-16.309687,-22.523499,14.2,-0.4,451.0
185.65,-128.091824905,0.585088425,517.0,120.2624665,-17.011352000000002,-21.6139985,14.2,-0.35,451.0
185.7,-128.09188284,0.58517315,516.0,119.860191,-17.713017,-20.704498,14.2,-0.3,451.0
185.75,-128.09194423000002,0.58527114,515.0,119.3672295,-18.470117,-19.6777955,14.2,-0.3,451.0
185.8,-128.09200562,0.58536913,514.0,118.874268,-19.227217,-18.651093,14.2,-0.3,451.0
185.85,-128.092056115,0.58545444,512.5,118.444378,-19.836778,-17.748725999999998,14.15,-0.3,451.0
185.9,-128.09210661,0.58553975,511.0,118.014488,-20.446339,-16.846359,14.1,-0.3,451.0
185.95,-128.09216169500002,0.5856400500000001,509.5,117.4868315,-21.142877,-15.789688,14.1,-0.25,451.5
186.0,-128.09221678,0.58574035,508.0,116.959175,-21.839415,-14.733017,14.1,-0.2,452.0
186.05,-128.09226786,0.585841805,506.0,116.3794595,-22.530427,-13.6506655,14.05,-0.2,452.0
186.1,-128.09231894,0.58594326,504.0,115.799744,-23.221439,-12.568314,14.0,-0.2,452.0
186.15,-128.09236027,0.58603204,502.0,115.223637,-23.7998025,-11.6042175,13.95,-0.2,452.5
186.2,-128.0924016,0.58612082,500.0,114.64753,-24.378166,-10.640121,13.9,-0.2,453.0
186.25,-128.092441215,0.58621306,498.5,113.9628105,-24.944535,-9.6252515,13.9,-0.2,453.0
186.3,-128.09248083,0.5863053,497.0,113.278091,-25.510904,-8.610382,13.9,-0.2,453.0
186.35,-128.09252045,0.5864079200000001,494.5,112.4690395,-26.0821305,-7.4503935,13.9,-0.2,453.5
