Time,Longitude,Latitude,Altitude,Roll,Pitch,Yaw,AOA,AOS,TAS
106.4,-128.06474613,0.56406345,981.0,-150.888168,16.024317,-149.376852,11.8,0.9,393.0
106.45,-128.06480278,0.563988425,983.0,-152.44802099999998,14.8971035,-149.46574500000003,11.8,0.9,392.5
106.5,-128.06485943,0.5639134,985.0,-154.007874,13.76989,-149.554638,11.8,0.9,392.0
106.55,-128.0649075,0.563848185,987.0,-155.4538655,12.705656,-149.590288,11.8,0.8500000000000001,391.0
106.6,-128.06495557,0.56378297,989.0,-156.899857,11.641422,-149.625938,11.8,0.8,390.0
106.65,-128.06501107999998,0.56370621,991.5,-158.414391,10.519649,-149.62079899999998,11.8,0.8,389.5
106.7,-128.06506659,0.56362945,994.0,-159.928925,9.397876,-149.61566,11.8,0.8,389.0
106.75,-128.065114655,0.563560775,995.5,-161.1890185,8.46623,-149.5694495,11.8,0.8,388.5
106.8,-128.06516272,0.5634921,997.0,-162.449112,7.534584,-149.523239,11.8,0.8,388.0
106.85,-128.065217075,0.56341246,998.5,-164.049759,6.345129999999999,-149.4254265,11.8,0.75,387.5
106.9,-128.06527143,0.56333282,1000.0,-165.650406,5.155676,-149.327614,11.8,0.7,387.0
106.95,-128.06532006499998,0.56326011,1001.5,-167.01095600000002,4.1482625,-149.20401750000002,11.8,0.7,386.5
107.0,-128.0653687,0.5631874,1003.0,-168.371506,3.140849,-149.080421,11.8,0.7,386.0
107.05,-128.06541562,0.56311757,1004.0,-169.7045975,2.1652855,-148.924688,11.8,0.6499999999999999,385.5
107.1,-128.06546254,0.56304774,1005.0,-171.037689,1.189722,-148.768955,11.8,0.6,385.0
107.15,-128.06551804,0.5629640650000001,1006.5,-172.646118,0.02817,-148.54101,11.8,0.6,385.0
107.2,-128.06557354,0.56288039,1008.0,-174.254547,-1.133382,-148.313065,11.8,0.6,385.0
107.25,-128.065619885,0.562809405,1008.5,-175.5397415,-2.045194,-148.0849135,11.8,0.55,384.5
107.3,-128.06566623,0.56273842,1009.0,-176.824936,-2.957006,-147.856762,11.8,0.5,384.0
107.35,-128.065722305,0.56265186,1010.0,-116.583191,-4.107651,-147.53756900000002,11.8,0.5,384.0
107.4,-128.06577838,0.5625653,1011.0,-56.341446,-5.258296,-147.218376,11.8,0.5,384.0
107.45,-128.06582529500002,0.5624937400000001,1011.5,60.364212,-6.1801675,-146.9145085,11.8,0.5,384.0
107.5,-128.06587221,0.56242218,1012.0,177.06987,-7.102039,-146.610641,11.8,0.5,384.0
107.55,-128.06592828,0.56233562,1012.0,175.3741225,-8.174424,-146.20684799999998,11.8,0.45,384.0
107.6,-128.06598435,0.56224906,1012.0,173.678375,-9.246809,-145.803055,11.8,0.4,384.0
107.65,-128.066032415,0.56217577,1012.5,172.124733,-10.172182,-145.420578,11.8,0.4,384.0
107.7,-128.06608048,0.56210248,1013.0,170.571091,-11.097555,-145.038101,11.8,0.4,384.0
107.75,-128.06612854000002,0.56202977,1013.0,169.08452599999998,-11.942024,-144.6220245,11.75,0.45,384.0
107.8,-128.0661766,0.56195706,1013.0,167.597961,-12.786493,-144.205948,11.7,0.5,384.0
107.85,-128.066232675,0.561872805,1012.5,165.750198,-13.7862335,-143.6763385,11.7,0.5,384.0
107.9,-128.06628875,0.56178855,1012.0,163.902435,-14.785974,-143.146729,11.7,0.5,384.0
107.95,-128.066337955,0.561715835,1011.5,162.2645035,-15.6270435,-142.64552700000002,11.7,0.5,384.0
108.0,-128.06638716,0.56164312,1011.0,160.626572,-16.468113,-142.144325,11.7,0.5,384.0
108.05,-128.06644438,0.56155944,1010.5,158.7483825,-17.377843,-141.517944,11.7,0.5,384.5
108.1,-128.0665016,0.56147576,1010.0,156.870193,-18.287573,-140.891563,11.7,0.5,385.0
108.15,-128.06655138500005,0.561404775,1009.5,155.17699399999998,-19.0531205,-140.31418200000002,11.7,0.5,385.0
108.2,-128.06660117,0.56133379,1009.0,153.483795,-19.818668,-139.736801,11.7,0.5,385.0
108.25,-128.066652095,0.56126281,1008.0,151.827385,-20.5230065,-139.112095,11.7,0.55,385.5
108.3,-128.06670302,0.56119183,1007.0,150.170975,-21.227345,-138.487389,11.7,0.6,386.0
108.35,-128.06676139,0.561112185,1006.0,148.2336505,-21.991975,-137.73563,11.65,0.6,386.5
108.4,-128.06681976,0.56103254,1005.0,146.296326,-22.756605,-136.983871,11.6,0.6,387.0
108.45,-128.06687240999997,0.560963285,1003.5,144.4489365,-23.4255895,-136.2837465,11.6,0.6,387.5
108.5,-128.06692506,0.56089403,1002.0,142.601547,-24.094574,-135.583622,11.6,0.6,388.0
108.55,-128.06698572,0.560816115,1000.5,140.55364200000002,-24.774647,-134.7376765,11.6,0.6,388.5
108.6,-128.06704638,0.5607382,999.0,138.505737,-25.45472,-133.891731,11.6,0.6,389.0
108.65,-128.06710018,0.56067125,997.5,136.684349,-26.004244,-133.1128215,11.55,0.6,389.5
108.7,-128.06715398,0.5606043,996.0,134.862961,-26.553768,-132.333912,11.5,0.6,390.0
108.75,-128.067216935,0.56052869,994.0,132.7658005,-27.123764,-131.399288,11.5,0.55,390.5
108.8,-128.06727989,0.56045308,992.0,130.66864,-27.69376,-130.464664,11.5,0.5,391.0
108.85,-128.06733369,0.5603907450000001,990.5,128.9507485,-28.113347,-129.651428,11.5,0.5,391.5
108.9,-128.06738749,0.56032841,989.0,127.232857,-28.532934,-128.838192,11.5,0.5,392.0
108.95,-128.06744300999998,0.560267225,987.5,125.3200835,-28.9510765,-127.9864615,11.5,0.5,392.5
109.0,-128.06749853,0.56020604,986.0,123.40731,-29.369219,-127.134731,11.5,0.5,393.0
109.05,-128.06756149,0.560138505,983.5,121.3508565,-29.762515,-126.1496735,11.5,0.5,394.0
109.1,-128.06762445,0.56007097,981.0,119.294403,-30.155811,-125.164616,11.5,0.5,395.0
109.15,-128.067683985,0.560010935,979.0,117.5363045,-30.445814,-124.2547705,11.5,0.5,396.0
109.2,-128.06774352,0.5599509,977.0,115.778206,-30.735817,-123.344925,11.5,0.5,397.0
109.25,-128.067811065,0.55988567,974.5,113.5619395,-31.040766,-122.287485,11.5,0.45,397.5
109.3,-128.06787861,0.55982044,972.0,111.345673,-31.345715,-121.230045,11.5,0.4,398.0
109.35,-128.06794788000002,0.559757515,969.0,109.2371255,-31.5766375,-120.1645485,11.5,0.4,399.0
109.4,-128.06801715,0.55969459,966.0,107.128578,-31.80756,-119.099052,11.5,0.4,400.0
109.45,-128.06807669,0.5596426299999999,963.5,105.3739625,-31.956381,-118.189825,11.5,0.4,401.0
109.5,-128.06813623,0.55959067,961.0,103.619347,-32.105202,-117.280598,11.5,0.4,402.0
109.55,-128.06820836499998,0.5595311999999999,958.0,101.56139,-32.2273675,-116.195597,11.5,0.4,403.0
109.6,-128.0682805,0.55947173,955.0,99.503433,-32.349533,-115.110596,11.5,0.4,404.0
109.65,-128.068342335,0.559424385,953.0,97.7310255,-32.4068205,-114.206921,11.5,0.4,404.5
109.7,-128.06840417,0.55937704,951.0,95.958618,-32.464108,-113.303246,11.5,0.4,405.0
109.75,-128.06846944,0.55932969,948.0,94.203247,-32.478428,-112.361397,11.55,0.4,406.0
109.8,-128.06853471,0.55928234,945.0,92.447876,-32.492748,-111.419548,11.6,0.4,407.0
109.85,-128.06861086499998,0.559230365,942.0,90.408661,-32.454214,-110.355133,11.6,0.4,408.0
109.9,-128.06868702,0.55917839,939.0,88.369446,-32.41568,-109.290718,11.6,0.4,409.0
109.95,-128.068752295,0.55913681,936.5,86.65535349999999,-32.336733,-108.410427,11.6,0.4,409.5
110.0,-128.06881757,0.55909523,934.0,84.941261,-32.257786,-107.530136,11.6,0.4,410.0
110.05,-128.068894875,0.5590501750000001,930.0,82.9356155,-32.111288,-106.5308265,11.6,0.45,411.5
110.1,-128.06897218,0.55900512,926.0,80.92997,-31.96479,-105.531517,11.6,0.5,413.0
110.15,-128.069043185,0.5589658399999999,923.5,79.20173249999999,-31.7913195,-104.668644,11.6,0.5,413.5
110.2,-128.06911419,0.55892656,921.0,77.473495,-31.617849,-103.805771,11.6,0.5,414.0
110.25,-128.06919723,0.55888496,917.5,75.448719,-31.359066,-102.837166,11.65,0.5,415.0
110.3,-128.06928027,0.55884336,914.0,73.423943,-31.100283,-101.868561,11.7,0.5,416.0
110.35,-128.06935071,0.558810425,911.0,71.81734499999999,-30.852423,-101.0911905,11.7,0.55,417.0
110.4,-128.06942115,0.55877749,908.0,70.210747,-30.604563,-100.31382,11.7,0.6,418.0
110.45,-128.069492165,0.558747435,905.0,68.590744,-30.3149845,-99.5946505,11.7,0.6,419.0
110.5,-128.06956318,0.55871738,902.0,66.970741,-30.025406,-98.875481,11.7,0.6,420.0
110.55,-128.06965023499998,0.55868328,899.0,64.877403,-29.5930405,-98.0129205,11.7,0.6499999999999999,421.0
110.6,-128.06973729,0.55864918,896.0,62.784065,-29.160675,-97.15036,11.7,0.7,422.0
110.65,-128.069813465,0.55862258,892.5,61.236765,-28.797919,-96.47348,11.7,0.7,423.0
110.7,-128.06988964,0.55859598,889.0,59.689465,-28.435163,-95.7966,11.7,0.7,424.0
110.75,-128.06998128,0.558567065,885.5,57.682856,-27.9087865,-95.043682,11.7,0.75,425.0
110.8,-128.07007292,0.55853815,882.0,55.676247,-27.38241,-94.290764,11.7,0.8,426.0
110.85,-128.07014909999998,0.5585167449999999,879.0,54.158392,-26.9433515,-93.717144,11.7,0.8,426.5
110.9,-128.07022528,0.55849534,876.0,52.640537,-26.504293,-93.143524,11.7,0.8,427.0
110.95,-128.070314635,0.558472765,872.5,50.9186265,-25.9619785,-92.527435,11.7,0.8500000000000001,428.0
111.0,-128.07040399,0.55845019,869.0,49.196716,-25.419664,-91.911346,11.7,0.9,429.0
111.05,-128.0704859,0.5584322399999999,866.5,47.661724,-24.896179,-91.414444,11.7,0.9,430.0
111.1,-128.07056781,0.55841429,864.0,46.126732,-24.372694,-90.917542,11.7,0.9,431.0
111.15,-128.07066576,0.558395175,860.0,44.342871,-23.714857,-90.389397,11.7,0.9,432.0
111.2,-128.07076371,0.55837606,856.0,42.55901,-23.05702,-89.861252,11.7,0.9,433.0
111.25,-128.07084792,0.55836272,853.5,41.133232500000005,-22.487069,-89.4629135,11.7,0.9,433.5
111.3,-128.07093213,0.55834938,851.0,39.707455,-21.917118,-89.064575,11.7,0.9,434.0
111.35,-128.07102894,0.5583354549999999,848.0,38.141966,-21.240223,-88.6570395,11.7,0.9,435.0
111.4,-128.07112575,0.55832153,845.0,36.576477,-20.563328,-88.249504,11.7,0.9,436.0
111.45,-128.071211675,0.55831165,842.0,35.2667845,-19.9595225,-87.938034,11.7,0.9,437.0
111.5,-128.0712976,0.55830177,839.0,33.957092,-19.355717,-87.626564,11.7,0.9,438.0
111.55,-128.07138697,0.55829304,836.5,32.638684,-18.720196,-87.3476715,11.7,0.9,438.5
111.6,-128.07147634,0.55828431,834.0,31.320276,-18.084675,-87.068779,11.7,0.9,439.0
111.65,-128.071578885,0.558276725,831.0,29.843605,-17.33972,-86.79916,11.75,0.9,439.5
111.7,-128.07168143,0.55826914,828.0,28.366934,-16.594765,-86.529541,11.8,0.9,440.0
111.75,-128.07177251500002,0.55826387,825.5,27.1844645,-15.978311,-86.33252350000001,11.8,0.9,441.0
111.8,-128.0718636,0.5582586,823.0,26.001995,-15.361857,-86.135506,11.8,0.9,442.0
111.85,-128.07196901499998,0.5582544700000001,820.0,24.5351305,-14.5730545,-85.961296,11.8,0.9,442.5
111.9,-128.07207443,0.55825034,817.0,23.068266,-13.784252,-85.787086,11.8,0.9,443.0
111.95,-128.072166095,0.55824853,814.5,21.9108705,-13.14238,-85.6765895,11.8,0.9,443.5
112.0,-128.07225776,0.55824672,812.0,20.753475,-12.500508,-85.566093,11.8,0.9,444.0
112.05,-128.07236317500002,0.558245475,809.5,19.471215,-11.7424005,-85.4733885,11.8,0.9,445.0
112.1,-128.07246859,0.55824423,807.0,18.188955,-10.984293,-85.380684,11.8,0.9,446.0
112.15,-128.07256483999998,0.558244145,805.0,17.180957499999998,-10.317155,-85.32104100000001,11.8,0.8500000000000001,446.0
112.2,-128.07266109,0.55824406,803.0,16.17296,-9.650017,-85.261398,11.8,0.8,446.0
112.25,-128.072768795,0.55824512,801.0,15.3019985,-8.999723,-85.2245595,11.75,0.8,447.0
112.3,-128.0728765,0.55824618,799.0,14.431037,-8.349429,-85.187721,11.7,0.8,448.0
112.35,-128.07297046000002,0.5582484050000001,797.0,13.9005245,-7.8907185,-85.1813315,11.55,0.7,448.5
112.4,-128.07306442,0.55825063,795.0,13.370012,-7.432008,-85.174942,11.4,0.6,449.0
112.45,-128.073162965,0.5582534299999999,793.0,12.991416,-7.042469,-85.1850245,11.2,0.55,449.0
112.5,-128.07326151,0.55825623,791.0,12.61282,-6.65293,-85.195107,11.0,0.5,449.0
112.55,-128.07337896,0.55826074,789.0,12.3294575,-6.2924805,-85.2216265,10.65,0.35,450.0
112.6,-128.07349641,0.55826525,787.0,12.046095,-5.932031,-85.248146,10.3,0.2,451.0
112.65,-128.07359265999995,0.558269205,785.5,11.9405,-5.7464405,-85.276703,10.0,0.15,451.0
112.7,-128.07368891,0.55827316,784.0,11.834905,-5.56085,-85.30526,9.7,0.1,451.0
112.75,-128.073806365,0.558278825,782.5,11.866427,-5.417596,-85.3383105,9.3,0.0,451.5
112.8,-128.07392382,0.55828449,781.0,11.897949,-5.274342,-85.371361,8.9,-0.1,452.0
112.85,-128.07402236500002,0.55829017,779.5,12.084454,-5.2005445,-85.3825265,8.5,-0.2,452.5
112.9,-128.07412091,0.55829585,778.0,12.270959,-5.126747,-85.393692,8.1,-0.3,453.0
112.95,-128.07422117,0.55830153,777.0,12.6124945,-5.035829,-85.380707,7.8,-0.4,453.5
113.0,-128.07432143,0.55830721,776.0,12.95403,-4.944911,-85.367722,7.5,-0.5,454.0
113.05,-128.07444003,0.5583146050000001,774.0,13.489662,-4.791952,-85.313538,7.2,-0.6,454.5
113.1,-128.07455863,0.558322,772.0,14.025294,-4.638993,-85.259354,6.9,-0.7,455.0
113.15,-128.074656605,0.558328835,771.0,14.5203755,-4.4715335,-85.1744465,6.75,-0.75,455.5
113.2,-128.07475458,0.55833567,770.0,15.015457,-4.304074,-85.089539,6.6,-0.8,456.0
113.25,-128.074872035,0.55834422,769.0,15.769476,-4.005078,-84.936394,6.5,-0.8500000000000001,456.5
113.3,-128.07498949,0.55835277,768.0,16.523495,-3.706082,-84.783249,6.4,-0.9,457.0
113.35,-128.07509090000002,0.558360755,767.0,17.2379475,-3.383984,-84.6008035,6.45,-0.95,457.5
113.4,-128.07519231,0.55836874,766.0,17.9524,-3.061886,-84.418358,6.5,-1.0,458.0
113.45,-128.07531319999998,0.55837844,765.0,18.809016,-2.6117485,-84.136196,6.6,-1.05,458.5
113.5,-128.07543409,0.55838814,764.0,19.665632,-2.161611,-83.854034,6.7,-1.1,459.0
113.55,-128.07553608,0.55839728,763.0,20.471297,-1.6794125000000002,-83.556259,6.800000000000001,-1.1,459.5
113.6,-128.07563807,0.55840642,762.0,21.276962,-1.197214,-83.258484,6.9,-1.1,460.0
113.65,-128.075756095,0.55841785,761.0,22.132742,-0.6569375,-82.85431299999999,7.15,-1.1,460.5
113.7,-128.07587412,0.55842928,760.0,22.988522,-0.116661,-82.450142,7.4,-1.1,461.0
113.75,-128.075981265,0.558440145,759.5,23.8016215,0.4084329999999999,-82.03968449999999,7.6,-1.1,461.0
113.8,-128.07608841,0.55845101,759.0,24.614721,0.933527,-81.629227,7.8,-1.1,461.0
113.85,-128.07620816000002,0.55846475,758.0,25.5530955,1.545903,-81.11541,8.05,-1.1,461.5
113.9,-128.07632791,0.55847849,757.0,26.49147,2.158279,-80.601593,8.3,-1.1,462.0
113.95,-128.0764299,0.55849051,756.5,27.248085,2.6469275,-80.119652,8.5,-1.1,462.0
114.0,-128.07653189,0.55850253,756.0,28.0047,3.135576,-79.637711,8.7,-1.1,462.0
114.05,-128.07665278500002,0.55851915,755.5,28.97456,3.7104305,-79.0414505,8.899999999999999,-1.1,462.5
114.1,-128.07677368,0.55853577,755.0,29.94442,4.285285,-78.44519,9.1,-1.1,463.0
114.15,-128.07687567,0.5585500999999999,754.5,30.89252,4.7530705,-77.9097975,9.2,-1.1,463.0
114.2,-128.07697766,0.55856443,754.0,31.84062,5.220856,-77.374405,9.3,-1.1,463.0
114.25,-128.0770808,0.558581065,753.5,32.806098000000006,5.6180835,-76.81276700000001,9.45,-1.1,463.0
114.3,-128.07718394,0.5585977,753.0,33.771576,6.015311,-76.251129,9.6,-1.1,463.0
114.35,-128.07730541,0.558618355,753.0,35.049635,6.4621435,-75.56736000000001,9.65,-1.1,463.0
114.4,-128.07742688,0.55863901,753.0,36.327694,6.908976,-74.883591,9.7,-1.1,463.0
114.45,-128.07753173999998,0.558659105,753.0,37.5016995,7.276418,-74.255787,9.8,-1.1,463.0
114.5,-128.0776366,0.5586792,753.0,38.675705,7.64386,-73.627983,9.9,-1.1,463.0
114.55,-128.07775750500002,0.5587038950000001,752.5,39.996092,8.034176500000001,-72.8523595,10.0,-1.1,463.0
114.6,-128.07787841,0.55872859,752.0,41.316479,8.424493,-72.076736,10.1,-1.1,463.0
114.65,-128.077978115,0.558750995,752.5,42.446253,8.738559500000001,-71.3956755,10.15,-1.1,463.0
114.7,-128.07807782,0.5587734,753.0,43.576027,9.052626,-70.714615,10.2,-1.1,463.0
114.75,-128.07819529,0.55880156,753.0,44.94514100000001,9.402361,-69.8709755,10.3,-1.1,463.0
114.8,-128.07831276,0.55882972,753.0,46.314255,9.752096,-69.027336,10.4,-1.1,463.0
114.85,-128.078413615,0.55885674,753.0,47.450289,10.010924,-68.268654,10.5,-1.1,462.5
114.9,-128.07851447,0.55888376,753.0,48.586323,10.269752,-67.509972,10.6,-1.1,462.0
114.95,-128.0786159,0.5589125049999999,753.5,49.839081,10.5177675,-66.716797,10.7,-1.15,462.0
115.0,-128.07871733,0.55894125,754.0,51.091839,10.765783,-65.923622,10.8,-1.2,462.0
115.05,-128.07883194,0.5589769099999999,754.5,52.5136015,10.9884735,-64.98328749999999,10.9,-1.2,462.0
115.1,-128.07894655,0.55901257,755.0,53.935364,11.211164,-64.042953,11.0,-1.2,462.0
115.15,-128.07904684,0.559045935,755.0,55.09635,11.348013,-63.2170065,11.0,-1.2,461.5
115.2,-128.07914713,0.5590793,755.0,56.257336,11.484862,-62.39106,11.0,-1.2,461.0
115.25,-128.0792606,0.559120145,756.0,57.777815,11.6095355,-61.413933,11.05,-1.2,461.0
115.3,-128.07937407,0.55916099,757.0,59.298294,11.734209,-60.436806,11.1,-1.2,461.0
115.35,-128.079471495,0.55919897,757.5,60.5997045,11.790719,-59.576504,11.15,-1.2,460.5
115.4,-128.07956892,0.55923695,758.0,61.901115,11.847229,-58.716202,11.2,-1.2,460.0
115.45,-128.07967838500002,0.559282995,758.5,63.3482475,11.856961,-57.7222255,11.25,-1.2,460.0
115.5,-128.07978785,0.55932904,759.0,64.79538,11.866693,-56.728249,11.3,-1.2,460.0
115.55,-128.079884135,0.5593727900000001,759.5,66.210194,11.822401,-55.8370935,11.3,-1.2,459.5
115.6,-128.07998042,0.55941654,760.0,67.625008,11.778109,-54.945938,11.3,-1.2,459.0
115.65,-128.08007499,0.55946202,761.0,68.8543095,11.6983355,-54.0623895,11.35,-1.2,459.0
115.7,-128.08016956,0.5595075,762.0,70.083611,11.618562,-53.178841,11.4,-1.2,459.0
115.75,-128.080275025,0.5595627750000001,762.5,71.612427,11.4670885,-52.1618235,11.4,-1.2,458.5
115.8,-128.08038049,0.55961805,763.0,73.141243,11.315615,-51.144806,11.4,-1.2,458.0
115.85,-128.08046933,0.559666995,764.0,74.4693335,11.137742,-50.278206,11.4,-1.2,457.5
115.9,-128.08055817,0.55971594,765.0,75.797424,10.959869,-49.411606,11.4,-1.2,457.0
115.95,-128.080661345,0.55977756,765.5,77.325447,10.7019995,-48.3848115,11.4,-1.2,457.0
116.0,-128.08076452,0.55983918,766.0,78.85347,10.44413,-47.358017,11.4,-1.2,457.0
116.05,-128.08084993,0.5598933150000001,766.5,80.170101,10.177416,-46.4983675,11.4,-1.2,456.5
116.1,-128.08093534,0.55994745,767.0,81.486732,9.910702,-45.638718,11.4,-1.2,456.0
116.15,-128.081035085,0.56001542,768.0,83.1317325,9.520874,-44.623253,11.4,-1.2,456.0
116.2,-128.08113483,0.56008339,769.0,84.776733,9.131046,-43.607788,11.4,-1.2,456.0
116.25,-128.08121738,0.5601433,770.0,86.094177,8.773403,-42.7654495,11.4,-1.2,455.5
116.3,-128.08129993,0.56020321,771.0,87.411621,8.41576,-41.923111,11.4,-1.2,455.0
116.35,-128.08139223,0.560274065,771.5,88.932148,7.9513915,-40.970558,11.4,-1.2,454.5
116.4,-128.08148453,0.56034492,772.0,90.452675,7.487023,-40.018005,11.4,-1.2,454.0
116.45,-128.08156422000002,0.5604106,772.5,91.869213,7.004311,-39.1925125,11.4,-1.2,454.0
116.5,-128.08164391,0.56047628,773.0,93.285751,6.521599,-38.36702,11.4,-1.2,454.0
116.55,-128.08173506999998,0.56055579,774.0,94.888176,5.920368,-37.4139635,11.4,-1.2,453.5
116.6,-128.08182623,0.5606353,775.0,96.490601,5.319137,-36.460907,11.4,-1.2,453.0
116.65,-128.08189962,0.56070329,775.5,97.7654765,4.80021,-35.69516,11.4,-1.2,453.0
116.7,-128.08197301,0.56077128,776.0,99.040352,4.281283,-34.929413,11.4,-1.2,453.0
116.75,-128.08205902,0.56085656,776.5,100.709156,3.5483975,-34.0392915,11.4,-1.2,452.5
116.8,-128.08214503,0.56094184,777.0,102.37796,2.815512,-33.14917,11.4,-1.2,452.0
116.85,-128.08221728,0.5610173300000001,777.0,103.672123,2.204386,-32.39357,11.4,-1.2,452.0
116.9,-128.08228953,0.56109282,777.0,104.966286,1.59326,-31.63797,11.4,-1.2,452.0
116.95,-128.082357195,0.561167735,777.5,106.345795,0.89925,-30.937935,11.35,-1.2,452.0
117.0,-128.08242486,0.56124265,778.0,107.725304,0.20524,-30.2379,11.3,-1.2,452.0
117.05,-128.08250056,0.561331405,778.0,109.256939,-0.6169580000000001,-29.4610675,11.3,-1.2,451.5
117.1,-128.08257626,0.56142016,778.0,110.788574,-1.439156,-28.684235,11.3,-1.2,451.0
117.15,-128.08264451,0.561505455,778.5,112.1742555,-2.2300645,-27.967003,11.3,-1.2,451.0
117.2,-128.08271276,0.56159075,779.0,113.559937,-3.020973,-27.249771,11.3,-1.2,451.0
117.25,-128.082782735,0.5616823900000001,779.0,115.0125165,-3.8960985,-26.5278165,11.3,-1.2,451.0
117.3,-128.08285271,0.56177403,779.0,116.465096,-4.771224,-25.805862,11.3,-1.2,451.0
117.35,-128.082912935,0.56185818,778.5,117.780472,-5.6001325,-25.1889645,11.3,-1.15,451.0
117.4,-128.08297316,0.56194233,778.0,119.095848,-6.429041,-24.572067,11.3,-1.1,451.0
117.45,-128.08303970499998,0.562040895,778.0,120.57745,-7.402036,-23.8842085,11.3,-1.1,451.0
117.5,-128.08310625,0.56213946,778.0,122.059052,-8.375031,-23.19635,11.3,-1.1,451.0
117.55,-128.083161325,0.5622253450000001,777.5,123.4561925,-9.3301505,-22.6354905,11.35,-1.1,451.0
117.6,-128.0832164,0.56231123,777.0,124.853333,-10.28527,-22.074631,11.4,-1.1,451.0
117.65,-128.083270325,0.56239942,776.5,126.0651095,-11.139928,-21.5334705,11.4,-1.1,451.0
117.7,-128.08332425,0.56248761,776.0,127.276886,-11.994586,-20.99231,11.4,-1.1,451.0
117.75,-128.08338277500002,0.56258964,775.0,128.7903135,-13.0965315,-20.419838,11.4,-1.1,451.0
117.8,-128.0834413,0.56269167,774.0,130.303741,-14.198477,-19.847366,11.4,-1.1,451.0
117.85,-128.083491225,0.56278275,773.0,131.656059,-15.209078,-19.386253,11.4,-1.05,451.0
117.9,-128.08354115,0.56287383,772.0,133.008377,-16.219679,-18.92514,11.4,-1.0,451.0
117.95,-128.08359509000002,0.562978175,771.0,134.48763250000002,-17.346821,-18.4215775,11.4,-1.0,451.5
118.0,-128.08364903,0.56308252,770.0,135.966888,-18.473963,-17.918015,11.4,-1.0,452.0
118.05,-128.083692075,0.56317072,769.0,137.2499845,-19.467726,-17.5390705,11.4,-1.0,452.0
118.1,-128.08373512,0.56325892,768.0,138.533081,-20.461489,-17.160126,11.4,-1.0,452.0
118.15,-128.083784485,0.563365575,766.5,140.05742650000002,-21.6563075,-16.7539065,11.4,-0.95,452.5
118.2,-128.08383385,0.56347223,765.0,141.581772,-22.851126,-16.347687,11.4,-0.9,453.0
118.25,-128.083874605,0.563563895,763.5,142.8232805,-23.8301945,-16.041794,11.4,-0.9,453.5
118.3,-128.08391536,0.56365556,762.0,144.064789,-24.809263,-15.735901,11.4,-0.9,454.0
118.35,-128.08396071,0.56376337,760.0,145.666153,-26.069740000000003,-15.4281235,11.4,-0.9,454.5
118.4,-128.08400606,0.56387118,758.0,147.267517,-27.330217,-15.120346,11.4,-0.9,455.0
118.45,-128.08404166,0.563959965,756.0,148.5513685,-28.332279,-14.909561,11.4,-0.8500000000000001,455.5
118.5,-128.08407726,0.56404875,754.0,149.83522,-29.334341,-14.698776,11.4,-0.8,456.0
118.55,-128.08411286,0.56414042,752.0,151.197609,-30.383209,-14.522865,11.35,-0.8,456.0
118.6,-128.08414846,0.56423209,750.0,152.559998,-31.432077,-14.346954,11.3,-0.8,456.0
118.65,-128.08418751,0.564339325,747.5,154.228081,-32.690959,-14.2003325,11.3,-0.8,457.0
118.7,-128.08422656,0.56444656,745.0,155.896164,-33.949841,-14.053711,11.3,-0.8,458.0
118.75,-128.08425757499998,0.564534775,742.0,157.259323,-34.9539245,-13.9829255,11.3,-0.75,458.5
118.8,-128.08428859,0.56462299,739.0,158.622482,-35.958008,-13.91214,11.3,-0.7,459.0
118.85,-128.08432477,0.564727925,736.0,160.4115905,-37.2360095,-13.8941195,11.25,-0.7,459.5
118.9,-128.08436095,0.56483286,733.0,162.200699,-38.514011,-13.876099,11.2,-0.7,460.0
118.95,-128.084389675,0.564920495,730.0,163.70765699999998,-39.5524805,-13.9227145,11.2,-0.7,461.0
119.0,-128.0844184,0.56500813,727.0,165.214615,-40.59095,-13.96933,11.2,-0.7,462.0
119.05,-128.08444942,0.5651061500000001,723.5,166.984192,-41.7633745,-14.1003115,11.2,-0.6499999999999999,463.0
119.1,-128.08448044,0.56520417,720.0,168.753769,-42.935799,-14.231293,11.2,-0.6,464.0
119.15,-128.08450743999998,0.565290655,717.0,170.4390715,-44.0011845,-14.4232025,11.2,-0.6,464.5
119.2,-128.08453444,0.56537714,714.0,172.124374,-45.06657,-14.615112,11.2,-0.6,465.0
119.25,-128.08455972000002,0.565460165,710.0,173.79017599999997,-46.067663,-14.8842695,11.2,-0.6,466.0
119.3,-128.084585,0.56554319,706.0,175.455978,-47.068756,-15.153427,11.2,-0.6,467.0
119.35,-128.084613155,0.565635445,702.0,177.458389,-48.2003115,-15.5702055,11.2,-0.6,468.0
119.4,-128.08464131,0.5657277,698.0,179.4608,-49.331867,-15.986984,11.2,-0.6,469.0
119.45,-128.08466543999998,0.56580727,694.5,1.5021820000000048,-50.3256815,-16.455016999999998,11.2,-0.6,469.5
119.5,-128.08468957,0.56588684,691.0,-176.456436,-51.319496,-16.92305,11.2,-0.6,470.0
119.55,-128.08471715000002,0.5659767849999999,686.5,-174.076416,-52.501049,-17.625664,11.2,-0.6,471.5
119.6,-128.08474473,0.56606673,682.0,-171.696396,-53.682602,-18.328278,11.2,-0.6,473.0
119.65,-128.08476771,0.56614226,677.5,-169.62377149999998,-54.5529995,-19.08033,11.2,-0.6499999999999999,474.0
119.7,-128.08479069,0.56621779,673.0,-167.551147,-55.423397,-19.832382,11.2,-0.7,475.0
119.75,-128.08481826500002,0.566304855,668.0,-164.54177049999998,-56.538418,-20.9339215,11.2,-0.7,476.0
119.8,-128.08484584,0.56639192,663.0,-161.532394,-57.653439,-22.035461,11.2,-0.7,477.0
119.85,-128.084868245,0.566461105,658.0,-158.97657,-58.477297,-23.132103,11.2,-0.75,478.5
119.9,-128.08489065,0.56653029,653.0,-156.420746,-59.301155,-24.228745,11.2,-0.8,480.0
119.95,-128.08491764500002,0.5666075500000001,647.5,-153.20577250000002,-60.189316000000005,-25.7568665,11.2,-0.8,481.0
120.0,-128.08494464,0.56668481,642.0,-149.990799,-61.077477,-27.284988,11.2,-0.8,482.0
120.05,-128.084967035,0.5667470750000001,638.0,-147.11263300000002,-61.7451175,-28.7585905,11.25,-0.8500000000000001,483.0
120.1,-128.08498943,0.56680934,634.0,-144.234467,-62.412758,-30.232193,11.3,-0.9,484.0
120.15,-128.085017565,0.566881985,627.0,-140.167664,-63.174042,-32.4020235,11.3,-0.9,485.5
120.2,-128.0850457,0.56695463,620.0,-136.100861,-63.935326,-34.571854,11.3,-0.9,487.0
120.25,-128.08507039,0.567013435,615.5,-132.7816315,-64.411114,-36.630127,11.3,-0.9,488.0
120.3,-128.08509508,0.56707224,611.0,-129.462402,-64.886902,-38.6884,11.3,-0.9,489.0
120.35,-128.08512148,0.567128735,605.0,-125.5052605,-65.29849250000001,-40.95845,11.3,-0.9,490.5
120.4,-128.08514788,0.56718523,599.0,-121.548119,-65.710083,-43.2285,11.3,-0.9,492.0
120.45,-128.08517887,0.567246915,593.0,-117.0575525,-65.99017699999999,-46.081764,11.3,-0.9,493.5
120.5,-128.08520986,0.5673086,587.0,-112.566986,-66.270271,-48.935028,11.3,-0.9,495.0
120.55,-128.085237405,0.567356445,582.0,-108.642067,-66.3620565,-51.415447,11.3,-0.9,496.0
120.6,-128.08526495,0.56740429,577.0,-104.717148,-66.453842,-53.895866,11.3,-0.9,497.0
120.65,-128.08530109,0.5674602,569.0,-99.7774355,-66.376621,-56.931438,11.35,-0.9,498.5
120.7,-128.08533723,0.56751611,561.0,-94.837723,-66.2994,-59.96701,11.4,-0.9,500.0
120.75,-128.085368205,0.5675576099999999,556.0,-91.037201,-66.089264,-62.368301,11.4,-0.9,501.5
120.8,-128.08539918,0.56759911,551.0,-87.236679,-65.879128,-64.769592,11.4,-0.9,503.0
120.85,-128.08543243999998,0.567638295,544.5,-83.3903235,-65.527424,-67.051563,11.4,-0.9,504.0
120.9,-128.0854657,0.56767748,538.0,-79.543968,-65.17572,-69.333534,11.4,-0.9,505.0
120.95,-128.085506985,0.56771897,531.5,-75.487629,-64.640068,-71.729374,11.45,-0.9,506.5
121.0,-128.08554827,0.56776046,525.0,-71.43129,-64.104416,-74.125214,11.5,-0.9,508.0
121.05,-128.085584965,0.567792725,519.5,-68.19368,-63.5398865,-75.9360165,11.5,-0.9,509.0
121.1,-128.08562166,0.56782499,514.0,-64.95607,-62.975357,-77.746819,11.5,-0.9,510.0
121.15,-128.08566867,0.56785955,506.0,-61.354296,-62.188343,-79.601891,11.5,-0.9,512.0
121.2,-128.08571568,0.56789411,498.0,-57.752522,-61.401329,-81.456963,11.5,-0.9,514.0
121.25,-128.08575809500002,0.56791945,492.5,-55.115206,-60.7070885,-82.7908405,11.5,-0.9,515.0
121.3,-128.08580051,0.56794479,487.0,-52.47789,-60.012848,-84.124718,11.5,-0.9,516.0
121.35,-128.085852665,0.567971275,480.5,-49.50086,-59.0905,-85.440609,11.5,-0.9,517.5
121.4,-128.08590482,0.56799776,474.0,-46.52383,-58.168152,-86.7565,11.5,-0.9,519.0
121.45,-128.08595411,0.568018475,467.0,-44.0922335,-57.2923795,-87.70504,11.55,-0.8500000000000001,520.0
121.5,-128.0860034,0.56803919,460.0,-41.660637,-56.416607,-88.65358,11.6,-0.8,521.0
121.55,-128.08605383000005,0.56805587,455.0,-39.567999,-55.569498,-89.41357450000001,11.6,-0.8,522.0
121.6,-128.08610426,0.56807255,450.0,-37.475361,-54.722389,-90.173569,11.6,-0.8,523.0
121.65,-128.08616844,0.568089795,443.0,-35.0874235,-53.624769,-90.912098,11.6,-0.8,524.5
121.7,-128.08623262,0.56810704,436.0,-32.699486,-52.527149,-91.650627,11.6,-0.8,526.0
121.75,-128.086288775,0.5681191050000001,429.5,-30.994794,-51.6312465,-92.153248,11.65,-0.8,527.5
121.8,-128.08634493,0.56813117,423.0,-29.290102,-50.735344,-92.655869,11.7,-0.8,529.0
121.85,-128.08641483,0.568142065,416.5,-27.451418,-49.6372145,-93.1381075,11.75,-0.8,530.0
121.9,-128.08648473,0.56815296,410.0,-25.612734,-48.539085,-93.620346,11.8,-0.8,531.0
121.95,-128.08654833,0.5681604,404.5,-24.114362,-47.5113125,-93.9555665,11.85,-0.75,532.0
122.0,-128.08661193,0.56816784,399.0,-22.61599,-46.48354,-94.290787,11.9,-0.7,533.0
122.05,-128.086692715,0.568173535,391.5,-21.0739835,-45.2744905,-94.607174,12.0,-0.7,534.5
122.1,-128.0867735,0.56817923,384.0,-19.531977,-44.065441,-94.923561,12.1,-0.7,536.0
122.15,-128.08684397,0.56818263,379.0,-18.390296,-43.0280835,-95.122936,12.15,-0.6499999999999999,537.0
122.2,-128.08691444,0.56818603,374.0,-17.248615,-41.990726,-95.322311,12.2,-0.6,538.0
122.25,-128.08700095,0.568187105,366.5,-16.123636,-40.803932,-95.5006865,12.25,-0.55,539.0
122.3,-128.08708746,0.56818818,359.0,-14.998657,-39.617138,-95.679062,12.3,-0.5,540.0
122.35,-128.08716422499998,0.56818811,354.0,-14.21101,-38.667843,-95.7937545,12.35,-0.45,541.0
122.4,-128.08724099,0.56818804,349.0,-13.423363,-37.718548,-95.908447,12.4,-0.4,542.0
122.45,-128.08732291500002,0.56818624,344.5,-12.6808505,-36.6978285,-95.997345,12.4,-0.35,542.5
122.5,-128.08740484,0.56818444,340.0,-11.938338,-35.677109,-96.086243,12.4,-0.3,543.0
122.55,-128.08750337499998,0.568180315,333.0,-11.2601725,-34.602354000000005,-96.1577645,12.35,-0.25,544.0
122.6,-128.08760191,0.56817619,326.0,-10.582007,-33.527599,-96.229286,12.3,-0.2,545.0
122.65,-128.08768956,0.5681715,321.5,-10.1470655,-32.7320925,-96.275253,12.2,-0.15,546.0
122.7,-128.08777721,0.56816681,317.0,-9.712124,-31.936586,-96.32122,12.1,-0.1,547.0
122.75,-128.087882045,0.568159795,312.0,-9.293916,-31.001536,-96.3743665,11.95,-0.05,548.0
122.8,-128.08798688,0.56815278,307.0,-8.875708,-30.066486,-96.427513,11.8,-0.0,549.0
122.85,-128.088080255,0.56814635,301.5,-8.620841500000001,-29.335617,-96.480297,11.65,0.05,549.5
122.9,-128.08817363,0.56813992,296.0,-8.365975,-28.604748,-96.533081,11.5,0.1,550.0
122.95,-128.088269295,0.56813176,292.0,-8.174917,-27.9331325,-96.5889395,11.3,0.1,551.0
123.0,-128.08836496,0.5681236,288.0,-7.983859,-27.261517,-96.644798,11.1,0.1,552.0
123.05,-128.088477815,0.5681137,283.0,-7.8162205,-26.6079335,-96.709156,10.85,0.15,552.5
123.1,-128.08859067,0.5681038,278.0,-7.648582,-25.95435,-96.773514,10.6,0.2,553.0
123.15,-128.08870982000002,0.568092155,272.5,-7.537141500000001,-25.428567,-96.8370745,10.15,0.2,554.0
123.2,-128.08882897,0.56808051,267.0,-7.425701,-24.902784,-96.900635,9.7,0.2,555.0
123.25,-128.08893323,0.56806946,263.5,-7.4083575,-24.579917,-96.958538,9.35,0.2,556.0
123.3,-128.08903749,0.56805841,260.0,-7.391014,-24.25705,-97.016441,9.0,0.2,557.0
123.35,-128.08916008,0.568045615,256.0,-7.492711,-23.9099945,-97.09478,8.55,0.2,557.5
123.4,-128.08928267,0.56803282,252.0,-7.594408,-23.562939,-97.173119,8.1,0.2,558.0
123.45,-128.08939035999998,0.56802061,247.5,-7.774177,-23.2727435,-97.25589,7.75,0.2,559.0
123.5,-128.08949805,0.5680084,243.0,-7.953946,-22.982548,-97.338661,7.4,0.2,560.0
123.55,-128.08962407500002,0.56799387,239.0,-8.2417625,-22.5634645,-97.4619675,7.15,0.25,561.0
123.6,-128.0897501,0.56797934,235.0,-8.529579,-22.144381,-97.585274,6.9,0.3,562.0
123.65,-128.08986066,0.5679659800000001,232.0,-8.836522500000001,-21.658668,-97.7227825,6.85,0.3,562.5
123.7,-128.08997122,0.56795262,229.0,-9.143466,-21.172955,-97.860291,6.8,0.3,563.0
123.75,-128.09009953499998,0.5679363550000001,225.5,-9.5455515,-20.474684000000003,-98.0534175,6.85,0.3,564.0
123.8,-128.09022785,0.56792009,222.0,-9.947637,-19.776413,-98.246544,6.9,0.3,565.0
123.85,-128.090340125,0.5679055749999999,218.0,-10.294003,-19.12706,-98.4426425,7.0,0.3,566.0
123.9,-128.0904524,0.56789106,214.0,-10.640369,-18.477707,-98.638741,7.1,0.3,567.0
123.95,-128.09058471999998,0.567873065,210.5,-11.063426,-17.6346875,-98.8960385,7.3,0.3,567.5
124.0,-128.09071704,0.56785507,207.0,-11.486483,-16.791668,-99.153336,7.5,0.3,568.0
124.05,-128.090833325,0.5678382399999999,204.5,-11.9153855,-15.957662,-99.403744,7.65,0.3,568.5
124.1,-128.09094961,0.56782141,202.0,-12.344288,-15.123656,-99.654152,7.8,0.3,569.0
124.15,-128.091086515,0.5678011000000001,198.5,-12.862639,-14.2253695,-99.9730685,8.05,0.35,569.5
124.2,-128.09122342,0.56778079,195.0,-13.38099,-13.327083,-100.291985,8.3,0.4,570.0
124.25,-128.091340275,0.5677628100000001,192.5,-13.860561,-12.579813,-100.586903,8.45,0.4,570.5
124.3,-128.09145713,0.56774483,190.0,-14.340132,-11.832543,-100.881821,8.6,0.4,571.0
124.35,-128.09158028500002,0.567724535,187.0,-14.943166000000002,-10.9545815,-101.2146075,8.8,0.45,571.5
124.4,-128.09170344,0.56770424,184.0,-15.5462,-10.07662,-101.547394,9.0,0.5,572.0
124.45,-128.091845495,0.5676793149999999,181.5,-16.240689500000002,-9.1509385,-101.96542,9.15,0.5,572.5
124.5,-128.09198755,0.56765439,179.0,-16.935179,-8.225257,-102.383446,9.3,0.5,573.0
124.55,-128.09210783999998,0.5676323649999999,177.0,-17.580537,-7.4039775,-102.771763,9.4,0.5,573.0
124.6,-128.09222813,0.56761034,175.0,-18.225895,-6.582698,-103.16008,9.5,0.5,573.0
124.65,-128.092370755,0.5675825299999999,173.0,-19.0084095,-5.5942385,-103.659355,9.65,0.55,573.5
124.7,-128.09251338,0.56755472,171.0,-19.790924,-4.605779,-104.15863,9.8,0.6,574.0
124.75,-128.092633095,0.567529815,169.0,-20.4174575,-3.8286175,-104.619091,9.95,0.6,574.0
124.8,-128.09275281,0.56750491,167.0,-21.043991,-3.051456,-105.079552,10.1,0.6,574.0
124.85,-128.092898295,0.567472485,165.5,-21.8284855,-2.113422,-105.673027,10.25,0.6,574.0
124.9,-128.09304378,0.56744006,164.0,-22.61298,-1.175388,-106.266502,10.4,0.6,574.0
124.95,-128.09316979,0.567410535,162.5,-23.3674305,-0.321661,-106.8041685,10.5,0.6,574.0
125.0,-128.0932958,0.56738101,161.0,-24.121881,0.532066,-107.341835,10.6,0.6,574.0
125.05,-128.09344357499998,0.56734397,160.0,-24.967692,1.4281770000000005,-108.011677,10.65,0.6,574.0
125.1,-128.09359135,0.56730693,159.0,-25.813503,2.324288,-108.681519,10.7,0.6,574.0
125.15,-128.093712775,0.567273945,158.0,-26.5424165,3.043831,-109.256062,10.75,0.6,573.5
125.2,-128.0938342,0.56724096,157.0,-27.27133,3.763374,-109.830605,10.8,0.6,573.0
125.25,-128.09396364,0.567203935,156.0,-28.0473025,4.482683,-110.4644625,10.8,0.6,573.0
125.3,-128.09409308,0.56716691,155.0,-28.823275,5.201992,-111.09832,10.8,0.6,573.0
125.35,-128.094235695,0.567122955,154.5,-29.712721,5.975922,-111.827732,10.85,0.6,573.0
125.4,-128.09437831,0.567079,154.0,-30.602167,6.749852,-112.557144,10.9,0.6,573.0
125.45,-128.094502015,0.56703852,154.0,-31.4557085,7.442938,-113.2224425,10.9,0.6,572.5
125.5,-128.09462572,0.56699804,154.0,-32.30925,8.136024,-113.887741,10.9,0.6,572.0
125.55,-128.09476374500002,0.566950045,154.0,-33.2570685,8.8548305,-114.664673,10.9,0.55,571.5
125.6,-128.09490177,0.56690205,154.0,-34.204887,9.573637,-115.441605,10.9,0.5,571.0
125.65,-128.095025475,0.56685523,154.0,-35.032255,10.1721375,-116.1600475,10.9,0.5,570.5
125.7,-128.09514918,0.56680841,154.0,-35.859623,10.770638,-116.87849,10.9,0.5,570.0
125.75,-128.095269445,0.56676101,154.0,-36.7223265,11.3682985,-117.615604,10.9,0.5,570.0
125.8,-128.09538971,0.56671361,154.0,-37.58503,11.965959,-118.352718,10.9,0.5,570.0
125.85,-128.095528875,0.56665466,155.0,-38.601225,12.63181,-119.2417965,10.9,0.5,569.5
125.9,-128.09566804,0.56659571,156.0,-39.61742,13.297661,-120.130875,10.9,0.5,569.0
125.95,-128.09578657999998,0.5665419700000001,156.5,-40.544073,13.883519,-120.9374885,10.95,0.5,568.5
126.0,-128.09590512,0.56648823,157.0,-41.470726,14.469377,-121.744102,11.0,0.5,568.0
126.05,-128.0960374,0.566424675,158.0,-42.495180000000005,15.1106335,-122.7022035,11.05,0.5,567.0
126.1,-128.09616968,0.56636112,159.0,-43.519634,15.75189,-123.660305,11.1,0.5,566.0
126.15,-128.09628363500002,0.5663027700000001,160.0,-44.3470305,16.257568499999998,-124.534252,11.15,0.5,565.5
126.2,-128.09639759,0.56624442,161.0,-45.174427,16.763247,-125.408199,11.2,0.5,565.0
126.25,-128.09652528499998,0.5661739450000001,162.0,-46.250004,17.391084,-126.4576605,11.25,0.5,564.5
126.3,-128.09665298,0.56610347,163.0,-47.325581,18.018921,-127.507122,11.3,0.5,564.0
126.35,-128.096758335,0.566042245,164.5,-48.1983245,18.5092965,-128.429693,11.4,0.5,563.5
