Time,Longitude,Latitude,Altitude,Roll,Pitch,Yaw,AOA,AOS,TAS
46.4,-128.08098667,0.62731148,401.0,-61.944752,10.080698,-141.705257,7.2,0.4,426.0
46.45,-128.08105421,0.62724163,401.5,-61.960918500000005,10.109954,-142.16508249999998,7.2,0.35,426.0
46.5,-128.08112175,0.62717178,402.0,-61.977085,10.13921,-142.624908,7.2,0.3,426.0
46.55,-128.08118699,0.62710135,403.0,-61.986057,10.169228,-143.080511,7.15,0.3,426.0
46.6,-128.08125223,0.62703092,404.0,-61.995029,10.199246,-143.536114,7.1,0.3,426.0
46.65,-128.08132433999998,0.626950685,404.5,-61.995945000000006,10.2354515,-144.0576495,7.1,0.3,426.0
46.7,-128.08139645,0.62687045,405.0,-61.996861,10.271657,-144.579185,7.1,0.3,426.0
46.75,-128.08147027500002,0.62678502,406.0,-61.98724,10.3128845,-145.1152855,7.05,0.3,426.0
46.8,-128.0815441,0.62669959,407.0,-61.977619,10.354112,-145.651386,7.0,0.3,426.0
46.85,-128.08160533,0.626626285,407.5,-61.965803,10.3911825,-146.110405,7.0,0.3,426.0
46.9,-128.08166656,0.62655298,408.0,-61.953987,10.428253,-146.569424,7.0,0.3,426.0
46.95,-128.081726645,0.626478525,408.5,-61.941284,10.4659945,-147.032944,7.0,0.3,426.0
47.0,-128.08178673,0.62640407,409.0,-61.928581,10.503736,-147.496464,7.0,0.3,426.0
47.05,-128.081853675,0.62631807,410.0,-61.9147545,10.5528655,-148.0278905,7.0,0.3,426.0
47.1,-128.08192062,0.62623207,411.0,-61.900928,10.601995,-148.559317,7.0,0.3,426.0
47.15,-128.08197898,0.626153575,411.5,-61.889402,10.6531135,-149.0403375,7.0,0.3,426.0
47.2,-128.08203734,0.62607508,412.0,-61.877876,10.704232,-149.521358,7.0,0.3,426.0
47.25,-128.08210371,0.62598389,413.0,-61.8655985,10.767256,-150.0881155,7.0,0.3,426.0
47.3,-128.08217008,0.6258927,414.0,-61.853321,10.83028,-150.654873,7.0,0.3,426.0
47.35,-128.082222715,0.62581652,414.5,-61.842863,10.887115,-151.1083335,7.05,0.3,426.0
47.4,-128.08227535,0.62574034,415.0,-61.832405,10.94395,-151.561794,7.1,0.3,426.0
47.45,-128.08233828,0.6256462700000001,416.0,-61.8187045,11.019814,-152.1580875,7.1,0.3,426.0
47.5,-128.08240121,0.6255522,417.0,-61.805004,11.095678,-152.754381,7.1,0.3,426.0
47.55,-128.082452695,0.625473135,417.5,-61.7921925,11.1578365,-153.243783,7.15,0.3,426.0
47.6,-128.08250418,0.62539407,418.0,-61.779381,11.219995,-153.733185,7.2,0.3,426.0
47.65,-128.08256367,0.6252977,419.0,-61.758776,11.2962985,-154.311943,7.2,0.3,426.0
47.7,-128.08262316,0.62520133,420.0,-61.738171,11.372602,-154.890701,7.2,0.3,426.0
47.75,-128.08267121,0.625121115,420.5,-61.7135335,11.437461,-155.3741425,7.25,0.3,426.0
47.8,-128.08271926,0.6250409,421.0,-61.688896,11.50232,-155.857584,7.3,0.3,426.0
47.85,-128.08277531,0.6249422250000001,422.0,-61.647392,11.5796955,-156.4357025,7.3,0.3,426.0
47.9,-128.08283136,0.62484355,423.0,-61.605888,11.657071,-157.013821,7.3,0.3,426.0
47.95,-128.08287711,0.62475988,424.0,-61.5547275,11.724129,-157.50174750000002,7.3,0.3,426.0
48.0,-128.08292286,0.62467621,425.0,-61.503567,11.791187,-157.989674,7.3,0.3,426.0
48.05,-128.082973755,0.6245792649999999,425.5,-61.419754,11.8674955,-158.535561,7.3,0.3,425.5
48.1,-128.08302465,0.62448232,426.0,-61.335941,11.943804,-159.081448,7.3,0.3,425.0
48.15,-128.083067535,0.624396925,427.0,-61.2332325,12.013331,-159.584721,7.35,0.3,425.0
48.2,-128.08311042,0.62431153,428.0,-61.130524,12.082858,-160.087994,7.4,0.3,425.0
48.25,-128.08315273,0.624223825,428.5,-60.994606000000005,12.1576915,-160.5815935,7.4,0.3,425.0
48.3,-128.08319504,0.62413612,429.0,-60.858688,12.232525,-161.075193,7.4,0.3,425.0
48.35,-128.08324134999998,0.6240351449999999,430.5,-60.675884,12.315783,-161.616019,7.4,0.25,425.0
48.4,-128.08328766,0.62393417,432.0,-60.49308,12.399041,-162.156845,7.4,0.2,425.0
48.45,-128.083324245,0.62384993,432.5,-60.313921,12.466186,-162.60270300000002,7.4,0.2,425.0
48.5,-128.08336083,0.62376569,433.0,-60.134762,12.533331,-163.048561,7.4,0.2,425.0
48.55,-128.08340427000002,0.623661835,434.0,-59.849956500000005,12.6142245,-163.573542,7.35,0.2,425.0
48.6,-128.08344771,0.62355798,435.0,-59.565151,12.695118,-164.098523,7.3,0.2,425.0
48.65,-128.08348429,0.62346567,436.0,-59.2696915,12.764752,-164.551442,7.25,0.15,425.0
48.7,-128.08352087,0.62337336,437.0,-58.974232,12.834386,-165.004361,7.2,0.1,425.0
48.75,-128.083558585,0.6232718150000001,438.0,-58.6247715,12.911726,-165.4816095,7.15,0.1,424.5
48.8,-128.0835963,0.62317027,439.0,-58.275311,12.989066,-165.958858,7.1,0.1,424.0
48.85,-128.08362944,0.623077385,439.5,-57.914637,13.067749,-166.37714749999998,7.1,0.1,424.0
48.9,-128.08366258,0.6229845,440.0,-57.553963,13.146432,-166.795437,7.1,0.1,424.0
48.95,-128.08369514,0.622887575,441.0,-57.156584,13.2295685,-167.2240655,7.05,0.05,424.0
49.0,-128.0837277,0.62279065,442.0,-56.759205,13.312705,-167.652694,7.0,0.0,424.0
49.05,-128.083758545,0.622694885,443.0,-56.320881,13.398248,-168.0537445,6.95,0.0,424.0
49.1,-128.08378939,0.62259912,444.0,-55.882557,13.483791,-168.454795,6.9,-0.0,424.0
49.15,-128.0838168,0.6225068149999999,445.0,-55.418495,13.5656255,-168.82869549999998,6.85,0.0,424.0
49.2,-128.08384421,0.62241451,446.0,-54.954433,13.64746,-169.202596,6.8,-0.0,424.0
49.25,-128.08387447500002,0.6223077850000001,447.5,-54.350980500000006,13.736605,-169.598962,6.699999999999999,-0.05,423.5
49.3,-128.08390474,0.62220106,449.0,-53.747528,13.82575,-169.995328,6.6,-0.1,423.0
49.35,-128.083929855,0.6221076050000001,449.5,-53.123258500000006,13.900099999999998,-170.3072095,6.55,-0.1,423.0
49.4,-128.08395497,0.62201415,450.0,-52.498989,13.97445,-170.619091,6.5,-0.1,423.0
49.45,-128.083981795,0.6219074250000001,451.5,-51.737795000000006,14.052001,-170.9458295,6.35,-0.15,423.0
49.5,-128.08400862,0.6218007,453.0,-50.976601,14.129552,-171.272568,6.2,-0.2,423.0
49.55,-128.0840303,0.621707825,454.0,-50.273657,14.197596,-171.539496,6.1,-0.2,423.0
49.6,-128.08405198,0.62161495,455.0,-49.570713,14.26564,-171.806424,6.0,-0.2,423.0
49.65,-128.08407252,0.6215226549999999,456.0,-48.835325,14.3407935,-172.05836,5.9,-0.2,423.0
49.7,-128.08409306,0.62143036,457.0,-48.099937,14.415947,-172.310296,5.8,-0.2,423.0
49.75,-128.08411587,0.62132018,458.0,-47.238159,14.5161705,-172.6073725,5.75,-0.25,422.5
49.8,-128.08413868,0.62121,459.0,-46.376381,14.616394,-172.904449,5.7,-0.3,422.0
49.85,-128.084156925,0.62111713,460.0,-45.6134665,14.717659,-173.149722,5.6,-0.3,422.0
49.9,-128.08417517,0.62102426,461.0,-44.850552,14.818924,-173.394995,5.5,-0.3,422.0
49.95,-128.084193975,0.620920425,462.0,-44.099783,14.930629,-173.6531675,5.45,-0.3,422.0
50.0,-128.08421278,0.62081659,463.0,-43.349014,15.042334,-173.91134,5.4,-0.3,422.0
50.05,-128.084228735,0.6207243,464.5,-42.6807935,15.1532745,-174.1417195,5.35,-0.3,422.0
50.1,-128.08424469,0.62063201,466.0,-42.012573,15.264215,-174.372099,5.3,-0.3,422.0
50.15,-128.084260635,0.62053337,467.0,-41.339548,15.3894195,-174.602835,5.25,-0.3,421.5
50.2,-128.08427658,0.62043473,468.0,-40.666523,15.514624,-174.833571,5.2,-0.3,421.0
50.25,-128.08429252,0.620327445,469.5,-39.993704,15.6548335,-175.0809625,5.15,-0.3,421.0
50.3,-128.08430846,0.62022016,471.0,-39.320885,15.795043,-175.328354,5.1,-0.3,421.0
50.35,-128.084321545,0.6201244100000001,472.0,-38.7072165,15.9332135,-175.5415865,5.1,-0.25,421.0
50.4,-128.08433463,0.62002866,473.0,-38.093548,16.071384,-175.754819,5.1,-0.2,421.0
50.45,-128.084347705,0.619924835,474.0,-37.4656125,16.2177655,-175.973411,5.1,-0.2,421.0
50.5,-128.08436078,0.61982101,475.0,-36.837677,16.364147,-176.192003,5.1,-0.2,421.0
50.55,-128.08437157999998,0.61973045,476.5,-36.254671,16.5004775,-176.378688,5.05,-0.2,421.0
50.6,-128.08438238,0.61963989,478.0,-35.671665,16.636808,-176.565373,5.0,-0.2,421.0
50.65,-128.084394305,0.619527415,479.5,-34.9698675,16.8036285,-176.7943675,5.0,-0.2,420.5
50.7,-128.08440623,0.61941494,481.0,-34.26807,16.970449,-177.023362,5.0,-0.2,420.0
50.75,-128.08441588,0.619320925,482.0,-33.7165565,17.108201,-177.2033725,4.95,-0.15,420.0
50.8,-128.08442553,0.61922691,483.0,-33.165043,17.245953,-177.383383,4.9,-0.1,420.0
50.85,-128.084435165,0.619120205,484.5,-32.649992,17.410803,-177.5909335,4.9,-0.1,420.0
50.9,-128.0844448,0.6190135,486.0,-32.134941,17.575653,-177.798484,4.9,-0.1,420.0
50.95,-128.08445273,0.6189194849999999,487.5,-31.7809965,17.7636995,-177.9987715,4.9,-0.1,419.5
51.0,-128.08446066,0.61882547,489.0,-31.427052,17.951746,-178.199059,4.9,-0.1,419.0
51.05,-128.08446687999998,0.61873607,490.0,-31.19457,18.147396,-178.4066225,4.95,-0.05,419.0
51.1,-128.0844731,0.61864667,491.0,-30.962088,18.343046,-178.614186,5.0,-0.0,419.0
51.15,-128.08448044,0.61853766,492.5,-30.7524865,18.5877455,-178.8655935,5.1,0.0,419.0
51.2,-128.08448778,0.61842865,494.0,-30.542885,18.832445,-179.117001,5.2,-0.0,419.0
51.25,-128.08449342,0.6183329049999999,495.5,-30.38243,19.053651,-179.3366695,5.25,0.0,418.5
51.3,-128.08449906,0.61823716,497.0,-30.221975,19.274857,-179.556338,5.3,0.0,418.0
51.35,-128.08450411500002,0.61813219,499.0,-30.0808,19.493454,0.2126145000000008,5.3,0.05,418.0
51.4,-128.08450917,0.61802722,501.0,-29.939625,19.712051,179.981567,5.3,0.1,418.0
51.45,-128.08451309499998,0.61793667,502.0,-29.838169,19.89499,179.787628,5.35,0.1,418.0
51.5,-128.08451702,0.61784612,503.0,-29.736713,20.077929,179.593689,5.4,0.1,418.0
51.55,-128.084520355,0.617740575,504.5,-29.6397645,20.275753,179.37066650000003,5.4,0.15,417.5
51.6,-128.08452369,0.61763503,506.0,-29.542816,20.473577,179.147644,5.4,0.2,417.0
51.65,-128.08452647,0.617543325,508.0,-29.4695665,20.633172,178.958893,5.35,0.2,417.0
51.7,-128.08452925,0.61745162,510.0,-29.396317,20.792767,178.770142,5.3,0.2,417.0
51.75,-128.08453086999998,0.61734723,511.5,-29.314074,20.965829,178.5540315,5.3,0.2,416.5
51.8,-128.08453249,0.61724284,513.0,-29.231831,21.138891,178.337921,5.3,0.2,416.0
51.85,-128.084533545,0.61715114,514.5,-29.1294355,21.2898645,178.151016,5.3,0.2,416.0
51.9,-128.0845346,0.61705944,516.0,-29.02704,21.440838,177.964111,5.3,0.2,416.0
51.95,-128.084534515,0.61696889,517.5,-28.8692175,21.5615445,177.787567,5.25,0.2,415.5
52.0,-128.08453443,0.61687834,519.0,-28.711395,21.682251,177.611023,5.2,0.2,415.0
52.05,-128.08453433,0.616775105,521.0,-28.3322875,21.816373,177.418106,5.15,0.2,415.0
52.1,-128.08453423,0.61667187,523.0,-27.95318,21.950495,177.225189,5.1,0.2,415.0
52.15,-128.08453300000002,0.61658075,524.5,-27.43768,22.06837,177.0558625,5.05,0.15,414.5
52.2,-128.08453177,0.61648963,526.0,-26.92218,22.186245,176.886536,5.0,0.1,414.0
52.25,-128.08452995,0.6163852400000001,528.0,-26.195201,22.329548,176.6914825,4.95,0.05,414.0
52.3,-128.08452813,0.61628085,530.0,-25.468222,22.472851,176.496429,4.9,0.0,414.0
52.35,-128.08452575500002,0.6161903049999999,531.5,-24.718568,22.6080085,176.3313445,4.9,-0.05,413.5
52.4,-128.08452338,0.61609976,533.0,-23.968914,22.743166,176.16626,4.9,-0.1,413.0
52.45,-128.08451983999998,0.6159942199999999,535.5,-23.0276765,22.9026595,175.98168950000002,4.85,-0.2,412.5
52.5,-128.0845163,0.61588868,538.0,-22.086439,23.062153,175.797119,4.8,-0.3,412.0
52.55,-128.08451278,0.6158027500000001,539.5,-21.292695,23.1946925,175.6545255,4.8,-0.35,412.0
52.6,-128.08450926,0.61571682,541.0,-20.498951,23.327232,175.511932,4.8,-0.4,412.0
52.65,-128.084505155,0.61561359,543.0,-19.4572165,23.5063005,175.355362,4.8,-0.45,411.5
52.7,-128.08450105,0.61551036,545.0,-18.415482,23.685369,175.198792,4.8,-0.5,411.0
52.75,-128.08449638000002,0.61542097,547.0,-17.5227175,23.847325,175.0778965,4.8,-0.55,410.5
52.8,-128.08449171,0.61533158,549.0,-16.629953,24.009281,174.957001,4.8,-0.6,410.0
52.85,-128.084487045,0.61524277,550.5,-15.749233,24.1776445,174.8516695,4.8,-0.6499999999999999,410.0
52.9,-128.08448238,0.61515396,552.0,-14.868513,24.346008,174.746338,4.8,-0.7,410.0
52.95,-128.08447655,0.61505188,554.5,-13.804049,24.560049,174.647217,4.8,-0.75,409.5
53.0,-128.08447072,0.6149498,557.0,-12.739585,24.77409,174.548096,4.8,-0.8,409.0
53.05,-128.08446491,0.61486272,558.5,-11.8841195,24.9540595,174.4844665,4.8,-0.8500000000000001,408.5
53.1,-128.0844591,0.61477564,560.0,-11.028654,25.134029,174.420837,4.8,-0.9,408.0
53.15,-128.084452705,0.614675295,562.0,-9.9981945,25.360567000000003,174.3720395,4.8,-0.9,408.0
53.2,-128.08444631,0.61457495,564.0,-8.967735,25.587105,174.323242,4.8,-0.9,408.0
53.25,-128.084440495,0.614488445,566.0,-8.0477885,25.7983905,174.302841,4.8,-0.95,407.5
53.3,-128.08443468,0.61440194,568.0,-7.127842,26.009676,174.28244,4.8,-1.0,407.0
53.35,-128.0844283,0.61431486,570.0,-6.273535000000001,26.2114935,174.283142,4.8,-1.0,406.5
53.4,-128.08442192,0.61422778,572.0,-5.419228,26.413311,174.283844,4.8,-1.0,406.0
53.45,-128.08441438,0.61413032,574.0,-4.382339,26.6614905,174.31072999999998,4.85,-1.0,405.5
53.5,-128.08440684,0.61403286,576.0,-3.34545,26.90967,174.337616,4.9,-1.0,405.0
53.55,-128.084400455,0.61394693,578.5,-2.4589605,27.11992,174.383499,4.9,-1.0,405.0
53.6,-128.08439407,0.613861,581.0,-1.572471,27.33017,174.429382,4.9,-1.0,405.0
53.65,-128.08438595500002,0.613759505,583.0,-0.503679,27.5762885,174.509262,4.95,-1.0,404.5
53.7,-128.08437784,0.61365801,585.0,0.565113,27.822407,174.589142,5.0,-1.0,404.0
53.75,-128.084371455,0.61357381,587.5,1.548152,28.039673,174.67593399999998,5.0,-0.95,403.5
53.8,-128.08436507,0.61348961,590.0,2.531191,28.256939,174.762726,5.0,-0.9,403.0
53.85,-128.08435753499998,0.6133938800000001,592.0,3.645886,28.4987395,174.88606249999998,5.05,-0.9,402.5
53.9,-128.08435,0.61329815,594.0,4.760581,28.74054,175.009399,5.1,-0.9,402.0
53.95,-128.084343615,0.6132151100000001,596.0,5.806725,28.967,175.13699300000002,5.1,-0.9,401.5
54.0,-128.08433723,0.61313207,598.0,6.852869,29.19346,175.264587,5.1,-0.9,401.0
54.05,-128.084330265,0.613036335,600.5,8.071396,29.4551515,175.4362945,5.15,-0.9,400.5
54.1,-128.0843233,0.6129406,603.0,9.289923,29.716843,175.608002,5.2,-0.9,400.0
54.15,-128.08431692,0.6128575599999999,605.5,10.3297935,29.946359,175.778168,5.25,-0.9,399.5
54.2,-128.08431054,0.61277452,608.0,11.369664,30.175875,175.948334,5.3,-0.9,399.0
54.25,-128.08430357499998,0.61267821,610.5,12.56931,30.4485315,176.1688385,5.35,-0.9,398.5
54.3,-128.08429661,0.6125819,613.0,13.768956,30.721188,176.389343,5.4,-0.9,398.0
54.35,-128.084290805,0.61250001,615.0,14.7936185,30.95576,176.596756,5.45,-0.95,397.5
54.4,-128.084285,0.61241812,617.0,15.818281,31.190332,176.804169,5.5,-1.0,397.0
54.45,-128.08427861,0.612324695,619.5,16.927146,31.4466665,177.068695,5.55,-1.0,396.5
54.5,-128.08427222,0.61223127,622.0,18.036011,31.703001,177.333221,5.6,-1.0,396.0
54.55,-128.08426756,0.612149955,624.0,18.981273,31.932887,177.58410600000002,5.65,-1.0,395.5
54.6,-128.0842629,0.61206864,626.0,19.926535,32.162773,177.834991,5.7,-1.0,395.0
54.65,-128.08425824,0.61198848,629.0,20.793983500000003,32.3922155,178.10801650000002,5.800000000000001,-0.95,394.5
54.7,-128.08425358,0.61190832,632.0,21.661432,32.621658,178.381042,5.9,-0.9,394.0
54.75,-128.08424891,0.611817775,634.5,22.5295485,32.877609,178.7147215,5.95,-0.9,393.5
54.8,-128.08424424,0.61172723,637.0,23.397665,33.13356,179.048401,6.0,-0.9,393.0
54.85,-128.084240725,0.61164649,639.0,24.114214,33.363926000000006,179.360077,6.05,-0.9,392.5
54.9,-128.08423721,0.61156575,641.0,24.830763,33.594292,179.671753,6.1,-0.9,392.0
54.95,-128.08423369000002,0.6114734749999999,644.0,25.53798,33.8313295,0.0451020000000141,6.15,-0.8500000000000001,391.0
55.0,-128.08423017,0.6113812,647.0,26.245197,34.068367,-179.581549,6.2,-0.8,390.0
55.05,-128.084227805,0.61130392,649.5,26.7750395,34.2485865,-179.257976,6.25,-0.75,389.5
55.1,-128.08422544,0.61122664,652.0,27.304882,34.428806,-178.934403,6.3,-0.7,389.0
55.15,-128.084223065,0.6111372500000001,654.5,27.9361145,34.638546000000005,-178.5563065,6.35,-0.6499999999999999,388.5
55.2,-128.08422069,0.61104786,657.0,28.567347,34.848286,-178.17821,6.4,-0.6,388.0
55.25,-128.08422004,0.61097058,659.5,29.088999,35.009634000000005,-177.8476325,6.4,-0.6,387.5
55.3,-128.08421939,0.6108933,662.0,29.610651,35.170982,-177.517055,6.4,-0.6,387.0
55.35,-128.08421873499998,0.61080448,665.0,30.22311,35.34152,-177.131456,6.4,-0.55,386.5
55.4,-128.08421808,0.61071566,668.0,30.835569,35.512058,-176.745857,6.4,-0.5,386.0
55.45,-128.08421801,0.610640685,670.0,31.405794,35.652557,-176.412487,6.4,-0.5,385.5
55.5,-128.08421794,0.61056571,672.0,31.976019,35.793056,-176.079117,6.4,-0.5,385.0
55.55,-128.084219005,0.61048093,675.0,32.7070455,35.9450755,-175.69669399999998,6.4,-0.45,384.0
55.6,-128.08422007,0.61039615,678.0,33.438072,36.097095,-175.314271,6.4,-0.4,383.0
55.65,-128.08422172,0.61032175,681.0,34.158962,36.211645,-174.98181749999998,6.4,-0.4,382.5
55.7,-128.08422337,0.61024735,684.0,34.879852,36.326195,-174.649364,6.4,-0.4,382.0
55.75,-128.08422559,0.610171795,686.0,35.7600305,36.4297485,-174.31059,6.35,-0.45,381.5
55.8,-128.08422781,0.61009624,688.0,36.640209,36.533302,-173.971816,6.3,-0.5,381.0
55.85,-128.084231165,0.610010305,691.5,37.757223,36.6350535,-173.580956,6.25,-0.55,380.0
55.9,-128.08423452,0.60992437,695.0,38.874237,36.736805,-173.190096,6.2,-0.6,379.0
55.95,-128.08423846,0.609850545,697.5,39.8568765,36.8059275,-172.8476675,6.2,-0.6,378.5
56.0,-128.0842424,0.60977672,700.0,40.839516,36.87505,-172.505239,6.2,-0.6,378.0
56.05,-128.08424747499998,0.609690205,702.5,42.208019500000006,36.949709,-172.095475,6.15,-0.6499999999999999,377.5
56.1,-128.08425255,0.60960369,705.0,43.576523,37.024368,-171.685711,6.1,-0.7,377.0
56.15,-128.084258215,0.60953217,708.0,44.651127,37.076286,-171.34529,6.05,-0.8,376.0
56.2,-128.08426388,0.60946065,711.0,45.725731,37.128204,-171.004869,6.0,-0.9,375.0
56.25,-128.084270675,0.609378745,714.0,46.96582050000001,37.186838,-170.5796365,6.0,-0.95,374.5
56.3,-128.08427747,0.60929684,717.0,48.20591,37.245472,-170.154404,6.0,-1.0,374.0
56.35,-128.08428485,0.609222435,720.0,49.3628715,37.306242,-169.728588,6.0,-1.05,373.0
56.4,-128.08429223,0.60914803,723.0,50.519833,37.367012,-169.302772,6.0,-1.1,372.0
56.45,-128.08430132,0.609066125,726.0,51.679995,37.4374315,-168.78972199999998,6.0,-1.15,371.5
56.5,-128.08431041,0.60898422,729.0,52.840157,37.507851,-168.276672,6.0,-1.2,371.0
56.55,-128.08431951,0.608914425,731.0,53.764925,37.5665265,-167.79341,6.05,-1.25,370.5
56.6,-128.08432861,0.60884463,733.0,54.689693,37.625202,-167.310148,6.1,-1.3,370.0
56.65,-128.08433828,0.608773105,736.0,55.61746,37.6812305,-166.7827015,6.199999999999999,-1.3,369.0
56.7,-128.08434795,0.60870158,739.0,56.545227,37.737259,-166.255255,6.3,-1.3,368.0
56.75,-128.08435991,0.6086225599999999,742.0,57.512249,37.784956,-165.622715,6.4,-1.35,367.5
56.8,-128.08437187,0.60854354,745.0,58.479271,37.832653,-164.990175,6.5,-1.4,367.0
56.85,-128.084383835,0.60847432,747.5,59.3416975,37.8561495,-164.4174185,6.55,-1.4,366.5
56.9,-128.0843958,0.6084051,750.0,60.204124,37.879646,-163.844662,6.6,-1.4,366.0
56.95,-128.08441005,0.6083260699999999,753.0,61.1579475,37.880581,-163.166274,6.699999999999999,-1.35,365.0
57.0,-128.0844243,0.60824704,756.0,62.111771,37.881516,-162.487886,6.8,-1.3,364.0
57.05,-128.084437415,0.608180705,758.5,62.8847295,37.863007,-161.90234750000002,6.9,-1.3,363.5
57.1,-128.08445053,0.60811437,761.0,63.657688,37.844498,-161.316809,7.0,-1.3,363.0
57.15,-128.08446764,0.608036495,764.0,64.567125,37.799694,-160.6180305,7.05,-1.3,362.0
57.2,-128.08448475,0.60795862,767.0,65.476562,37.75489,-159.919252,7.1,-1.3,361.0
57.25,-128.08450016,0.607892855,769.0,66.3091885,37.690153,-159.3234155,7.15,-1.25,360.5
57.3,-128.08451557,0.60782709,771.0,67.141815,37.625416,-158.727579,7.2,-1.2,360.0
57.35,-128.084534975,0.60774979,774.5,68.0667305,37.525101,-158.02626049999998,7.25,-1.2,359.0
57.4,-128.08455438,0.60767249,778.0,68.991646,37.424786,-157.324942,7.3,-1.2,358.0
57.45,-128.08457264999998,0.607606725,780.5,69.7623065,37.3157295,-156.743968,7.35,-1.15,357.5
57.5,-128.08459092,0.60754096,783.0,70.532967,37.206673,-156.162994,7.4,-1.1,357.0
57.55,-128.084613195,0.607464235,786.5,71.4300425,37.049654,-155.50170500000002,7.4,-1.1,356.0
57.6,-128.08463547,0.60738751,790.0,72.327118,36.892635,-154.840416,7.4,-1.1,355.0
57.65,-128.08465546,0.60732405,792.0,73.005375,36.7544575,-154.291874,7.4,-1.05,354.5
57.7,-128.08467545,0.60726059,794.0,73.683632,36.61628,-153.743332,7.4,-1.0,354.0
57.75,-128.08469659,0.607196555,796.5,74.412613,36.453392,-153.20165450000002,7.4,-1.0,353.5
57.8,-128.08471773,0.60713252,799.0,75.141594,36.290504,-152.659977,7.4,-1.0,353.0
57.85,-128.08474344,0.607059825,802.0,75.9702605,36.0932805,-152.0354965,7.4,-0.95,352.0
57.9,-128.08476915,0.60698713,805.0,76.798927,35.896057,-151.411016,7.4,-0.9,351.0
57.95,-128.08479258,0.60692482,807.5,77.47840500000001,35.7268445,-150.85697449999998,7.4,-0.9,350.5
58.0,-128.08481601,0.60686251,810.0,78.157883,35.557632,-150.302933,7.4,-0.9,350.0
58.05,-128.08484516,0.606789235,812.5,79.0260775,35.330259,-149.646026,7.45,-0.8500000000000001,349.5
58.1,-128.08487431,0.60671596,815.0,79.894272,35.102886,-148.989119,7.5,-0.8,349.0
58.15,-128.08489946,0.6066553800000001,818.0,80.583107,34.911199499999995,-148.422025,7.55,-0.8,348.0
58.2,-128.08492461,0.6065948,821.0,81.271942,34.719513,-147.854931,7.6,-0.8,347.0
58.25,-128.08495605500002,0.6065232549999999,823.5,82.04094699999999,34.486965,-147.1741275,7.65,-0.8,346.5
58.3,-128.0849875,0.60645171,826.0,82.809952,34.254417,-146.493324,7.7,-0.8,346.0
58.35,-128.085015515,0.60639113,828.0,83.4554865,34.035427,-145.90697849999998,7.7,-0.8,345.5
58.4,-128.08504353,0.60633055,830.0,84.101021,33.816437,-145.320633,7.7,-0.8,345.0
58.45,-128.08507727,0.606261885,833.5,84.7480165,33.569853,-144.645233,7.800000000000001,-0.75,344.0
58.5,-128.08511101,0.60619322,837.0,85.395012,33.323269,-143.969833,7.9,-0.7,343.0
58.55,-128.085141315,0.606134365,839.0,85.9043655,33.1088295,-143.388872,7.95,-0.7,342.5
58.6,-128.08517162,0.60607551,841.0,86.413719,32.89439,-142.807911,8.0,-0.7,342.0
58.65,-128.085208795,0.606006845,843.5,87.014511,32.609995,-142.13577099999998,8.05,-0.7,341.5
58.7,-128.08524597,0.60593818,846.0,87.615303,32.3256,-141.463631,8.1,-0.7,341.0
58.75,-128.085278575,0.605879895,848.5,88.05221549999999,32.093709000000004,-140.8856525,8.1,-0.7,340.0
58.8,-128.08531118,0.60582161,851.0,88.489128,31.861818,-140.307674,8.1,-0.7,339.0
58.85,-128.085345495,0.60576333,853.0,88.9274255,31.608158,-139.7294595,8.149999999999999,-0.7,338.5
58.9,-128.08537981,0.60570505,855.0,89.365723,31.354498,-139.151245,8.2,-0.7,338.0
58.95,-128.085420425,0.605639265,858.0,89.8362125,31.062236,-138.4841385,8.25,-0.7,337.5
59.0,-128.08546104,0.60557348,861.0,90.306702,30.769974,-137.817032,8.3,-0.7,337.0
59.05,-128.08549651,0.605518655,863.0,90.6777765,30.525073,-137.264826,8.350000000000001,-0.7,336.5
59.1,-128.08553198,0.60546383,865.0,91.048851,30.280172,-136.71262,8.4,-0.7,336.0
59.15,-128.08557546,0.605399195,867.0,91.480053,29.972717,-136.06228249999998,8.45,-0.7,335.0
59.2,-128.08561894,0.60533456,869.0,91.911255,29.665262,-135.411945,8.5,-0.7,334.0
59.25,-128.08565613,0.60528204,871.5,92.2562255,29.3941755,-134.870298,8.5,-0.7,333.5
59.3,-128.08569332,0.60522952,874.0,92.601196,29.123089,-134.328651,8.5,-0.7,333.0
59.35,-128.08573967,0.6051666149999999,876.0,92.969154,28.808984,-133.680765,8.55,-0.7,332.5
59.4,-128.08578602,0.60510371,878.0,93.337112,28.494879,-133.032879,8.6,-0.7,332.0
59.45,-128.085824925,0.605052345,880.0,93.6282425,28.2235985,-132.4924925,8.649999999999999,-0.7,331.5
59.5,-128.08586383,0.60500098,882.0,93.919373,27.952318,-131.952106,8.7,-0.7,331.0
59.55,-128.0859119,0.60494095,884.0,94.246094,27.619806,-131.30712699999998,8.75,-0.7,330.5
59.6,-128.08595997,0.60488092,886.0,94.572815,27.287294,-130.662148,8.8,-0.7,330.0
59.65,-128.08600346,0.604828975,888.5,94.83757,26.9942025,-130.100878,8.850000000000001,-0.7,329.5
59.7,-128.08604695,0.60477703,891.0,95.102325,26.701111,-129.539608,8.9,-0.7,329.0
59.75,-128.08609788500002,0.604718155,893.0,95.379959,26.3638705,-128.8880595,8.95,-0.7,328.5
59.8,-128.08614882,0.60465928,895.0,95.657593,26.02663,-128.236511,9.0,-0.7,328.0
59.85,-128.08619346,0.6046096400000001,896.5,95.8839645,25.714891,-127.680395,9.0,-0.7,327.5
59.9,-128.0862381,0.60456,898.0,96.110336,25.403152,-127.124279,9.0,-0.7,327.0
59.95,-128.08629133,0.6045034300000001,900.5,96.3381995,25.051006,-126.486805,9.05,-0.7,326.5
60.0,-128.08634456,0.60444686,903.0,96.566063,24.69886,-125.849331,9.1,-0.7,326.0
60.05,-128.08639206499998,0.6043977899999999,904.5,96.7456515,24.392086,-125.2954485,9.15,-0.7,325.5
60.1,-128.08643957,0.60434872,906.0,96.92524,24.085312,-124.741566,9.2,-0.7,325.0
60.15,-128.08648593,0.604303115,908.0,97.0917245,23.771719,-124.216446,9.25,-0.7,324.5
60.2,-128.08653229,0.60425751,910.0,97.258209,23.458126,-123.691326,9.3,-0.7,324.0
60.25,-128.086590105,0.6042026650000001,911.5,97.433796,23.092065,-123.0556565,9.3,-0.7,323.5
60.3,-128.08664792,0.60414782,913.0,97.609383,22.726004,-122.419987,9.3,-0.7,323.0
60.35,-128.08669772,0.6041022149999999,914.5,97.7537155,22.396658,-121.8930685,9.35,-0.7,322.5
60.4,-128.08674752,0.60405661,916.0,97.898048,22.067312,-121.36615,9.4,-0.7,322.0
60.45,-128.08680648,0.604005225,918.0,98.0441895,21.69658,-120.7651655,9.4,-0.7,321.5
60.5,-128.08686544,0.60395384,920.0,98.190331,21.325848,-120.164181,9.4,-0.7,321.0
60.55,-128.086918105,0.603909955,921.5,98.301926,21.007419,-119.6436235,9.4,-0.7,321.0
60.6,-128.08697077,0.60386607,923.0,98.413521,20.68899,-119.123066,9.4,-0.7,321.0
60.65,-128.0870326,0.603816415,925.0,98.5294075,20.296181,-118.5300255,9.45,-0.7,320.5
60.7,-128.08709443,0.60376676,927.0,98.645294,19.903372,-117.936985,9.5,-0.7,320.0
60.75,-128.087147095,0.60372576,928.5,98.7293165,19.576273,-117.447769,9.5,-0.7,319.5
60.8,-128.08719976,0.60368476,930.0,98.813339,19.249174,-116.958553,9.5,-0.7,319.0
60.85,-128.087264455,0.60363683,931.5,98.900894,18.866996,-116.379095,9.5,-0.7,318.5
60.9,-128.08732915,0.6035889,933.0,98.988449,18.484818,-115.799637,9.5,-0.7,318.0
60.95,-128.087384685,0.603549055,934.0,99.055618,18.143186,-115.316147,9.5,-0.7,318.0
61.0,-128.08744022,0.60350921,935.0,99.122787,17.801554,-114.832657,9.5,-0.7,318.0
61.05,-128.08749633,0.6034705149999999,936.5,99.178726,17.468954,-114.353283,9.45,-0.7,317.5
61.1,-128.08755244,0.60343182,938.0,99.234665,17.136354,-113.873909,9.4,-0.7,317.0
61.15,-128.08761885500002,0.603387925,939.5,99.2909125,16.7583475,-113.321331,9.4,-0.7,317.0
61.2,-128.08768527,0.60334403,941.0,99.34716,16.380341,-112.768753,9.4,-0.7,317.0
61.25,-128.0877431,0.603307645,942.0,99.3933485,16.027721500000002,-112.295456,9.4,-0.75,316.5
61.3,-128.08780093,0.60327126,943.0,99.439537,15.675102,-111.822159,9.4,-0.8,316.0
61.35,-128.087869065,0.6032296699999999,944.5,99.484585,15.2815905,-111.2803575,9.4,-0.8,316.0
61.4,-128.0879372,0.60318808,946.0,99.529633,14.888079,-110.738556,9.4,-0.8,316.0
61.45,-128.087997325,0.6031534199999999,947.0,99.557377,14.550255,-110.2655945,9.4,-0.8,316.0
61.5,-128.08805745,0.60311876,948.0,99.585121,14.212431,-109.792633,9.4,-0.8,316.0
61.55,-128.08812616,0.603080055,949.0,99.6078565,13.81399,-109.254585,9.35,-0.8,315.5
61.6,-128.08819487,0.60304135,950.0,99.630592,13.415549,-108.716537,9.3,-0.8,315.0
61.65,-128.088256715,0.6030089949999999,951.0,99.6423565,13.0665665,-108.2504955,9.3,-0.8,315.0
61.7,-128.08831856,0.60297664,952.0,99.654121,12.717584,-107.784454,9.3,-0.8,315.0
61.75,-128.08838899,0.6029402349999999,953.0,99.6552845,12.3343455,-107.250183,9.3,-0.8,315.0
61.8,-128.08845942,0.60290383,954.0,99.656448,11.951107,-106.715912,9.3,-0.8,315.0
61.85,-128.088524705,0.602872625,955.0,99.651615,11.5787885,-106.2298165,9.3,-0.8,314.5
61.9,-128.08858999,0.60284142,956.0,99.646782,11.20647,-105.743721,9.3,-0.8,314.0
61.95,-128.08865126,0.60281253,956.5,99.634632,10.8782355,-105.2877615,9.3,-0.8,314.0
62.0,-128.08871253,0.60278364,957.0,99.622482,10.550001,-104.831802,9.3,-0.8,314.0
62.05,-128.08878755,0.602750115,958.0,99.5945965,10.1340615,-104.287315,9.3,-0.8,314.0
62.1,-128.08886257,0.60271659,959.0,99.566711,9.718122,-103.742828,9.3,-0.8,314.0
62.15,-128.08892671,0.602689425,960.0,99.538372,9.365243,-103.287464,9.3,-0.8,314.0
62.2,-128.08899085,0.60266226,961.0,99.510033,9.012364,-102.8321,9.3,-0.8,314.0
62.25,-128.089068165,0.6026316199999999,961.5,99.4689105,8.607314500000001,-102.2900085,9.3,-0.8,314.0
62.3,-128.08914548,0.60260098,962.0,99.427788,8.202265,-101.747917,9.3,-0.8,314.0
62.35,-128.08920905000002,0.6025767,962.5,99.3813285,7.854501000000001,-101.303112,9.3,-0.8,314.0
62.4,-128.08927262,0.60255242,963.0,99.334869,7.506737,-100.858307,9.3,-0.8,314.0
62.45,-128.089350505,0.602524085,964.0,99.2699085,7.094955000000001,-100.326477,9.25,-0.8,314.0
62.5,-128.08942839,0.60249575,965.0,99.204948,6.683173,-99.794647,9.2,-0.8,314.0
62.55,-128.08949597,0.602473195,965.5,99.1450725,6.342346,-99.3308525,9.2,-0.8,314.0
62.6,-128.08956355,0.60245064,966.0,99.085197,6.001519,-98.867058,9.2,-0.8,314.0
62.65,-128.0896403,0.602425765,966.5,99.0155715,5.612534500000001,-98.344704,9.2,-0.8,314.0
62.7,-128.08971705,0.60240089,967.0,98.945946,5.22355,-97.82235,9.2,-0.8,314.0
62.75,-128.089785205,0.602380065,967.0,98.878464,4.854966,-97.353699,9.2,-0.8,314.5
62.8,-128.08985336,0.60235924,967.0,98.810982,4.486382,-96.885048,9.2,-0.8,315.0
62.85,-128.08993297,0.602336675,967.5,98.7322085,4.0845815,-96.349781,9.2,-0.8,315.0
62.9,-128.09001258,0.60231411,968.0,98.653435,3.682781,-95.814514,9.2,-0.8,315.0
62.95,-128.09008188500002,0.602296165,968.5,98.582264,3.332389,-95.3484495,9.2,-0.8,315.0
63.0,-128.09015119,0.60227822,969.0,98.511093,2.981997,-94.882385,9.2,-0.8,315.0
63.05,-128.090218205,0.602262005,969.0,98.433151,2.6338445,-94.427467,9.2,-0.8,315.0
63.1,-128.09028522,0.60224579,969.0,98.355209,2.285692,-93.972549,9.2,-0.8,315.0
63.15,-128.0903677,0.60222668,969.5,98.2561035,1.889105,-93.422699,9.2,-0.75,315.5
63.2,-128.09045018,0.60220757,970.0,98.156998,1.492518,-92.872849,9.2,-0.7,316.0
63.25,-128.09052063,0.60219309,970.0,98.05835,1.1289665,-92.3981135,9.2,-0.7,316.0
63.3,-128.09059108,0.60217861,970.0,97.959702,0.765415,-91.923378,9.2,-0.7,316.0
63.35,-128.09067242,0.60216296,970.0,97.8475575,0.3672944999999999,-91.3676375,9.25,-0.7,316.5
63.4,-128.09075376,0.60214731,970.0,97.735413,-0.030826,-90.811897,9.3,-0.7,317.0
63.45,-128.09082364,0.60213571,970.0,97.6401295,-0.352546,-90.334808,9.3,-0.7,317.0
63.5,-128.09089352,0.60212411,970.0,97.544846,-0.674266,-89.857719,9.3,-0.7,317.0
63.55,-128.09097543500002,0.602111345,970.0,97.4122355,-1.0886485,-89.283653,9.3,-0.7,317.5
63.6,-128.09105735,0.60209858,970.0,97.279625,-1.503031,-88.709587,9.3,-0.7,318.0
63.65,-128.09112838,0.602088705,970.0,97.1600305,-1.8415125,-88.2053335,9.35,-0.7,318.0
63.7,-128.09119941,0.60207883,970.0,97.040436,-2.179994,-87.70108,9.4,-0.7,318.0
63.75,-128.0912819,0.602069525,969.5,96.893566,-2.5684475,-87.0954625,9.45,-0.7,318.5
63.8,-128.09136439,0.60206022,969.0,96.746696,-2.956901,-86.489845,9.5,-0.7,319.0
63.85,-128.09143656999998,0.6020532350000001,969.0,96.6058005,-3.295944,-85.949104,9.55,-0.7,319.5
63.9,-128.09150875,0.60204625,969.0,96.464905,-3.634987,-85.408363,9.6,-0.7,320.0
63.95,-128.09159353,0.60203925,968.5,96.288578,-4.036198,-84.761837,9.65,-0.7,320.5
64.0,-128.09167831,0.60203225,968.0,96.112251,-4.437409,-84.115311,9.7,-0.7,321.0
64.05,-128.09174763,0.602028145,968.0,95.9710655,-4.752554999999999,-83.57466500000001,9.75,-0.7,321.0
64.1,-128.09181695,0.60202404,968.0,95.82988,-5.067701,-83.034019,9.8,-0.7,321.0
64.15,-128.09190345000002,0.6020205000000001,967.5,95.6444705,-5.4537035,-82.3639335,9.85,-0.7,321.5
64.2,-128.09198995,0.60201696,967.0,95.459061,-5.839706,-81.693848,9.9,-0.7,322.0
64.25,-128.092062135,0.6020151600000001,966.5,95.285824,-6.1695895,-81.12795249999999,9.95,-0.6499999999999999,322.5
64.3,-128.09213432,0.60201336,966.0,95.112587,-6.499473,-80.562057,10.0,-0.6,323.0
64.35,-128.092205935,0.60201329,965.5,94.943043,-6.8035805,-79.9935035,10.05,-0.6,323.5
64.4,-128.09227755,0.60201322,965.0,94.773499,-7.107688,-79.42495,10.1,-0.6,324.0
64.45,-128.09236176500002,0.602014295,964.5,94.5568085,-7.489490999999999,-78.762051,10.15,-0.6,324.5
64.5,-128.09244598,0.60201537,964.0,94.340118,-7.871294,-78.099152,10.2,-0.6,325.0
64.55,-128.092519315,0.602018185,963.5,94.1584625,-8.185264,-77.5083545,10.25,-0.6,325.5
64.6,-128.09259265,0.602021,963.0,93.976807,-8.499234,-76.917557,10.3,-0.6,326.0
64.65,-128.09267687,0.602025535,962.0,93.7654575,-8.8386605,-76.24076099999999,10.35,-0.6,326.5
64.7,-128.09276109,0.60203007,961.0,93.554108,-9.178087,-75.563965,10.4,-0.6,327.0
64.75,-128.09283557,0.60203577,960.5,93.3451465,-9.4993325,-74.9653055,10.45,-0.6,327.0
64.8,-128.09291005,0.60204147,960.0,93.136185,-9.820578,-74.366646,10.5,-0.6,327.0
64.85,-128.09299485,0.60205004,959.0,92.903431,-10.1614595,-73.682564,10.55,-0.6,328.0
64.9,-128.09307965,0.60205861,958.0,92.670677,-10.502341,-72.998482,10.6,-0.6,329.0
64.95,-128.09315184,0.6020671900000001,957.5,92.478737,-10.7891385,-72.4071695,10.6,-0.6,329.5
65.0,-128.09322403,0.60207577,957.0,92.286797,-11.075936,-71.815857,10.6,-0.6,330.0
65.05,-128.093308255,0.602087225,956.0,92.0594065,-11.419794,-71.13138599999999,10.65,-0.6,330.5
65.1,-128.09339248,0.60209868,955.0,91.832016,-11.763652,-70.446915,10.7,-0.6,331.0
65.15,-128.093464105,0.602110725,954.0,91.6415785,-12.034478,-69.85727700000001,10.7,-0.55,331.5
65.2,-128.09353573,0.60212277,953.0,91.451141,-12.305304,-69.267639,10.7,-0.5,332.0
65.25,-128.09361939,0.602138265,952.0,91.222496,-12.6267215,-68.579487,10.7,-0.5,332.5
65.3,-128.09370305,0.60215376,951.0,90.993851,-12.948139,-67.891335,10.7,-0.5,333.0
65.35,-128.093772955,0.60216811,950.0,90.795765,-13.2190485,-67.3085175,10.7,-0.5,333.5
65.4,-128.09384286,0.60218246,949.0,90.597679,-13.489958,-66.7257,10.7,-0.5,334.0
65.45,-128.093925945,0.6022014149999999,947.5,90.369278,-13.8031095,-66.03376349999999,10.75,-0.5,335.0
65.5,-128.09400903,0.60222037,946.0,90.140877,-14.116261,-65.341827,10.8,-0.5,336.0
65.55,-128.09407894,0.602237605,945.0,89.96711350000001,-14.3679185,-64.75810999999999,10.75,-0.5,336.5
65.6,-128.09414885,0.60225484,944.0,89.79335,-14.619576,-64.174393,10.7,-0.5,337.0
65.65,-128.09423366,0.602278405,942.5,89.60038750000001,-14.9246885,-63.475338,10.7,-0.5,337.5
65.7,-128.09431847,0.60230197,941.0,89.407425,-15.229801,-62.776283,10.7,-0.5,338.0
65.75,-128.09438781,0.602322665,940.0,89.257412,-15.486752,-62.1998785,10.7,-0.5,339.0
65.8,-128.09445715,0.60234336,939.0,89.107399,-15.743703,-61.623474,10.7,-0.5,340.0
65.85,-128.09452936000002,0.60236694,937.5,88.96793,-15.995437,-61.0244865,10.65,-0.5,340.5
65.9,-128.09460157,0.60239052,936.0,88.828461,-16.247171,-60.425499,10.6,-0.5,341.0
65.95,-128.094684095,0.60241928,935.0,88.6687165,-16.546840500000002,-59.7415925,10.6,-0.55,341.5
66.0,-128.09476662,0.60244804,934.0,88.508972,-16.84651,-59.057686,10.6,-0.6,342.0
66.05,-128.09483367,0.602472775,932.5,88.391693,-17.0787335,-58.5023765,10.55,-0.6,343.0
66.1,-128.09490072,0.60249751,931.0,88.274414,-17.310957,-57.947067,10.5,-0.6,344.0
66.15,-128.09498267499998,0.60253088,929.0,88.148266,-17.588396,-57.294983,10.45,-0.6,344.5
66.2,-128.09506463,0.60256425,927.0,88.022118,-17.865835,-56.642899,10.4,-0.6,345.0
66.25,-128.095129395,0.602591875,926.0,87.932301,-18.11166,-56.155037,10.3,-0.6,346.0
66.3,-128.09519416,0.6026195,925.0,87.842484,-18.357485,-55.667175,10.2,-0.6,347.0
66.35,-128.095275545,0.60265633,923.0,87.7837605,-18.6496975,-55.1091765,10.05,-0.6,348.0
