Time,Longitude,Latitude,Altitude,Roll,Pitch,Yaw,AOA,AOS,TAS
69.85,-128.28528851,0.5158966,1394.5,-26.317874,-17.061880000000002,-58.790512,-0.5,0.8,707.0
69.9,-128.28535326,0.5159346,1392.0,-26.195597,-16.969667,-58.879776,-0.5,0.8,707.0
69.95,-128.285431755,0.5159806600000001,1389.0,-25.9507465,-16.7907485,-59.0405805,-0.5,0.8,707.5
70.0,-128.28551025,0.51602672,1386.0,-25.705896,-16.61183,-59.201385,-0.5,0.8,708.0
70.05,-128.285575575,0.516064715,1383.0,-25.5422545,-16.492863,-59.306938,-0.5,0.8,708.5
70.1,-128.2856409,0.51610271,1380.0,-25.378613,-16.373896,-59.412491,-0.5,0.8,709.0
70.15,-128.28571424,0.51614416,1377.5,-25.235387000000003,-16.274459,-59.502674,-0.45,0.8500000000000001,709.5
70.2,-128.28578758,0.51618561,1375.0,-25.092161,-16.175022,-59.592857,-0.4,0.9,710.0
70.25,-128.285853475,0.5162230299999999,1372.5,-24.893438,-16.049128,-59.7122725,-0.45,0.9,710.0
70.3,-128.28591937,0.51626045,1370.0,-24.694715,-15.923234,-59.831688,-0.5,0.9,710.0
70.35,-128.286000155,0.516305355,1367.0,-24.564867,-15.8409735,-59.909725,-0.5,0.9,710.5
70.4,-128.28608094,0.51635026,1364.0,-24.435019,-15.758713,-59.987762,-0.5,0.9,711.0
70.45,-128.286148555,0.516388255,1361.5,-24.3208685,-15.6937595,-60.0664135,-0.55,0.8500000000000001,711.5
70.5,-128.28621617,0.51642625,1359.0,-24.206718,-15.628806,-60.145065,-0.6,0.8,712.0
70.55,-128.286292375,0.516468275,1356.0,-24.111816,-15.5765525,-60.2128445,-0.6499999999999999,0.8,712.0
70.6,-128.28636858,0.5165103,1353.0,-24.016914,-15.524299,-60.280624,-0.7,0.8,712.0
70.65,-128.28643619,0.51654714,1351.0,-23.982084,-15.4916485,-60.327354,-0.7,0.8,712.5
70.7,-128.2865038,0.51658398,1349.0,-23.947254,-15.458998,-60.374084,-0.7,0.8,713.0
70.75,-128.28658631,0.5166288800000001,1346.0,-23.992003500000003,-15.3953345,-60.485397000000006,-0.7,0.8,713.5
70.8,-128.28666882,0.51667378,1343.0,-24.036753,-15.331671,-60.59671,-0.7,0.8,714.0
70.85,-128.28673643,0.516710625,1340.5,-24.0575525,-15.302079,-60.648445,-0.75,0.8500000000000001,714.0
70.9,-128.28680404,0.51674747,1338.0,-24.078352,-15.272487,-60.70018,-0.8,0.9,714.0
70.95,-128.286874515,0.5167854599999999,1335.5,-24.134818,-15.1550905,-60.823799,-0.8,0.9,714.5
71.0,-128.28694499,0.51682345,1333.0,-24.191284,-15.037694,-60.947418,-0.8,0.9,715.0
71.05,-128.28702463,0.5168654749999999,1330.5,-24.2475125,-14.916799,-61.068695,-0.8,0.9,715.5
71.1,-128.28710427,0.5169075,1328.0,-24.303741,-14.795904,-61.189972,-0.8,0.9,716.0
71.15,-128.287173025,0.5169437649999999,1325.5,-24.3389785,-14.7177215,-61.264744,-0.8,0.9,716.0
71.2,-128.28724178,0.51698003,1323.0,-24.374216,-14.639539,-61.339516,-0.8,0.9,716.0
71.25,-128.287319705,0.517020895,1320.5,-24.4528665,-14.453743,-61.500626,-0.8,0.8500000000000001,716.5
71.3,-128.28739763,0.51706176,1318.0,-24.531517,-14.267947,-61.661736,-0.8,0.8,717.0
71.35,-128.28746982,0.517099755,1316.0,-24.5690375,-14.1793115,-61.7385905,-0.75,0.8,717.5
71.4,-128.28754201,0.51713775,1314.0,-24.606558,-14.090676,-61.815445,-0.7,0.8,718.0
71.45,-128.28761707,0.51717574,1311.5,-24.6828215,-14.0008355,-61.9063455,-0.7,0.8500000000000001,718.5
71.5,-128.28769213,0.51721373,1309.0,-24.759085,-13.910995,-61.997246,-0.7,0.9,719.0
71.55,-128.28777349,0.517255745,1306.5,-24.8304495,-13.837893,-62.07437899999999,-0.75,0.9,719.0
71.6,-128.28785485,0.51729776,1304.0,-24.901814,-13.764791,-62.151512,-0.8,0.9,719.0
71.65,-128.28792532,0.51733287,1302.0,-24.9526245,-13.726484,-62.196224,-0.8,0.9,719.5
71.7,-128.28799579,0.51736798,1300.0,-25.003435,-13.688177,-62.240936,-0.8,0.9,720.0
71.75,-128.288070275,0.51740597,1297.5,-25.1892425,-13.6383465,-62.337425,-0.8,0.8500000000000001,720.5
71.8,-128.28814476,0.51744396,1295.0,-25.37505,-13.588516,-62.433914,-0.8,0.8,721.0
71.85,-128.28821867,0.5174802199999999,1293.0,-25.4753965,-13.5616045,-62.486019,-0.8500000000000001,0.8,721.0
71.9,-128.28829258,0.51751648,1291.0,-25.575743,-13.534693,-62.538124,-0.9,0.8,721.0
71.95,-128.28837622999998,0.517557925,1288.5,-25.776622,-13.4633765,-62.6411245,-0.9,0.8,721.5
72.0,-128.28845988,0.51759937,1286.0,-25.977501,-13.39206,-62.744125,-0.9,0.8,722.0
72.05,-128.288530925,0.5176344749999999,1284.0,-26.1322195,-13.3348915,-62.8232955,-0.9,0.75,722.5
72.1,-128.28860197,0.51766958,1282.0,-26.286938,-13.277723,-62.902466,-0.9,0.7,723.0
72.15,-128.288680465,0.51770757,1279.5,-26.4416885,-13.209432,-62.9847565,-0.9,0.75,723.0
72.2,-128.28875896,0.51774556,1277.0,-26.596439,-13.141141,-63.067047,-0.9,0.8,723.0
72.25,-128.28884089000002,0.5177852700000001,1275.0,-26.852353,-13.0071125,-63.2090265,-0.9,0.8,723.5
72.3,-128.28892282,0.51782498,1273.0,-27.108267,-12.873084,-63.351006,-0.9,0.8,724.0
72.35,-128.28899902,0.51786124,1270.5,-27.2501155,-12.798794,-63.429703,-0.9,0.8500000000000001,724.0
72.4,-128.28907522,0.5178975,1268.0,-27.391964,-12.724504,-63.5084,-0.9,0.9,724.0
72.45,-128.28914741,0.51793203,1266.5,-27.704036,-12.6213885,-63.6165465,-0.9,0.9,724.5
72.5,-128.2892196,0.51796656,1265.0,-28.016108,-12.518273,-63.724693,-0.9,0.9,725.0
72.55,-128.289295225,0.5180022449999999,1262.5,-28.2800345,-12.438493,-63.8081475,-0.95,0.95,725.0
72.6,-128.28937085,0.51803793,1260.0,-28.543961,-12.358713,-63.891602,-1.0,1.0,725.0
72.65,-128.289459655,0.51807879,1257.5,-28.829368,-12.2936085,-63.973431000000005,-1.0,0.95,725.5
72.7,-128.28954846,0.51811965,1255.0,-29.114775,-12.228504,-64.05526,-1.0,0.9,726.0
72.75,-128.28961893,0.5181524500000001,1253.5,-29.496665,-12.171917,-64.15259950000001,-1.0,0.9,726.0
72.8,-128.2896894,0.51818525,1252.0,-29.878555,-12.11533,-64.249939,-1.0,0.9,726.0
72.85,-128.28977763,0.518225535,1249.5,-30.1511735,-12.0749345,-64.31942749999999,-1.05,0.8500000000000001,726.5
72.9,-128.28986586,0.51826582,1247.0,-30.423792,-12.034539,-64.388916,-1.1,0.8,727.0
72.95,-128.28994206,0.518299775,1245.0,-30.799289,-11.9798265,-64.506832,-1.05,0.8,727.0
73.0,-128.29001826,0.51833373,1243.0,-31.174786,-11.925114,-64.624748,-1.0,0.8,727.0
73.05,-128.290089305,0.518365955,1241.0,-31.4764045,-11.881308,-64.72285049999999,-1.0,0.8,727.5
73.1,-128.29016035,0.51839818,1239.0,-31.778023,-11.837502,-64.820953,-1.0,0.8,728.0
73.15,-128.29024514000002,0.518435585,1237.0,-32.0467435,-11.7924805,-64.91318100000001,-1.0,0.8500000000000001,728.0
73.2,-128.29032993,0.51847299,1235.0,-32.315464,-11.747459,-65.005409,-1.0,0.9,728.0
73.25,-128.29041014,0.5185080900000001,1233.0,-32.7432425,-11.656775499999998,-65.167534,-1.05,0.95,728.5
73.3,-128.29049035,0.51854319,1231.0,-33.171021,-11.566092,-65.329659,-1.1,1.0,729.0
73.35,-128.290542485,0.51856621,1230.0,-33.3607655,-11.5258695,-65.40157350000001,-1.1,1.0,729.0
73.4,-128.29059462,0.51858923,1229.0,-33.55051,-11.485647,-65.473488,-1.1,1.0,729.0
73.45,-128.29066394,0.5186185750000001,1227.5,-33.847307,-11.4185065,-65.587921,-1.05,0.95,729.0
73.5,-128.29073326,0.51864792,1226.0,-34.144104,-11.351366,-65.702354,-1.0,0.9,729.0
73.55,-128.29083008499998,0.5186893450000001,1223.5,-34.6211775,-11.239510500000002,-65.88810699999999,-1.0,0.8500000000000001,729.5
73.6,-128.29092691,0.51873077,1221.0,-35.098251,-11.127655,-66.07386,-1.0,0.8,730.0
73.65,-128.291028315,0.518772775,1218.5,-35.381784499999995,-11.0516755,-66.1991805,-1.0,0.8,730.5
73.7,-128.29112972,0.51881478,1216.0,-35.665318,-10.975696,-66.324501,-1.0,0.8,731.0
73.75,-128.29120591499998,0.518846425,1214.0,-35.9983105,-10.855792,-66.519848,-1.0,0.8,731.0
73.8,-128.29128211,0.51887807,1212.0,-36.331303,-10.735888,-66.715195,-1.0,0.8,731.0
73.85,-128.291379505,0.5189177700000001,1210.0,-36.5639805,-10.6521025,-66.851696,-0.95,0.8,731.5
73.9,-128.2914769,0.51895747,1208.0,-36.796658,-10.568317,-66.988197,-0.9,0.8,732.0
73.95,-128.29155423999998,0.51898796,1206.0,-36.969826,-10.4582545,-67.1839485,-0.9,0.8,732.0
74.0,-128.29163158,0.51901845,1204.0,-37.142994,-10.348192,-67.3797,-0.9,0.8,732.0
74.05,-128.29171637000002,0.51905182,1202.0,-37.2904605,-10.239182499999998,-67.5765765,-0.9,0.8,732.5
74.1,-128.29180116,0.51908519,1200.0,-37.437927,-10.130173,-67.773453,-0.9,0.8,733.0
74.15,-128.291873915,0.5191133800000001,1198.5,-37.5120335,-10.0651635,-67.88918699999999,-0.9,0.8,733.0
74.2,-128.29194667,0.51914157,1197.0,-37.58614,-10.000154,-68.004921,-0.9,0.8,733.0
74.25,-128.29202916499997,0.51917263,1195.5,-37.636553,-9.8271585,-68.295185,-0.8500000000000001,0.8500000000000001,733.0
74.3,-128.29211166,0.51920369,1194.0,-37.686966,-9.654163,-68.585449,-0.8,0.9,733.0
74.35,-128.292199885,0.5192370550000001,1192.0,-37.71517,-9.5573915,-68.7478105,-0.75,0.9,733.5
74.4,-128.29228811,0.51927042,1190.0,-37.743374,-9.46062,-68.910172,-0.7,0.9,734.0
74.45,-128.29236716999998,0.51929918,1188.5,-37.69899,-9.270656,-69.1882825,-0.6499999999999999,0.8500000000000001,734.0
74.5,-128.29244623,0.51932794,1187.0,-37.654606,-9.080692,-69.466393,-0.6,0.8,734.0
74.55,-128.292535595,0.519359575,1185.0,-37.6073435,-8.912764500000002,-69.7089655,-0.55,0.75,734.0
74.6,-128.29262496,0.51939121,1183.0,-37.560081,-8.744837,-69.951538,-0.5,0.7,734.0
74.65,-128.29269829,0.519417095,1182.0,-37.527803,-8.648227,-70.08795549999999,-0.45,0.7,734.0
74.7,-128.29277162,0.51944298,1181.0,-37.495525,-8.551617,-70.224373,-0.4,0.7,734.0
74.75,-128.292858695,0.519472885,1179.5,-37.365425,-8.3168,-70.52409349999999,-0.4,0.7,734.0
74.8,-128.29294577,0.51950279,1178.0,-37.235325,-8.081983,-70.823814,-0.4,0.7,734.0
74.85,-128.29302768999997,0.51952982,1176.5,-37.170109,-7.964276999999999,-70.97405599999999,-0.35,0.7,734.0
74.9,-128.29310961,0.51955685,1175.0,-37.104893,-7.846571,-71.124298,-0.3,0.7,734.0
74.95,-128.293202415,0.519587325,1173.5,-36.9834365,-7.6811435,-71.3555755,-0.35,0.75,734.5
75.0,-128.29329522,0.5196178,1172.0,-36.86198,-7.515716,-71.586853,-0.4,0.8,735.0
75.05,-128.29337427500002,0.5196431,1170.5,-36.781593,-7.411062,-71.7355615,-0.4,0.8500000000000001,735.0
75.1,-128.29345333,0.5196684,1169.0,-36.701206,-7.306408,-71.88427,-0.4,0.9,735.0
75.15,-128.293538685,0.519694275,1167.5,-36.629589,-7.223688,-72.007,-0.4,0.9,735.0
75.2,-128.29362404,0.51972015,1166.0,-36.557972,-7.140968,-72.12973,-0.4,0.9,735.0
75.25,-128.293707675,0.519746025,1165.0,-36.4149685,-7.017968,-72.335697,-0.45,0.9,735.5
75.3,-128.29379131,0.5197719,1164.0,-36.271965,-6.894968,-72.541664,-0.5,0.9,736.0
75.35,-128.29386921999998,0.519794895,1163.0,-36.198988,-6.8321995,-72.6467705,-0.5,0.9,736.0
75.4,-128.29394713,0.51981789,1162.0,-36.126011,-6.769431,-72.751877,-0.5,0.9,736.0
75.45,-128.294029045,0.5198420349999999,1160.5,-35.9867,-6.6367165,-72.961548,-0.5,0.8500000000000001,736.0
75.5,-128.29411096,0.51986618,1159.0,-35.847389,-6.504002,-73.171219,-0.5,0.8,736.0
75.55,-128.29421579,0.5198960699999999,1157.5,-35.7101495,-6.3712035,-73.3792,-0.45,0.75,736.0
75.6,-128.29432062,0.51992596,1156.0,-35.57291,-6.238405,-73.587181,-0.4,0.7,736.0
75.65,-128.29439509000002,0.519946655,1155.0,-35.483383,-6.1502265000000005,-73.714073,-0.4,0.7,736.0
75.7,-128.29446956,0.51996735,1154.0,-35.393856,-6.062048,-73.840965,-0.4,0.7,736.0
75.75,-128.29454861,0.519988615,1153.0,-35.1943665,-5.860635,-74.0955845,-0.4,0.75,736.5
75.8,-128.29462766,0.52000988,1152.0,-34.994877,-5.659222,-74.350204,-0.4,0.8,737.0
75.85,-128.29472218,0.520035165,1151.0,-34.867594,-5.5307145,-74.5126685,-0.4,0.8,737.0
75.9,-128.2948167,0.52006045,1150.0,-34.740311,-5.402207,-74.675133,-0.4,0.8,737.0
75.95,-128.29489746500002,0.52008114,1149.0,-34.5263655,-5.2077095,-74.909584,-0.4,0.8,737.0
76.0,-128.29497823,0.52010183,1148.0,-34.31242,-5.013212,-75.144035,-0.4,0.8,737.0
76.05,-128.295070455,0.52012539,1147.0,-34.1538755,-4.8711355,-75.31407899999999,-0.4,0.8500000000000001,737.0
76.1,-128.29516268,0.52014895,1146.0,-33.995331,-4.729059,-75.484123,-0.4,0.9,737.0
76.15,-128.295242305,0.520168485,1145.5,-33.887108,-4.634086,-75.5973245,-0.4,0.8500000000000001,737.0
76.2,-128.29532193,0.52018802,1145.0,-33.778885,-4.539113,-75.710526,-0.4,0.8,737.0
76.25,-128.295394675,0.520205255,1144.0,-33.534418,-4.3431175,-75.9396555,-0.4,0.75,737.0
76.3,-128.29546742,0.52022249,1143.0,-33.289951,-4.147122,-76.168785,-0.4,0.7,737.0
76.35,-128.295567665,0.52024604,1142.5,-33.1333825,-4.0215975,-76.31552500000001,-0.4,0.7,737.0
76.4,-128.29566791,0.52026959,1142.0,-32.976814,-3.896073,-76.462265,-0.4,0.7,737.0
76.45,-128.29574925,0.52028797,1141.0,-32.7754765,-3.732678,-76.6490515,-0.35,0.7,737.0
76.5,-128.29583059,0.52030635,1140.0,-32.574139,-3.569283,-76.835838,-0.3,0.7,737.0
76.55,-128.29592682,0.5203276,1139.5,-32.3968355,-3.425014,-76.9999425,-0.3,0.7,737.0
76.6,-128.29602305,0.52034885,1139.0,-32.219532,-3.280745,-77.164047,-0.3,0.7,737.0
76.65,-128.296118135,0.5203689499999999,1138.5,-32.0785,-3.1639905,-77.29671099999999,-0.35,0.7,736.5
76.7,-128.29621322,0.52038905,1138.0,-31.937468,-3.047236,-77.429375,-0.4,0.7,736.0
76.75,-128.29629513499998,0.520406275,1137.5,-31.7458965,-2.88383,-77.614685,-0.4,0.7,736.0
76.8,-128.29637705,0.5204235,1137.0,-31.554325,-2.720424,-77.799995,-0.4,0.7,736.0
76.85,-128.296468695,0.5204418749999999,1136.5,-31.4366215,-2.620027,-77.91385249999999,-0.4,0.7,736.0
76.9,-128.29656034,0.52046025,1136.0,-31.318918,-2.51963,-78.02771,-0.4,0.7,736.0
76.95,-128.29664855,0.52047747,1135.5,-31.156144,-2.382959,-78.1817435,-0.35,0.6499999999999999,736.0
77.0,-128.29673676,0.52049469,1135.0,-30.99337,-2.246288,-78.335777,-0.3,0.6,736.0
77.05,-128.29682039,0.5205107600000001,1134.5,-30.8742635,-2.1465285,-78.4481045,-0.3,0.55,736.0
77.1,-128.29690402,0.52052683,1134.0,-30.755157,-2.046769,-78.560432,-0.3,0.5,736.0
77.15,-128.29699452,0.520543475,1133.5,-30.663329,-1.973486,-78.6480785,-0.4,0.6,736.0
77.2,-128.29708502,0.52056012,1133.0,-30.571501,-1.900203,-78.735725,-0.5,0.7,736.0
77.25,-128.29716063,0.52057389,1133.0,-30.4632475,-1.8272375,-78.8429145,-0.6,0.75,736.0
77.3,-128.29723624,0.52058766,1133.0,-30.354994,-1.754272,-78.950104,-0.7,0.8,736.0
77.35,-128.29732960500002,0.520604305,1132.5,-30.2790835,-1.7031065,-79.025261,-0.75,0.8,736.0
77.4,-128.29742297,0.52062095,1132.0,-30.203173,-1.651941,-79.100418,-0.8,0.8,736.0
77.45,-128.29750602500002,0.52063529,1132.0,-30.152507,-1.601254,-79.1983335,-0.8,0.7,735.5
77.5,-128.29758908,0.52064963,1132.0,-30.101841,-1.550567,-79.296249,-0.8,0.6,735.0
77.55,-128.29768473,0.5206656949999999,1131.5,-30.06266,-1.50533,-79.389408,-0.75,0.5,735.0
77.6,-128.29778038,0.52068176,1131.0,-30.023479,-1.460093,-79.482567,-0.7,0.4,735.0
77.65,-128.29786,0.52069495,1131.0,-30.006603,-1.4344,-79.5346605,-0.75,0.4,735.0
77.7,-128.29793962,0.52070814,1131.0,-29.989727,-1.408707,-79.586754,-0.8,0.4,735.0
77.75,-128.29804043,0.5207247749999999,1130.5,-29.9915855,-1.3354765,-79.727585,-0.8,0.4,735.0
77.8,-128.29814124,0.52074141,1130.0,-29.993444,-1.262246,-79.868416,-0.8,0.4,735.0
77.85,-128.298219135,0.52075345,1130.0,-29.994256,-1.230305,-79.9298365,-0.8500000000000001,0.45,735.0
77.9,-128.29829703,0.52076549,1130.0,-29.995068,-1.198364,-79.991257,-0.9,0.5,735.0
77.95,-128.298396695,0.5207803950000001,1130.0,-30.122144,-1.161637,-80.085083,-0.9,0.55,735.0
78.0,-128.29849636,0.5207953,1130.0,-30.24922,-1.12491,-80.178909,-0.9,0.6,735.0
78.05,-128.29857311,0.5208073449999999,1130.0,-30.3417875,-1.1047555,-80.2346,-1.0,0.6499999999999999,735.0
78.1,-128.29864986,0.52081939,1130.0,-30.434355,-1.084601,-80.290291,-1.1,0.7,735.0
78.15,-128.298752385,0.52083429,1129.5,-30.615413,-1.066932,-80.35252750000001,-1.05,0.6499999999999999,735.0
78.2,-128.29885491,0.52084919,1129.0,-30.796471,-1.049263,-80.414764,-1.0,0.6,735.0
78.25,-128.298931665,0.5208600800000001,1129.0,-31.1183495,-1.0354965,-80.487518,-0.95,0.55,734.5
78.3,-128.29900842,0.52087097,1129.0,-31.440228,-1.02173,-80.560272,-0.9,0.5,734.0
78.35,-128.29910636,0.520884725,1129.0,-31.6719575,-1.011819,-80.6126515,-0.9,0.5,734.0
78.4,-128.2992043,0.52089848,1129.0,-31.903687,-1.001908,-80.665031,-0.9,0.5,734.0
78.45,-128.29928735,0.52090994,1129.0,-32.361031000000004,-0.977361,-80.7533565,-0.95,0.55,734.0
78.5,-128.2993704,0.5209214,1129.0,-32.818375,-0.952814,-80.841682,-1.0,0.6,734.0
78.55,-128.29946146999998,0.520934005,1129.0,-33.238178500000004,-0.9298005,-80.921318,-1.1,0.6499999999999999,733.5
78.6,-128.29955254,0.52094661,1129.0,-33.657982,-0.906787,-81.000954,-1.2,0.7,733.0
78.65,-128.299638455,0.52095749,1129.0,-33.945781999999994,-0.890609,-81.059929,-1.25,0.75,733.0
78.7,-128.29972437,0.52096837,1129.0,-34.233582,-0.874431,-81.118904,-1.3,0.8,733.0
78.75,-128.29981888,0.520980975,1128.5,-34.800518499999995,-0.8408135,-81.25418450000001,-1.35,0.9,733.0
78.8,-128.29991339,0.52099358,1128.0,-35.367455,-0.807196,-81.389465,-1.4,1.0,733.0
78.85,-128.29999529,0.52100389,1128.0,-35.6466565,-0.79064,-81.45608899999999,-1.4,0.95,733.0
78.9,-128.30007719,0.5210142,1128.0,-35.925858,-0.774084,-81.522713,-1.4,0.9,733.0
78.95,-128.30016139,0.5210239299999999,1128.0,-36.200005,-0.7616514999999999,-81.636845,-1.35,0.8,733.0
79.0,-128.30024559,0.52103366,1128.0,-36.474152,-0.749219,-81.750977,-1.3,0.7,733.0
79.05,-128.30034066500002,0.52104511,1128.0,-36.710024,-0.7397674999999999,-81.865036,-1.25,0.6499999999999999,732.5
79.1,-128.30043574,0.52105656,1128.0,-36.945896,-0.730316,-81.979095,-1.2,0.6,732.0
79.15,-128.300517645,0.521065715,1128.0,-37.055185,-0.7312354999999999,-82.04529149999999,-1.25,0.6499999999999999,732.0
79.2,-128.30059955,0.52107487,1128.0,-37.164474,-0.732155,-82.111488,-1.3,0.7,732.0
79.25,-128.30069119,0.52108517,1128.0,-37.224712,-0.7638469999999999,-82.226505,-1.35,0.75,732.0
79.3,-128.30078283,0.52109547,1128.0,-37.28495,-0.795539,-82.341522,-1.4,0.8,732.0
79.35,-128.300871605,0.5211051950000001,1128.0,-37.317113500000005,-0.8124595,-82.402931,-1.4,0.8,732.0
79.4,-128.30096038,0.52111492,1128.0,-37.349277,-0.82938,-82.46434,-1.4,0.8,732.0
79.45,-128.30105946499998,0.52112521,1128.0,-37.350912,-0.8582380000000001,-82.5768355,-1.35,0.7,732.0
79.5,-128.30115855,0.5211355,1128.0,-37.352547,-0.887096,-82.689331,-1.3,0.6,732.0
79.55,-128.301236445,0.521143505,1128.0,-37.3486865,-0.9052315,-82.760742,-1.3,0.55,732.0
79.6,-128.30131434,0.52115151,1128.0,-37.344826,-0.923367,-82.832153,-1.3,0.5,732.0
79.65,-128.301402545,0.521160085,1128.0,-37.3377095,-0.9349735,-82.888889,-1.25,0.4,732.0
79.7,-128.30149075,0.52116866,1128.0,-37.330593,-0.94658,-82.945625,-1.2,0.3,732.0
79.75,-128.30158238500002,0.5211772299999999,1128.0,-37.2801455,-0.950146,-83.0777355,-1.1,0.25,732.0
79.8,-128.30167402,0.5211858,1128.0,-37.229698,-0.953712,-83.209846,-1.0,0.2,732.0
79.85,-128.30172958,0.52119094,1127.5,-37.2067395,-0.955335,-83.2699775,-1.0,0.2,732.0
79.9,-128.30178514,0.52119608,1127.0,-37.183781,-0.956958,-83.330109,-1.0,0.2,732.0
79.95,-128.301895675,0.52120579,1127.0,-37.0928115,-0.958832,-83.44490049999999,-1.1,0.35,732.0
80.0,-128.30200621,0.5212155,1127.0,-37.001842,-0.960706,-83.559692,-1.2,0.5,732.0
80.05,-128.302088115,0.521222925,1127.0,-36.9274975,-0.961893,-83.644184,-1.2999999999999998,0.6,732.0
80.1,-128.30217002,0.52123035,1127.0,-36.853153,-0.96308,-83.728676,-1.4,0.7,732.0
80.15,-128.302275405,0.52123891,1127.0,-36.760412,-0.969133,-83.8126335,-1.35,0.6499999999999999,731.5
80.2,-128.30238079,0.52124747,1127.0,-36.667671,-0.975186,-83.896591,-1.3,0.6,731.0
80.25,-128.30246326,0.52125374,1127.0,-36.524847,-0.990659,-83.99705900000001,-1.25,0.5,731.0
80.3,-128.30254573,0.52126001,1127.0,-36.382023,-1.006132,-84.097527,-1.2,0.4,731.0
80.35,-128.30263909,0.521267425,1127.0,-36.287247,-1.016399,-84.164196,-1.15,0.3,731.0
80.4,-128.30273245,0.52127484,1127.0,-36.192471,-1.026666,-84.230865,-1.1,0.2,731.0
80.45,-128.302782275,0.521278255,1127.0,-36.094904,-1.0342715,-84.30729249999999,-1.05,0.2,731.0
80.5,-128.3028321,0.52128167,1127.0,-35.997337,-1.041877,-84.38372,-1.0,0.2,731.0
80.55,-128.30295123,0.5212907950000001,1127.0,-35.857534,-1.0517615,-84.495903,-0.95,0.1,731.0
80.6,-128.30307036,0.52129992,1127.0,-35.717731,-1.061646,-84.608086,-0.9,0.0,731.0
80.65,-128.30316313999998,0.521305605,1126.5,-35.6615405,-1.061975,-84.676941,-0.8500000000000001,-0.05,730.5
80.7,-128.30325592,0.52131129,1126.0,-35.60535,-1.062304,-84.745796,-0.8,-0.1,730.0
80.75,-128.30334641000002,0.521317555,1126.0,-35.5979,-1.0442415,-84.8730355,-0.7,-0.15,730.0
80.8,-128.3034369,0.52132382,1126.0,-35.59045,-1.026179,-85.000275,-0.6,-0.2,730.0
80.85,-128.30352052,0.5213289400000001,1126.0,-35.586417999999995,-1.0164065,-85.06911500000001,-0.6499999999999999,-0.15,730.0
80.9,-128.30360414,0.52133406,1126.0,-35.582386,-1.006634,-85.137955,-0.7,-0.1,730.0
80.95,-128.303704365,0.5213397399999999,1126.0,-35.7194365,-0.973737,-85.2627795,-0.8,0.1,730.0
81.0,-128.30380459,0.52134542,1126.0,-35.856487,-0.94084,-85.387604,-0.9,0.3,730.0
81.05,-128.3038842,0.521349965,1126.0,-35.959194,-0.9182155,-85.4674495,-1.0,0.4499999999999999,730.0
81.1,-128.30396381,0.52135451,1126.0,-36.061901,-0.895591,-85.547295,-1.1,0.6,730.0
81.15,-128.30405888,0.52135904,1126.0,-36.1601525,-0.873543,-85.629471,-1.05,0.5,729.5
81.2,-128.30415395,0.52136357,1126.0,-36.258404,-0.851495,-85.711647,-1.0,0.4,729.0
81.25,-128.30423814,0.52136811,1126.0,-36.3988345,-0.81919,-85.840416,-0.95,0.35,729.0
81.3,-128.30432233,0.52137265,1126.0,-36.539265,-0.786885,-85.969185,-0.9,0.3,729.0
81.35,-128.30441339499998,0.52137661,1126.0,-36.6285805,-0.7663385,-86.0510825,-0.8500000000000001,0.2,729.0
81.4,-128.30450446,0.52138057,1126.0,-36.717896,-0.745792,-86.13298,-0.8,0.1,729.0
81.45,-128.30459724000002,0.521384525,1126.0,-36.7699015,-0.7252115,-86.268753,-0.75,0.0,729.0
81.5,-128.30469002,0.52138848,1126.0,-36.821907,-0.704631,-86.404526,-0.7,-0.1,729.0
81.55,-128.304782225,0.52139186,1125.5,-36.852316,-0.6898535,-86.511948,-0.6,-0.2,729.0
81.6,-128.30487443,0.52139524,1125.0,-36.882725,-0.675076,-86.61937,-0.5,-0.3,729.0
81.65,-128.30495003,0.521397485,1125.0,-36.893875,-0.6665525,-86.6843075,-0.45,-0.4,729.0
81.7,-128.30502563,0.52139973,1125.0,-36.905025,-0.658029,-86.749245,-0.4,-0.5,729.0
81.75,-128.30511325499998,0.521402535,1125.0,-36.872524,-0.6411855,-86.9029235,-0.3,-0.55,729.0
81.8,-128.30520088,0.52140534,1125.0,-36.840023,-0.624342,-87.056602,-0.2,-0.6,729.0
81.85,-128.305270175,0.52140759,1125.0,-36.8252925,-0.616709,-87.126251,-0.15,-0.7,729.0
81.9,-128.30533947,0.52140984,1125.0,-36.810562,-0.609076,-87.1959,-0.1,-0.8,729.0
81.95,-128.30541908,0.5214115,1125.0,-36.754442,-0.5940645,-87.3133315,-0.05,-0.8500000000000001,729.0
82.0,-128.30549869,0.52141316,1125.0,-36.698322,-0.579053,-87.430763,0.0,-0.9,729.0
82.05,-128.305612085,0.521415945,1125.0,-36.6323165,-0.5634895,-87.5468865,0.1,-1.05,728.5
82.1,-128.30572548,0.52141873,1125.0,-36.566311,-0.547926,-87.66301,0.2,-1.2,728.0
82.15,-128.305826845,0.5214198000000001,1125.0,-36.5094035,-0.5357435,-87.752163,0.25,-1.2999999999999998,728.0
82.2,-128.30592821,0.52142087,1125.0,-36.452496,-0.523561,-87.841316,0.3,-1.4,728.0
82.25,-128.30601068,0.52142195,1125.0,-36.345095,-0.5043285000000001,-87.976257,0.4,-1.45,728.0
82.3,-128.30609315,0.52142303,1125.0,-36.237694,-0.485096,-88.111198,0.5,-1.5,728.0
82.35,-128.306175045,0.52142354,1125.0,-36.178921,-0.474571,-88.1850395,0.55,-1.55,728.0
82.4,-128.30625694,0.52142405,1125.0,-36.120148,-0.464046,-88.258881,0.6,-1.6,728.0
82.45,-128.306303905,0.521424585,1125.0,-36.051943,-0.451561,-88.33896250000001,0.6499999999999999,-1.65,728.0
82.5,-128.30635087,0.52142512,1125.0,-35.983738,-0.439076,-88.419044,0.7,-1.7,728.0
82.55,-128.306456815,0.5214256049999999,1125.0,-35.8735505,-0.4187675,-88.54549750000001,0.75,-1.7999999999999998,727.5
82.6,-128.30656276,0.52142609,1125.0,-35.763363,-0.398459,-88.671951,0.8,-1.9,727.0
82.65,-128.306680735,0.52142599,1125.0,-35.6935405,-0.382429,-88.766449,0.0,-0.8,726.5
82.7,-128.30679871,0.52142589,1125.0,-35.623718,-0.366399,-88.860947,-0.8,0.3,726.0
82.75,-128.306886335,0.5214252399999999,1125.0,-35.572355,-0.3421674999999999,-88.987015,-1.5499999999999998,1.4,726.0
82.8,-128.30697396,0.52142459,1125.0,-35.520992,-0.317936,-89.113083,-2.3,2.5,726.0
82.85,-128.307073605,0.52142393,1125.5,-35.491159499999995,-0.3038619999999999,-89.18630200000001,-2.6,2.95,726.5
82.9,-128.30717325,0.52142327,1126.0,-35.461327,-0.289788,-89.259521,-2.9,3.4,727.0
82.95,-128.307256865,0.521422045,1126.0,-35.454802,-0.2677819999999999,-89.3675155,-2.85,3.35,727.0
83.0,-128.30734048,0.52142082,1126.0,-35.448277,-0.245776,-89.47551,-2.8,3.3,727.0
83.05,-128.30743439999998,0.5214195850000001,1126.0,-35.4466345,-0.2267505,-89.56822600000001,-2.75,3.2,726.5
83.1,-128.30752832,0.52141835,1126.0,-35.444992,-0.207725,-89.660942,-2.7,3.1,726.0
83.15,-128.30761136,0.5214165500000001,1126.0,-35.4441435,-0.1934735,-89.733074,-2.6500000000000004,3.0,726.0
83.2,-128.3076944,0.52141475,1126.0,-35.443295,-0.179222,-89.805206,-2.6,2.9,726.0
83.25,-128.307779155,0.52141295,1126.0,-35.442797,-0.15571,-89.9306065,-2.55,2.85,726.0
83.3,-128.30786391,0.52141115,1126.0,-35.442299,-0.132198,-90.056007,-2.5,2.8,726.0
83.35,-128.307945805,0.521408775,1126.0,-35.4420355,-0.1196895,-90.1227225,-2.5,2.75,725.5
83.4,-128.3080277,0.5214064,1126.0,-35.441772,-0.107181,-90.189438,-2.5,2.7,725.0
83.45,-128.30811532,0.5214040200000001,1126.0,-35.445673,-0.0899585,-90.297886,-2.45,2.6,725.0
83.5,-128.30820294,0.52140164,1126.0,-35.449574,-0.072736,-90.406334,-2.4,2.5,725.0
83.55,-128.30829628499998,0.5213986749999999,1126.0,-35.45434,-0.0565814999999999,-90.5123635,-2.35,2.4,725.0
83.6,-128.30838963,0.52139571,1126.0,-35.459106,-0.040427,-90.618393,-2.3,2.3,725.0
83.65,-128.30847152,0.52139218,1126.5,-35.460378500000004,-0.0301579999999999,-90.687607,-2.2,2.25,725.0
83.7,-128.30855341,0.52138865,1127.0,-35.461651,-0.019889,-90.756821,-2.1,2.2,725.0
83.75,-128.30864733,0.521385115,1127.0,-35.455904000000004,-0.0002509999999999,-90.89753,-2.05,2.1,725.0
83.8,-128.30874125,0.52138158,1127.0,-35.450157,0.019387,-91.038239,-2.0,2.0,725.0
83.85,-128.30882199500002,0.52137805,1127.0,-35.44746,0.028614,-91.104355,-1.95,1.95,725.0
83.9,-128.30890274,0.52137452,1127.0,-35.444763,0.037841,-91.170471,-1.9,1.9,725.0
83.95,-128.30900296,0.521369825,1127.0,-35.427614000000005,0.055184,-91.2984425,-1.85,1.7999999999999998,725.0
84.0,-128.30910318,0.52136513,1127.0,-35.410465,0.072527,-91.426414,-1.8,1.7,725.0
84.05,-128.309184495,0.521361025,1127.0,-35.396267,0.085044,-91.5193325,-1.75,1.6,725.0
84.1,-128.30926581,0.52135692,1127.0,-35.382069,0.097561,-91.612251,-1.7,1.5,725.0
84.15,-128.30936373999998,0.521351645,1127.5,-35.378998,0.109433,-91.711605,-1.6,1.4,724.5
84.2,-128.30946167,0.52134637,1128.0,-35.375927,0.121305,-91.810959,-1.5,1.3,724.0
84.25,-128.309540125,0.52134227,1128.0,-35.386486,0.132094,-91.9156495,-1.45,1.2000000000000002,724.0
84.3,-128.30961858,0.52133817,1128.0,-35.397045,0.142883,-92.02034,-1.4,1.1,724.0
84.35,-128.30971191999998,0.521332325,1128.0,-35.404215,0.1502085,-92.091427,-1.45,1.2000000000000002,723.5
84.4,-128.30980526,0.52132648,1128.0,-35.411385,0.157534,-92.162514,-1.5,1.3,723.0
84.45,-128.30988887,0.52132122,1128.0,-35.529095,0.15567,-92.2476845,-1.65,1.4500000000000002,723.0
84.5,-128.30997248,0.52131596,1128.0,-35.646805,0.153806,-92.332855,-1.8,1.6,723.0
84.55,-128.31006696999998,0.521309535,1128.5,-35.771389,0.150231,-92.4088095,-1.9,1.75,723.0
84.6,-128.31016146,0.52130311,1129.0,-35.895973,0.146656,-92.484764,-2.0,1.9,723.0
84.65,-128.310239915,0.52129728,1129.0,-35.9853535,0.1432145,-92.525692,-1.95,1.85,723.0
84.7,-128.31031837,0.52129145,1129.0,-36.074734,0.139773,-92.56662,-1.9,1.8,723.0
84.75,-128.310408275,0.52128503,1129.0,-36.463858,0.118545,-92.6482085,-1.9,1.7000000000000002,723.0
84.8,-128.31049818,0.52127861,1129.0,-36.852982,0.097317,-92.729797,-1.9,1.6,723.0
84.85,-128.31058007,0.5212727749999999,1129.0,-37.051142,0.086507,-92.771339,-1.9,1.55,723.0
84.9,-128.31066196,0.52126694,1129.0,-37.249302,0.075697,-92.812881,-1.9,1.5,723.0
84.95,-128.31075473,0.5212593649999999,1129.0,-37.6678525,0.0578059999999999,-92.8883055,-1.85,1.45,722.5
85.0,-128.3108475,0.52125179,1129.0,-38.086403,0.039915,-92.96373,-1.8,1.4,722.0
85.05,-128.310928815,0.52124538,1129.5,-38.439228,0.025583,-93.0254405,-1.75,1.35,722.0
85.1,-128.31101013,0.52123897,1130.0,-38.792053,0.011251,-93.087151,-1.7,1.3,722.0
85.15,-128.31110117999998,0.5212314,1130.0,-39.099708500000006,-0.0070174999999999,-93.1395075,-1.7,1.25,722.0
85.2,-128.31119223,0.52122383,1130.0,-39.407364,-0.025286,-93.191864,-1.7,1.2,722.0
85.25,-128.311268395,0.5212168450000001,1130.0,-39.832472,-0.0631745,-93.2610245,-1.65,1.15,722.0
85.3,-128.31134456,0.52120986,1130.0,-40.25758,-0.101063,-93.330185,-1.6,1.1,722.0
85.35,-128.311439045,0.5212017099999999,1130.0,-40.54171,-0.126386,-93.3764115,-1.65,1.15,722.0
85.4,-128.31153353,0.52119356,1130.0,-40.82584,-0.151709,-93.422638,-1.7,1.2,722.0
85.45,-128.311618855,0.5211854149999999,1130.0,-41.146593,-0.226864,-93.4631615,-1.7999999999999998,1.2999999999999998,721.5
85.5,-128.31170418,0.52117727,1130.0,-41.467346,-0.302019,-93.503685,-1.9,1.4,721.0
85.55,-128.311804395,0.52116796,1130.0,-41.7533475,-0.3768775,-93.5378455,-2.05,1.5,721.0
85.6,-128.31190461,0.52115865,1130.0,-42.039349,-0.451736,-93.572006,-2.2,1.6,721.0
85.65,-128.31198306,0.52115109,1130.0,-42.20159,-0.4953345,-93.5891725,-2.25,1.55,721.0
85.7,-128.31206151,0.52114353,1130.0,-42.363831,-0.538933,-93.606339,-2.3,1.5,721.0
85.75,-128.312153705,0.521134225,1130.5,-42.8208165,-0.6735545000000001,-93.6316185,-2.3,1.45,721.0
85.8,-128.3122459,0.52112492,1131.0,-43.277802,-0.808176,-93.656898,-2.3,1.4,721.0
85.85,-128.31232721499998,0.5211167800000001,1131.0,-43.4957775,-0.8723879999999999,-93.6689605,-2.3,1.35,721.0
85.9,-128.31240853,0.52110864,1131.0,-43.713753,-0.9366,-93.681023,-2.3,1.3,721.0
85.95,-128.312505305,0.521098755,1130.5,-43.9717315,-1.0873905,-93.656933,-2.35,1.3,720.5
86.0,-128.31260208,0.52108887,1130.0,-44.22971,-1.238181,-93.632843,-2.4,1.3,720.0
86.05,-128.31268225000002,0.52108073,1130.0,-44.4032635,-1.357479,-93.6074865,-2.45,1.25,720.0
86.1,-128.31276242,0.52107259,1130.0,-44.576817,-1.476777,-93.58213,-2.5,1.2,720.0
86.15,-128.31285347,0.52106329,1130.0,-44.7166695,-1.5848165,-93.5582045,-2.5,1.2,720.0
86.2,-128.31294452,0.52105399,1130.0,-44.856522,-1.692856,-93.534279,-2.5,1.2,720.0
86.25,-128.31302068,0.521045855,1130.0,-45.0362285,-1.8877305,-93.4871405,-2.55,1.15,720.0
86.3,-128.31309684,0.52103772,1130.0,-45.215935,-2.082605,-93.440002,-2.6,1.1,720.0
86.35,-128.313189035,0.521028415,1129.5,-45.336899,-2.2137795,-93.4082755,-2.6500000000000004,1.1,720.0
86.4,-128.31328123,0.52101911,1129.0,-45.457863,-2.344954,-93.376549,-2.7,1.1,720.0
86.45,-128.31336312000002,0.521010395,1129.0,-45.7550945,-2.4897255,-93.3349955,-2.7,1.05,720.0
86.5,-128.31344501,0.52100168,1129.0,-46.052326,-2.634497,-93.293442,-2.7,1.0,720.0
86.55,-128.31354121,0.520991795,1128.5,-46.393873,-2.780008,-93.249966,-2.75,1.0,719.5
86.6,-128.31363741,0.52098191,1128.0,-46.73542,-2.925519,-93.20649,-2.8,1.0,719.0
86.65,-128.313720445,0.5209731900000001,1128.0,-46.997625,-3.0087475,-93.180756,-2.9,1.1,719.0
86.7,-128.31380348,0.52096447,1128.0,-47.25983,-3.091976,-93.155022,-3.0,1.2,719.0
86.75,-128.313895675,0.52095517,1127.5,-48.0232065,-3.232795,-93.1073535,-3.15,1.35,719.0
86.8,-128.31398787,0.52094587,1127.0,-48.786583,-3.373614,-93.059685,-3.3,1.5,719.0
86.85,-128.314076055,0.520937145,1126.5,-49.194824,-3.448922,-93.034195,-3.35,1.55,718.5
86.9,-128.31416424,0.52092842,1126.0,-49.603065,-3.52423,-93.008705,-3.4,1.6,718.0
86.95,-128.314243835,0.5209202799999999,1125.5,-50.447172,-3.5867370000000003,-93.027027,-3.35,1.55,718.0
87.0,-128.31432343,0.52091214,1125.0,-51.291279,-3.649244,-93.045349,-3.3,1.5,718.0
87.05,-128.31441848999998,0.52090226,1124.5,-52.242096,-3.705387,-93.07687,-3.25,1.5,717.5
87.1,-128.31451355,0.52089238,1124.0,-53.192913,-3.76153,-93.108391,-3.2,1.5,717.0
87.15,-128.314586845,0.520884825,1123.5,-53.6353855,-3.787656,-93.1230545,-3.1,1.5,717.0
87.2,-128.31466014,0.52087727,1123.0,-54.077858,-3.813782,-93.137718,-3.0,1.5,717.0
87.25,-128.31475233499998,0.520867965,1122.5,-55.811548,-3.798254,-93.304531,-2.9,1.45,717.0
87.3,-128.31484453,0.52085866,1122.0,-57.545238,-3.782726,-93.471344,-2.8,1.4,717.0
87.35,-128.314934435,0.52084936,1121.5,-58.4554975,-3.7745725,-93.5589295,-2.75,1.4,716.5
87.4,-128.31502434,0.52084006,1121.0,-59.365757,-3.766419,-93.646515,-2.7,1.4,716.0
87.45,-128.315101645,0.52083192,1120.0,-60.7358935,-3.744408,-93.8176115,-2.7,1.45,716.0
87.5,-128.31517895,0.52082378,1119.0,-62.10603,-3.722397,-93.988708,-2.7,1.5,716.0
87.55,-128.31527687,0.520812745,1118.5,-63.55634499999999,-3.697437,-94.1765095,-2.75,1.55,716.0
87.6,-128.31537479,0.52080171,1118.0,-65.00666,-3.672477,-94.364311,-2.8,1.6,716.0
87.65,-128.315454385,0.52079242,1117.5,-65.8554645,-3.66694,-94.485733,-2.75,1.6,715.5
87.7,-128.31553398,0.52078313,1117.0,-66.704269,-3.661403,-94.607155,-2.7,1.6,715.0
87.75,-128.315630185,0.5207715150000001,1116.0,-68.34834649999999,-3.6925285,-94.895443,-2.6500000000000004,1.55,715.0
87.8,-128.31572639,0.5207599,1115.0,-69.992424,-3.723654,-95.183731,-2.6,1.5,715.0
87.85,-128.315815145,0.52074887,1114.5,-70.8553315,-3.7399905,-95.335045,-2.55,1.45,715.0
87.9,-128.3159039,0.52073784,1114.0,-71.718239,-3.756327,-95.486359,-2.5,1.4,715.0
87.95,-128.31598006000002,0.520727975,1113.0,-72.8604775,-3.8275735,-95.7079925,-2.45,1.35,714.5
88.0,-128.31605622,0.52071811,1112.0,-74.002716,-3.89882,-95.929626,-2.4,1.3,714.0
88.05,-128.31613982,0.520707085,1111.5,-74.96740700000001,-3.965035,-96.1194075,-2.35,1.25,714.0
88.1,-128.31622342,0.52069606,1111.0,-75.932098,-4.03125,-96.309189,-2.3,1.2,714.0
88.15,-128.316295,0.520685045,1110.0,-76.7909885,-4.110513,-96.5033225,-2.25,1.15,714.0
88.2,-128.31636658,0.52067403,1109.0,-77.649879,-4.189776,-96.697456,-2.2,1.1,714.0
88.25,-128.31645075,0.52066185,1108.5,-78.502235,-4.2854295,-96.9111745,-2.1500000000000004,1.05,713.5
88.3,-128.31653492,0.52064967,1108.0,-79.354591,-4.381083,-97.124893,-2.1,1.0,713.0
88.35,-128.31662826000002,0.52063518,1107.0,-79.957153,-4.448704,-97.275974,-2.05,0.95,713.0
88.4,-128.3167216,0.52062069,1106.0,-80.559715,-4.516325,-97.427055,-2.0,0.9,713.0
88.45,-128.31681035,0.5206062,1105.0,-81.1711195,-4.6362175,-97.654697,-2.0,0.9,713.0
88.5,-128.3168991,0.52059171,1104.0,-81.782524,-4.75611,-97.882339,-2.0,0.9,713.0
88.55,-128.31697583,0.52057954,1103.0,-82.2306825,-4.8603675,-98.072937,-2.0,0.9,712.5
88.6,-128.31705256,0.52056737,1102.0,-82.678841,-4.964625,-98.263535,-2.0,0.9,712.0
88.65,-128.317152195,0.52054941,1101.0,-83.0220795,-5.0697335,-98.440018,-2.0,0.9,712.0
88.7,-128.31725183,0.52053145,1100.0,-83.365318,-5.174842,-98.616501,-2.0,0.9,712.0
88.75,-128.317334855,0.52051639,1099.0,-83.6195945,-5.3189425,-98.827225,-2.05,0.9,712.0
88.8,-128.31741788,0.52050133,1098.0,-83.873871,-5.463043,-99.037949,-2.1,0.9,712.0
88.85,-128.31749002499998,0.52048801,1097.0,-84.0108835,-5.540691499999999,-99.151497,-2.1,0.8500000000000001,711.5
88.9,-128.31756217,0.52047469,1096.0,-84.147896,-5.61834,-99.265045,-2.1,0.8,711.0
88.95,-128.31764806,0.52045732,1095.0,-84.26222250000001,-5.7533775,-99.530586,-2.1,0.8,711.0
89.0,-128.31773395,0.52043995,1094.0,-84.376549,-5.888415,-99.796127,-2.1,0.8,711.0
89.05,-128.31781411,0.520424315,1093.0,-84.4448015,-6.0014765,-100.0335385,-2.05,0.8,711.0
89.1,-128.31789427,0.52040868,1092.0,-84.513054,-6.114538,-100.27095,-2.0,0.8,711.0
89.15,-128.317986455,0.520389,1090.5,-84.57218549999999,-6.2008015,-100.51453,-2.0,0.8,710.5
89.2,-128.31807864,0.52036932,1089.0,-84.631317,-6.287065,-100.75811,-2.0,0.8,710.0
89.25,-128.31814735,0.52035485,1088.0,-84.72335799999999,-6.391117,-101.2350885,-1.95,0.8,710.0
89.3,-128.31821606,0.52034038,1087.0,-84.815399,-6.495169,-101.712067,-1.9,0.8,710.0
89.35,-128.31830882,0.520319545,1086.0,-84.8832395,-6.571870499999999,-102.0636715,-1.7999999999999998,0.8,709.5
89.4,-128.31840158,0.52029871,1085.0,-84.95108,-6.648572,-102.415276,-1.7,0.8,709.0
89.45,-128.318485745,0.5202784650000001,1083.5,-84.993393,-6.7443805,-102.911068,-1.6,0.8,709.0
89.5,-128.31856991,0.52025822,1082.0,-85.035706,-6.840189,-103.40686,-1.5,0.8,709.0
89.55,-128.318664955,0.5202344999999999,1080.5,-85.06708950000001,-6.9338745,-103.904987,-1.35,0.8,709.0
89.6,-128.31876,0.52021078,1079.0,-85.098473,-7.02756,-104.403114,-1.2,0.8,709.0
89.65,-128.31883557999998,0.52018996,1078.0,-85.12335999999999,-7.088910500000001,-104.7039795,-1.15,0.8500000000000001,708.5
89.7,-128.31891116,0.52016914,1077.0,-85.148247,-7.150261,-105.004845,-1.1,0.9,708.0
89.75,-128.318998185,0.52014543,1075.5,-85.21286,-7.2751225,-105.535393,-1.05,0.9,708.0
89.8,-128.31908521,0.52012172,1074.0,-85.277473,-7.399984,-106.065941,-1.0,0.9,708.0
