Time,Longitude,Latitude,Altitude,Roll,Pitch,Yaw,AOA,AOS,TAS
89.85,-128.31915735,0.520100325,1072.5,-85.30863149999999,-7.4601975,-106.3218005,-1.0,0.9,708.0
89.9,-128.31922949,0.52007893,1071.0,-85.33979,-7.520411,-106.57766,-1.0,0.9,708.0
89.95,-128.319318235,0.5200517600000001,1069.5,-85.440872,-7.6332115,-107.144722,-0.9,0.9,707.5
90.0,-128.31940698,0.52002459,1068.0,-85.541954,-7.746012,-107.711784,-0.8,0.9,707.0
90.05,-128.31947968999998,0.520002045,1066.5,-85.625103,-7.8311195,-108.153755,-0.7,0.9,707.0
90.1,-128.3195524,0.5199795,1065.0,-85.708252,-7.916227,-108.595726,-0.6,0.9,707.0
90.15,-128.31964057,0.51994887,1063.5,-85.7593195,-7.991845,-109.0210685,-0.55,0.8500000000000001,706.5
90.2,-128.31972874,0.51991824,1062.0,-85.810387,-8.067463,-109.446411,-0.5,0.8,706.0
90.25,-128.319800875,0.519893385,1060.5,-85.808655,-8.181892999999999,-110.2031935,-0.4,0.8,706.0
90.3,-128.31987301,0.51986853,1059.0,-85.806923,-8.296323,-110.959976,-0.3,0.8,706.0
90.35,-128.319961175,0.5198350199999999,1057.5,-85.805744,-8.374654,-111.478016,-0.2,0.8,705.5
90.4,-128.32004934,0.51980151,1056.0,-85.804565,-8.452985,-111.996056,-0.1,0.8,705.0
90.45,-128.320128915,0.51977031,1054.0,-85.6915855,-8.5571725,-112.711594,-0.05,0.8,704.5
90.5,-128.32020849,0.51973911,1052.0,-85.578606,-8.66136,-113.427132,-0.0,0.8,704.0
90.55,-128.320292645,0.5197044449999999,1050.5,-85.472046,-8.7475505,-114.0221865,0.05,0.8,704.0
90.6,-128.3203768,0.51966978,1049.0,-85.365486,-8.833741,-114.617241,0.1,0.8,704.0
90.65,-128.320444355,0.51963917,1047.5,-85.301346,-8.881318499999999,-114.9465255,0.15,0.8,704.0
90.7,-128.32051191,0.51960856,1046.0,-85.237206,-8.928896,-115.27581,0.2,0.8,704.0
90.75,-128.32059663,0.519570435,1044.0,-85.025181,-9.044813,-116.0867155,0.3,0.8,704.0
90.8,-128.32068135,0.51953231,1042.0,-84.813156,-9.16073,-116.897621,0.4,0.8,704.0
90.85,-128.32074833,0.519499395,1040.5,-84.71381,-9.2150455,-117.277588,0.45,0.8,703.5
90.9,-128.32081531,0.51946648,1039.0,-84.614464,-9.269361,-117.657555,0.5,0.8,703.0
90.95,-128.320892585,0.5194272099999999,1037.5,-84.43441,-9.353821,-118.2856065,0.5,0.75,703.0
91.0,-128.32096986,0.51938794,1036.0,-84.254356,-9.438281,-118.913658,0.5,0.7,703.0
91.05,-128.321050005,0.51934636,1034.0,-84.0861165,-9.5142055,-119.4875335,0.55,0.7,702.5
91.1,-128.32113015,0.51930478,1032.0,-83.917877,-9.59013,-120.061409,0.6,0.7,702.0
91.15,-128.3212017,0.51926379,1030.0,-83.771427,-9.6451555,-120.5104735,0.55,0.7,702.0
91.2,-128.32127325,0.5192228,1028.0,-83.624977,-9.700181,-120.959538,0.5,0.7,702.0
91.25,-128.32134766,0.51918065,1026.5,-83.380375,-9.7772195,-121.6417565,0.5,0.75,701.5
91.3,-128.32142207,0.5191385,1025.0,-83.135773,-9.854258,-122.323975,0.5,0.8,701.0
91.35,-128.32149076000002,0.519096355,1023.0,-83.00322349999999,-9.8960045,-122.693676,0.55,0.8,700.5
91.4,-128.32155945,0.51905421,1021.0,-82.870674,-9.937751,-123.063377,0.6,0.8,700.0
91.45,-128.32163328500002,0.5190074499999999,1019.0,-82.553215,-9.99748,-123.7747955,0.6,0.8,700.0
91.5,-128.32170712,0.51896069,1017.0,-82.235756,-10.057209,-124.486214,0.6,0.8,700.0
91.55,-128.32176722000003,0.5189225900000001,1015.5,-81.995991,-10.0984575,-125.0068075,0.6499999999999999,0.8,700.0
91.6,-128.32182732,0.51888449,1014.0,-81.756226,-10.139706,-125.527401,0.7,0.8,700.0
91.65,-128.32189428499998,0.518837735,1012.5,-81.56845899999999,-10.1682225,-125.923874,0.75,0.8,699.5
91.7,-128.32196125,0.51879098,1011.0,-81.380692,-10.196739,-126.320347,0.8,0.8,699.0
91.75,-128.32203622499998,0.518738455,1009.0,-80.9296765,-10.2342135,-127.1806775,0.8500000000000001,0.8,699.0
91.8,-128.3221112,0.51868593,1007.0,-80.478661,-10.271688,-128.041008,0.9,0.8,699.0
91.85,-128.32216614499998,0.51864495,1005.5,-80.277466,-10.2884055,-128.42479300000002,0.9,0.75,699.0
91.9,-128.32222109,0.51860397,1004.0,-80.076271,-10.305123,-128.808578,0.9,0.7,699.0
91.95,-128.32229777499998,0.518544525,1001.5,-79.66776250000001,-10.322935,-129.522768,0.9,0.7,698.5
92.0,-128.32237446,0.51848508,999.0,-79.259254,-10.340747,-130.236958,0.9,0.7,698.0
92.05,-128.322437415,0.5184354449999999,997.0,-78.960342,-10.351135,-130.7488655,0.8500000000000001,0.75,698.0
92.1,-128.32250037,0.51838581,995.0,-78.66143,-10.361523,-131.260773,0.8,0.8,698.0
92.15,-128.32256618,0.518329255,993.0,-78.4413715,-10.367254,-131.6388935,0.8500000000000001,0.75,698.0
92.2,-128.32263199,0.5182727,991.0,-78.221313,-10.372985,-132.017014,0.9,0.7,698.0
92.25,-128.32268922,0.51822365,989.5,-77.781597,-10.3672325,-132.78382299999998,0.9,0.7,697.5
92.3,-128.32274645,0.5181746,988.0,-77.341881,-10.36148,-133.550632,0.9,0.7,697.0
92.35,-128.322812255,0.518114585,986.0,-77.0618135,-10.3578155,-134.0390355,0.95,0.7,697.0
92.4,-128.32287806,0.51805457,984.0,-76.781746,-10.354151,-134.527439,1.0,0.7,697.0
92.45,-128.322935855,0.51799975,982.0,-76.4093895,-10.312101,-135.240629,1.05,0.7,696.5
92.5,-128.32299365,0.51794493,980.0,-76.037033,-10.270051,-135.953819,1.1,0.7,696.0
92.55,-128.32305774,0.517883765,978.0,-75.65923699999999,-10.2203025,-136.6895885,1.15,0.7,696.0
92.6,-128.32312183,0.5178226,976.0,-75.281441,-10.170554,-137.425358,1.2,0.7,696.0
92.65,-128.32317733,0.517764325,974.0,-75.0291175,-10.131574,-137.902851,1.25,0.7,695.5
92.7,-128.32323283,0.51770605,972.0,-74.776794,-10.092594,-138.380344,1.3,0.7,695.0
92.75,-128.32329462500002,0.517640855,970.0,-74.26646,-9.9892095,-139.286787,1.4,0.7,695.0
92.8,-128.32335642,0.51757566,968.0,-73.756126,-9.885825,-140.19323,1.5,0.7,695.0
92.85,-128.32341306,0.517511615,966.5,-73.477104,-9.8293005,-140.68882000000002,1.55,0.75,694.5
92.9,-128.3234697,0.51744757,965.0,-73.198082,-9.772776,-141.18441,1.6,0.8,694.0
92.95,-128.32351661500002,0.5173921850000001,963.0,-72.7927705,-9.698381,-141.770916,1.6,0.75,693.5
93.0,-128.32356353,0.5173368,961.0,-72.387459,-9.623986,-142.357422,1.6,0.7,693.0
93.05,-128.323616735,0.517274495,959.5,-71.998524,-9.5538235,-142.899021,1.55,0.7,693.0
93.1,-128.32366994,0.51721219,958.0,-71.609589,-9.483661,-143.44062,1.5,0.7,693.0
93.15,-128.323722,0.517144115,956.0,-71.331871,-9.4382325,-143.804264,1.45,0.7,692.5
93.2,-128.32377406,0.51707604,954.0,-71.054153,-9.392804,-144.167908,1.4,0.7,692.0
93.25,-128.323826685,0.51700739,952.0,-70.5176735,-9.32564,-144.7686405,1.4,0.7,691.5
93.3,-128.32387931,0.51693874,950.0,-69.981194,-9.258476,-145.369373,1.4,0.7,691.0
93.35,-128.32392622,0.5168741299999999,948.5,-69.697758,-9.2229915,-145.686758,1.35,0.7,691.0
93.4,-128.32397313,0.51680952,947.0,-69.414322,-9.187507,-146.004143,1.3,0.7,691.0
93.45,-128.32402461,0.5167362600000001,945.0,-68.877201,-9.144888,-146.4556255,1.2000000000000002,0.7,690.5
93.5,-128.32407609,0.516663,943.0,-68.34008,-9.102269,-146.907108,1.1,0.7,690.0
93.55,-128.32412127499998,0.5165972400000001,941.5,-67.922371,-9.0724005,-147.2382755,1.05,0.6499999999999999,690.0
93.6,-128.32416646,0.51653148,940.0,-67.504662,-9.042532,-147.569443,1.0,0.6,690.0
93.65,-128.32421336,0.5164588,938.5,-67.080868,-9.023959,-147.85619100000002,0.9,0.6,690.0
93.7,-128.32426026,0.51638612,937.0,-66.657074,-9.005386,-148.142939,0.8,0.6,690.0
93.75,-128.324300865,0.51632267,935.5,-66.064888,-8.995884499999999,-148.474558,0.75,0.6,689.5
93.8,-128.32434147,0.51625922,934.0,-65.472702,-8.986383,-148.806177,0.7,0.6,689.0
93.85,-128.32437979000002,0.5161975000000001,932.5,-65.1471865,-8.9811595,-148.9884625,0.6,0.6,689.0
93.9,-128.32441811,0.51613578,931.0,-64.821671,-8.975936,-149.170748,0.5,0.6,689.0
93.95,-128.32446786,0.51605272,929.0,-64.139765,-8.9632055,-149.53177,0.45,0.6,688.5
94.0,-128.32451761,0.51596966,927.0,-63.457859,-8.950475,-149.892792,0.4,0.6,688.0
94.05,-128.324557645,0.51590275,925.5,-62.9580765,-8.940868,-150.1541815,0.35,0.6,688.0
94.1,-128.32459768,0.51583584,924.0,-62.458294,-8.931261,-150.415571,0.3,0.6,688.0
94.15,-128.324640565,0.51575913,922.0,-62.0063055,-8.93354,-150.6069295,0.25,0.55,687.5
94.2,-128.32468345,0.51568242,920.0,-61.554317,-8.935819,-150.798288,0.2,0.5,687.0
94.25,-128.324728055,0.515602825,918.5,-60.830013,-8.968332499999999,-150.9864015,0.0499999999999999,0.5,687.0
94.3,-128.32477266,0.51552323,917.0,-60.105709,-9.000846,-151.174515,-0.1,0.5,687.0
94.35,-128.324807535,0.51545805,915.5,-59.759573,-9.0163835,-151.264411,-0.15,0.5,687.0
94.4,-128.32484241,0.51539287,914.0,-59.413437,-9.031921,-151.354307,-0.2,0.5,687.0
94.45,-128.324881865,0.51531962,912.5,-58.921902,-9.1484815,-151.3844525,-0.3,0.45,687.0
94.5,-128.32492132,0.51524637,911.0,-58.430367,-9.265042,-151.414598,-0.4,0.4,687.0
94.55,-128.32496249,0.51516793,909.5,-58.0299305,-9.3794135,-151.4191235,-0.55,0.45,687.0
94.6,-128.32500366,0.51508949,908.0,-57.629494,-9.493785,-151.423649,-0.7,0.5,687.0
94.65,-128.32503796499998,0.515023165,906.5,-57.41053,-9.5624625,-151.44555100000002,-0.8,0.5,686.5
94.7,-128.32507227,0.51495684,905.0,-57.191566,-9.63114,-151.467453,-0.9,0.5,686.0
94.75,-128.32511115,0.51488186,903.0,-56.8926445,-9.7486245,-151.5724555,-0.95,0.55,686.0
94.8,-128.32515003,0.51480688,901.0,-56.593723,-9.866109,-151.677458,-1.0,0.6,686.0
94.85,-128.32519005,0.514727865,899.5,-56.4096945,-9.938439,-151.74210349999998,-1.1,0.6,686.0
94.9,-128.32523007,0.51464885,898.0,-56.225666,-10.010769,-151.806749,-1.2,0.6,686.0
94.95,-128.32526208500002,0.51458425,896.5,-56.253584,-10.032746,-152.01079149999998,-1.15,0.6499999999999999,685.5
95.0,-128.3252941,0.51451965,895.0,-56.281502,-10.054723,-152.214834,-1.1,0.7,685.0
95.05,-128.32533355,0.51444179,893.5,-56.3549465,-10.063578,-152.433834,-1.05,0.7,685.0
95.1,-128.325373,0.51436393,892.0,-56.428391,-10.072433,-152.652834,-1.0,0.7,685.0
95.15,-128.325404445,0.514298755,890.5,-56.49597,-10.063549,-152.801307,-1.0,0.7,685.0
95.2,-128.32543589,0.51423358,889.0,-56.563549,-10.054665,-152.94978,-1.0,0.7,685.0
95.25,-128.325477625,0.514148225,887.0,-56.9754755,-9.9078405,-153.56611750000002,-0.85,0.7,685.0
95.3,-128.32551936,0.51406287,885.0,-57.387402,-9.761016,-154.182455,-0.7,0.7,685.0
95.35,-128.32555137,0.51399539,883.5,-57.564877,-9.6977575,-154.448001,-0.6,0.7,685.0
95.4,-128.32558338,0.51392791,882.0,-57.742352,-9.634499,-154.713547,-0.5,0.7,685.0
95.45,-128.325619395,0.513849475,880.5,-58.102303,-9.413617,-155.3856935,-0.35,0.75,684.5
95.5,-128.32565541,0.51377104,879.0,-58.462254,-9.192735,-156.05784,-0.2,0.8,684.0
95.55,-128.325688565,0.51369837,877.0,-58.725094,-9.0212225,-156.5633955,-0.0499999999999999,0.8,683.5
95.6,-128.32572172,0.5136257,875.0,-58.987934,-8.84971,-157.068951,0.1,0.8,683.0
95.65,-128.32574915499998,0.513559955,874.0,-59.1319085,-8.755762,-157.345876,0.25,0.8,683.0
95.7,-128.32577659,0.51349421,873.0,-59.275883,-8.661814,-157.622801,0.4,0.8,683.0
95.75,-128.32581374,0.51340655,871.0,-59.522381,-8.369676,-158.519824,0.55,0.8,682.5
95.8,-128.32585089,0.51331889,869.0,-59.768879,-8.077538,-159.416847,0.7,0.8,682.0
95.85,-128.32587946,0.51324507,867.5,-59.8832435,-7.941996,-159.8330375,0.85,0.8,682.0
95.9,-128.32590803,0.51317125,866.0,-59.997608,-7.806454,-160.249228,1.0,0.8,682.0
95.95,-128.32593717499998,0.5130945499999999,864.5,-60.107624,-7.6168165,-160.867596,1.05,0.8,681.5
96.0,-128.32596632,0.51301785,863.0,-60.21764,-7.427179,-161.485964,1.1,0.8,681.0
96.05,-128.325992035,0.51294865,862.0,-60.289488000000006,-7.2896025,-161.94032199999998,1.1,0.8,681.0
96.1,-128.32601775,0.51287945,861.0,-60.361336,-7.152026,-162.39468,1.1,0.8,681.0
96.15,-128.32604459499998,0.51279814,859.5,-60.415062000000006,-7.0511695,-162.7386075,1.15,0.8,680.5
96.2,-128.32607144,0.51271683,858.0,-60.468788,-6.950313,-163.082535,1.2,0.8,680.0
96.25,-128.326095435,0.512643015,856.5,-60.5517885,-6.809967,-163.64563750000002,1.2,0.8,679.5
96.3,-128.32611943,0.5125692,855.0,-60.634789,-6.669621,-164.20874,1.2,0.8,679.0
96.35,-128.32614627,0.5124827,853.5,-60.68779,-6.57999,-164.5683575,1.2,0.8,678.5
96.4,-128.32617311,0.5123962,852.0,-60.740791,-6.490359,-164.927975,1.2,0.8,678.0
96.45,-128.326197665,0.51231028,851.0,-60.7535935,-6.3774,-165.4334505,1.15,0.8,678.0
96.5,-128.32622222,0.51222436,850.0,-60.766396,-6.264441,-165.938926,1.1,0.8,678.0
96.55,-128.326242775,0.5121505500000001,848.5,-60.7677575,-6.187613499999999,-166.2898295,1.1,0.75,677.5
96.6,-128.32626333,0.51207674,847.0,-60.769119,-6.110786,-166.640733,1.1,0.7,677.0
96.65,-128.326282735,0.511997165,846.0,-60.7520825,-6.0531845,-166.90709950000002,1.1,0.7,676.5
96.7,-128.32630214,0.51191759,845.0,-60.735046,-5.995583,-167.173466,1.1,0.7,676.0
96.75,-128.326319265,0.511849545,844.0,-60.560621,-5.905533,-167.61669,1.1,0.7,676.0
96.8,-128.32633639,0.5117815,843.0,-60.386196,-5.815483,-168.059914,1.1,0.7,676.0
96.85,-128.32635578999998,0.51169674,842.0,-60.270233,-5.7556145,-168.354582,1.05,0.7,675.5
96.9,-128.32637519,0.51161198,841.0,-60.15427,-5.695746,-168.64925,1.0,0.7,675.0
96.95,-128.326394015,0.51152433,839.5,-59.693674,-5.6802410000000005,-168.9233075,0.9,0.6499999999999999,674.5
97.0,-128.32641284,0.51143668,838.0,-59.233078,-5.664736,-169.197365,0.8,0.6,674.0
97.05,-128.32642995499998,0.5113530749999999,837.0,-58.847925,-5.66197,-169.3854045,0.7,0.6,674.0
97.1,-128.32644707,0.51126947,836.0,-58.462772,-5.659204,-169.573444,0.6,0.6,674.0
97.15,-128.32645847,0.511206045,835.0,-58.287464,-5.657945,-169.6590325,0.55,0.55,673.5
97.2,-128.32646987,0.51114262,834.0,-58.112156,-5.656686,-169.744621,0.5,0.5,673.0
97.25,-128.326484695,0.511063625,833.0,-57.40106,-5.784091,-169.8271105,0.3,0.45,673.0
97.3,-128.32649952,0.51098463,832.0,-56.689964,-5.911496,-169.9096,0.1,0.4,673.0
97.35,-128.326514905,0.510894105,831.0,-56.2421895,-5.9917225,-169.961543,-0.1,0.4,672.5
97.4,-128.32653029,0.51080358,830.0,-55.794415,-6.071949,-170.013486,-0.3,0.4,672.0
97.45,-128.32654567999998,0.5107130550000001,828.5,-55.313124,-6.1129825,-170.231968,-0.3,0.4,672.0
97.5,-128.32656107,0.51062253,827.0,-54.831833,-6.154016,-170.45045,-0.3,0.4,672.0
97.55,-128.32657417500002,0.51054238,826.0,-54.4097215,-6.1735015,-170.7014575,-0.3,0.4,671.5
97.6,-128.32658728,0.51046223,825.0,-53.98761,-6.192987,-170.952465,-0.3,0.4,671.0
97.65,-128.3265981,0.51039016,824.5,-53.65342149999999,-6.205265499999999,-171.0958995,-0.3,0.4,670.5
97.7,-128.32660892,0.51031809,824.0,-53.319233,-6.217544,-171.239334,-0.3,0.4,670.0
97.75,-128.326622585,0.5102252599999999,822.5,-51.9419785,-6.2467385,-171.45454,-0.35,0.35,669.5
97.8,-128.32663625,0.51013243,821.0,-50.564724,-6.275933,-171.669746,-0.4,0.3,669.0
97.85,-128.3266465,0.51005978,820.0,-49.93145,-6.289357000000001,-171.76870050000002,-0.45,0.25,669.0
97.9,-128.32665675,0.50998713,819.0,-49.298176,-6.302781,-171.867655,-0.5,0.2,669.0
97.95,-128.326668135,0.5099018,818.0,-47.7422085,-6.4295975,-171.988902,-0.55,0.2,668.0
98.0,-128.32667952,0.50981647,817.0,-46.186241,-6.556414,-172.110149,-0.6,0.2,667.0
98.05,-128.326688055,0.50974901,816.0,-45.120489000000006,-6.651514000000001,-172.1824965,-0.6499999999999999,0.15,667.0
98.1,-128.32669659,0.50968155,815.0,-44.054737,-6.746614,-172.254844,-0.7,0.1,667.0
98.15,-128.3267074,0.5095950650000001,814.0,-43.1057435,-6.8270245,-172.320979,-0.8,0.1,666.0
98.2,-128.32671821,0.50950858,813.0,-42.15675,-6.907435,-172.387114,-0.9,0.1,665.0
98.25,-128.32672788,0.5094324699999999,812.0,-40.0526965,-7.0551105,-172.546021,-0.9,0.05,664.5
98.3,-128.32673755,0.50935636,811.0,-37.948643,-7.202786,-172.704928,-0.9,-0.0,664.0
98.35,-128.326747785,0.5092692999999999,810.0,-36.507946,-7.303903,-172.8137355,-0.95,-0.05,663.5
98.4,-128.32675802,0.50918224,809.0,-35.067249,-7.40502,-172.922543,-1.0,-0.1,663.0
98.45,-128.32676712,0.50910325,808.0,-32.745157,-7.494056,-173.0986365,-1.05,-0.15,662.5
98.5,-128.32677622,0.50902426,807.0,-30.423065,-7.583092,-173.27473,-1.1,-0.2,662.0
98.55,-128.32678532,0.508947575,806.0,-28.5696905,-7.645574,-173.4153625,-1.1,-0.25,661.5
98.6,-128.32679442,0.50887089,805.0,-26.716316,-7.708056,-173.555995,-1.1,-0.3,661.0
98.65,-128.326804085,0.508783255,803.5,-24.8311015,-7.749336,-173.684044,-1.1,-0.35,660.5
98.7,-128.32681375,0.50869562,802.0,-22.945887,-7.790616,-173.812093,-1.1,-0.4,660.0
98.75,-128.326822275,0.50862009,801.0,-20.390502,-7.816190000000001,-173.96520750000002,-1.1,-0.4,659.0
98.8,-128.3268308,0.50854456,800.0,-17.835117,-7.841764,-174.118322,-1.1,-0.4,658.0
98.85,-128.326838755,0.5084696049999999,799.0,-16.339423,-7.856733,-174.207942,-1.1,-0.45,657.5
98.9,-128.32684671,0.50839465,798.0,-14.843729,-7.871702,-174.297562,-1.1,-0.5,657.0
98.95,-128.326856375,0.508306435,797.0,-12.083686,-7.873396,-174.41948200000002,-1.1,-0.6,656.0
99.0,-128.32686604,0.50821822,796.0,-9.323643,-7.87509,-174.541402,-1.1,-0.7,655.0
99.05,-128.326873995,0.50814442,795.0,-7.249137,-7.872376,-174.6263555,-1.1,-0.75,654.0
99.1,-128.32688195,0.50807062,794.0,-5.174631,-7.869662,-174.711309,-1.1,-0.8,653.0
99.15,-128.326890475,0.507987595,793.0,-3.398628,-7.863587499999999,-174.77540399999998,-1.15,-0.8,652.0
99.2,-128.326899,0.50790457,792.0,-1.622625,-7.857513,-174.839499,-1.2,-0.8,651.0
99.25,-128.326906385,0.5078330799999999,791.0,1.4828805,-7.831404,-174.91591,-1.2,-0.8,650.5
99.3,-128.32691377,0.50776159,790.0,4.588386,-7.805295,-174.992321,-1.2,-0.8,650.0
99.35,-128.32692286,0.507676255,788.5,6.588185,-7.788482500000001,-175.041527,-1.2,-0.8500000000000001,649.0
99.4,-128.32693195,0.50759092,787.0,8.587984,-7.77167,-175.090733,-1.2,-0.9,648.0
99.45,-128.326939905,0.507514815,786.0,11.5844,-7.7042945,-175.1058635,-1.2,-0.9,647.0
99.5,-128.32694786,0.50743871,785.0,14.580816,-7.636919,-175.120994,-1.2,-0.9,646.0
99.55,-128.32695525,0.507370675,784.0,16.836563,-7.5818025,-175.1262795,-1.15,-0.95,645.5
99.6,-128.32696264,0.50730264,783.0,19.09231,-7.526686,-175.131565,-1.1,-1.0,645.0
99.65,-128.326972305,0.50721558,782.0,21.3889645,-7.447782999999999,-175.092033,-1.1,-1.05,644.0
99.7,-128.32698197,0.50712852,781.0,23.685619,-7.36888,-175.052501,-1.1,-1.1,643.0
99.75,-128.326989925,0.507054145,780.0,26.91707,-7.2050505000000005,-174.892795,-1.1,-1.15,642.0
99.8,-128.32699788,0.50697977,779.0,30.148521,-7.041221,-174.733089,-1.1,-1.2,641.0
99.85,-128.32700755,0.506896745,778.0,32.2638835,-6.933975,-174.628543,-1.05,-1.25,640.0
99.9,-128.32701722,0.50681372,777.0,34.379246,-6.826729,-174.523997,-1.0,-1.3,639.0
99.95,-128.32702575,0.506742225,776.0,37.227835,-6.470394000000001,-173.931443,-0.8,-1.3,638.0
100.0,-128.32703428,0.50667073,775.0,40.076424,-6.114059,-173.338889,-0.6,-1.3,637.0
100.05,-128.32704395,0.5065911649999999,774.0,42.831068,-5.7312975,-172.6844875,-0.3,-1.35,636.5
100.1,-128.32705362,0.5065116,773.0,45.585712,-5.348536,-172.030086,-0.0,-1.4,636.0
100.15,-128.32706501,0.506434915,772.0,47.505653,-5.0666075,-171.46763700000002,0.15,-1.5,634.5
100.2,-128.3270764,0.50635823,771.0,49.425594,-4.784679,-170.905188,0.3,-1.6,633.0
100.25,-128.32708836,0.506277505,770.0,52.5071865,-4.291923,-169.719922,0.6499999999999999,-1.65,632.0
100.3,-128.32710032,0.50619678,769.0,55.588779,-3.799167,-168.534656,1.0,-1.7,631.0
100.35,-128.327112865,0.50612932,768.0,57.1215225,-3.5540770000000004,-167.945121,1.25,-1.75,630.0
100.4,-128.32712541,0.50606186,767.0,58.654266,-3.308987,-167.355586,1.5,-1.8,629.0
100.45,-128.32714138,0.50597998,766.0,61.070938,-3.04418,-165.95941449999998,1.8,-1.8,628.0
100.5,-128.32715735,0.5058981,765.0,63.48761,-2.779373,-164.563243,2.1,-1.8,627.0
100.55,-128.327171035,0.50583064,764.5,65.197239,-2.6148480000000003,-163.48803650000002,2.4000000000000004,-1.8,626.0
100.6,-128.32718472,0.50576318,764.0,66.906868,-2.450323,-162.41283,2.7,-1.8,625.0
100.65,-128.32720299,0.50569398,763.5,67.9849015,-2.359101,-161.67416,2.85,-1.75,623.5
100.7,-128.32722126,0.50562478,763.0,69.062935,-2.267879,-160.93549,3.0,-1.7,622.0
100.75,-128.32724295999998,0.505545205,762.0,70.73413099999999,-2.2691990000000004,-159.098649,3.3,-1.6,621.0
100.8,-128.32726466,0.50546563,761.0,72.405327,-2.270519,-157.261808,3.6,-1.5,620.0
100.85,-128.32728808000002,0.5053929699999999,760.5,73.26883699999999,-2.271201,-156.3127075,3.8,-1.4,618.5
100.9,-128.3273115,0.50532031,760.0,74.132347,-2.271883,-155.363607,4.0,-1.3,617.0
100.95,-128.32733835,0.5052453450000001,759.0,75.089485,-2.390699,-153.87503900000002,4.2,-1.15,615.5
101.0,-128.3273652,0.50517038,758.0,76.046623,-2.509515,-152.386471,4.4,-1.0,614.0
101.05,-128.327389775,0.50510521,757.5,76.719097,-2.6195685,-151.24235149999998,4.6,-0.85,613.0
101.1,-128.32741435,0.50504004,757.0,77.391571,-2.729622,-150.098232,4.8,-0.7,612.0
101.15,-128.327447505,0.5049679499999999,756.5,77.9473345,-2.8421335,-149.0884255,4.949999999999999,-0.6,610.0
101.2,-128.32748066,0.50489586,756.0,78.503098,-2.954645,-148.078619,5.1,-0.5,608.0
101.25,-128.32750753,0.504837035,755.0,79.10737649999999,-3.1269775,-146.831609,5.199999999999999,-0.45,607.0
101.3,-128.3275344,0.50477821,754.0,79.711655,-3.29931,-145.584599,5.3,-0.4,606.0
101.35,-128.327571565,0.50470842,753.5,80.116192,-3.414679,-144.7497865,5.35,-0.35,604.5
101.4,-128.32760873,0.50463863,753.0,80.520729,-3.530048,-143.914974,5.4,-0.3,603.0
101.45,-128.32764304,0.504578645,752.5,80.99385050000001,-3.678462,-142.84666049999998,5.4,-0.3,602.0
101.5,-128.32767735,0.50451866,752.0,81.466972,-3.826876,-141.778347,5.4,-0.3,601.0
101.55,-128.32770822999998,0.504464445,751.5,81.828373,-3.9421095,-140.949581,5.35,-0.25,600.0
101.6,-128.32773911,0.50441023,751.0,82.189774,-4.057343,-140.120815,5.3,-0.2,599.0
101.65,-128.32778544500002,0.50434274,750.0,82.504723,-4.162438,-139.3454645,5.3,-0.25,597.5
101.7,-128.32783178,0.50427525,749.0,82.819672,-4.267533,-138.570114,5.3,-0.3,596.0
101.75,-128.32787467999998,0.5042135249999999,748.0,83.2215805,-4.420949500000001,-137.361324,5.25,-0.3,594.5
101.8,-128.32791758,0.5041518,747.0,83.623489,-4.574366,-136.152534,5.2,-0.3,593.0
101.85,-128.32795991,0.504097,746.5,83.83094750000001,-4.6535535,-135.5286045,5.2,-0.3,592.0
101.9,-128.32800224,0.5040422,746.0,84.038406,-4.732741,-134.904675,5.2,-0.3,591.0
101.95,-128.32804457499998,0.5039897,745.0,84.262512,-4.8600785,-133.9537775,5.2,-0.3,590.0
102.0,-128.32808691,0.5039372,744.0,84.486618,-4.987416,-133.00288,5.2,-0.3,589.0
102.05,-128.32813268,0.5038818199999999,743.5,84.679512,-5.1103435,-132.096142,5.15,-0.3,588.0
102.1,-128.32817845,0.50382644,743.0,84.872406,-5.233271,-131.189404,5.1,-0.3,587.0
102.15,-128.32822651499998,0.50377624,742.0,84.98172,-5.3110445,-130.6250115,5.1,-0.3,585.5
102.2,-128.32827458,0.50372604,741.0,85.091034,-5.388818,-130.060619,5.1,-0.3,584.0
102.25,-128.328328935,0.5036689249999999,740.0,85.245083,-5.57241,-128.8042505,5.05,-0.35,583.0
102.3,-128.32838329,0.50361181,739.0,85.399132,-5.756002,-127.547882,5.0,-0.4,582.0
102.35,-128.32843136,0.5035662249999999,738.0,85.4716225,-5.8423985,-126.9566495,5.0,-0.4,581.0
102.4,-128.32847943,0.50352064,737.0,85.544113,-5.928795,-126.365417,5.0,-0.4,580.0
102.45,-128.32853036,0.503474475,736.0,85.6117895,-6.083933,-125.2802845,5.0,-0.4,579.0
102.5,-128.32858129,0.50342831,735.0,85.679466,-6.239071,-124.195152,5.0,-0.4,578.0
102.55,-128.32864023,0.503376375,734.0,85.7342185,-6.386491,-123.16041,5.05,-0.45,577.0
102.6,-128.32869917,0.50332444,733.0,85.788971,-6.533911,-122.125668,5.1,-0.5,576.0
102.65,-128.32875067999998,0.503285195,732.0,85.8150675,-6.615816,-121.547974,5.15,-0.5,574.5
102.7,-128.32880219,0.50324595,731.0,85.841164,-6.697721,-120.97028,5.2,-0.5,573.0
102.75,-128.32885598500002,0.5032044,730.0,85.85975300000001,-6.9004415,-119.510582,5.300000000000001,-0.45,572.0
102.8,-128.32890978,0.50316285,729.0,85.878342,-7.103162,-118.050884,5.4,-0.4,571.0
102.85,-128.328963585,0.5031259100000001,728.0,85.887947,-7.2079705,-117.2962055,5.5,-0.4,570.0
102.9,-128.32901739,0.50308897,727.0,85.897552,-7.312779,-116.541527,5.6,-0.4,569.0
102.95,-128.32907863,0.50304914,726.0,85.9173275,-7.5060795,-115.2098465,5.699999999999999,-0.35,567.5
103.0,-128.32913987,0.50300931,725.0,85.937103,-7.69938,-113.878166,5.8,-0.3,566.0
103.05,-128.329191955,0.50297583,724.0,85.9509925,-7.8328925,-112.965229,5.9,-0.3,565.5
103.1,-128.32924404,0.50294235,723.0,85.964882,-7.966405,-112.052292,6.0,-0.3,565.0
103.15,-128.329312735,0.502905395,721.5,85.9805755,-8.0962575,-111.185238,6.05,-0.3,563.5
103.2,-128.32938143,0.50286844,720.0,85.996269,-8.22611,-110.318184,6.1,-0.3,562.0
103.25,-128.329434665,0.502840145,719.0,86.0241315,-8.413527,-109.1166575,6.15,-0.3,561.0
103.3,-128.3294879,0.50281185,718.0,86.051994,-8.600944,-107.915131,6.2,-0.3,560.0
103.35,-128.32954457,0.50278471,716.5,86.06908,-8.7158,-107.178795,6.2,-0.3,559.0
103.4,-128.32960124,0.50275757,715.0,86.086166,-8.830656,-106.442459,6.2,-0.3,558.0
103.45,-128.32967051,0.502727535,713.5,86.111919,-9.0347165,-105.174858,6.2,-0.3,556.5
103.5,-128.32973978,0.5026975,712.0,86.137672,-9.238777,-103.907257,6.2,-0.3,555.0
103.55,-128.329797025,0.50267324,711.0,86.15516249999999,-9.3826885,-103.019264,6.2,-0.3,554.5
103.6,-128.32985427,0.50264898,710.0,86.172653,-9.5266,-102.131271,6.2,-0.3,554.0
103.65,-128.32992468999998,0.502625285,708.5,86.18638999999999,-9.6652405,-101.2905385,6.25,-0.3,552.5
103.7,-128.32999511,0.50260159,707.0,86.200127,-9.803881,-100.449806,6.3,-0.3,551.0
103.75,-128.330050645,0.5025830950000001,705.5,86.21144899999999,-10.0003395,-99.2969815,6.35,-0.3,550.0
103.8,-128.33010618,0.5025646,704.0,86.222771,-10.196798,-98.144157,6.4,-0.3,549.0
103.85,-128.33017545500002,0.50254552,702.5,86.23042699999999,-10.329609,-97.3648105,6.45,-0.3,548.0
103.9,-128.33024473,0.50252644,701.0,86.238083,-10.46242,-96.585464,6.5,-0.3,547.0
103.95,-128.330300845,0.502512555,700.0,86.243,-10.649654,-95.58979,6.5,-0.3,546.5
104.0,-128.33035696,0.50249867,699.0,86.247917,-10.836888,-94.594116,6.5,-0.3,546.0
104.05,-128.33041593000002,0.50248421,697.5,86.25135800000001,-10.988716,-93.7963715,6.5,-0.3,545.0
104.1,-128.3304749,0.50246975,696.0,86.254799,-11.140544,-92.998627,6.5,-0.3,544.0
104.15,-128.33054533,0.50245816,694.0,86.2567635,-11.266007,-92.3664855,6.45,-0.3,543.0
104.2,-128.33061576,0.50244657,692.0,86.258728,-11.39147,-91.734344,6.4,-0.3,542.0
104.25,-128.33067302,0.5024373,691.0,86.2583465,-11.5957365,-90.817146,6.300000000000001,-0.3,541.5
104.3,-128.33073028,0.50242803,690.0,86.257965,-11.800003,-89.899948,6.2,-0.3,541.0
104.35,-128.330801285,0.5024199,688.0,86.2577055,-11.937702,-89.2816545,6.25,-0.3,540.0
104.4,-128.33087229,0.50241177,686.0,86.257446,-12.075401,-88.663361,6.3,-0.3,539.0
104.45,-128.33093413,0.502405955,684.5,86.222763,-12.2674045,-87.847317,6.4,-0.3,538.5
104.5,-128.33099597,0.50240014,683.0,86.18808,-12.459408,-87.031273,6.5,-0.3,538.0
104.55,-128.33106297,0.50239547,681.0,86.1536715,-12.6245435,-86.33556,6.5,-0.3,537.0
104.6,-128.33112997,0.5023908,679.0,86.119263,-12.789679,-85.639847,6.5,-0.3,536.0
104.65,-128.33118781000002,0.5023896,677.5,86.09991099999999,-12.8849005,-85.2416535,5.8,-0.35,535.0
104.7,-128.33124565,0.5023884,676.0,86.080559,-12.980122,-84.84346,5.1,-0.4,534.0
104.75,-128.33130405999998,0.5023872,674.0,86.0429995,-13.1881155,-84.0023955,4.35,-0.4,533.5
104.8,-128.33136247,0.502386,672.0,86.00544,-13.396109,-83.161331,3.6,-0.4,533.0
104.85,-128.33142833,0.5023871,670.5,85.981556,-13.528389,-82.626423,3.3,-0.4,532.5
104.9,-128.33149419,0.5023882,669.0,85.957672,-13.660669,-82.091515,3.0,-0.4,532.0
104.95,-128.33155375,0.50239103,667.0,85.90829450000001,-13.8238035,-81.4249345,3.2,-0.4,531.5
105.0,-128.33161331,0.50239386,665.0,85.858917,-13.986938,-80.758354,3.4,-0.4,531.0
105.05,-128.331678595,0.5023972649999999,663.0,85.8047025,-14.148831,-80.0950505,3.65,-0.4,530.5
105.1,-128.33174388,0.50240067,661.0,85.750488,-14.310724,-79.431747,3.9,-0.4,530.0
105.15,-128.33180459,0.502406965,659.0,85.70311699999999,-14.416115,-79.0023725,3.85,-0.4,529.5
105.2,-128.3318653,0.50241326,657.0,85.655746,-14.521506,-78.572998,3.8,-0.4,529.0
105.25,-128.33193116,0.502420125,655.0,85.505966,-14.7246695,-77.75709549999999,3.8,-0.45,528.5
105.3,-128.33199702,0.50242699,653.0,85.356186,-14.927833,-76.941193,3.8,-0.5,528.0
105.35,-128.33206002,0.50243616,651.0,85.2763975,-15.0360485,-76.506592,3.75,-0.5,527.5
105.4,-128.33212302,0.50244533,649.0,85.196609,-15.144264,-76.071991,3.7,-0.5,527.0
105.45,-128.332175715,0.502453935,647.5,85.0198705,-15.289441,-75.4746935,3.7,-0.45,526.5
105.5,-128.33222841,0.50246254,646.0,84.843132,-15.434618,-74.877396,3.7,-0.4,526.0
105.55,-128.33229312999998,0.5024734399999999,643.5,84.650135,-15.5826925,-74.2655795,3.65,-0.4,525.5
105.6,-128.33235785,0.50248434,641.0,84.457138,-15.730767,-73.653763,3.6,-0.4,525.0
105.65,-128.33240940000002,0.502495825,639.5,84.362709,-15.8032135,-73.3544275,3.55,-0.4,524.5
105.7,-128.33246095,0.50250731,638.0,84.26828,-15.87566,-73.055092,3.5,-0.4,524.0
105.75,-128.3325251,0.50252167,635.5,83.88250350000001,-16.0759495,-72.20355599999999,3.4,-0.4,523.5
105.8,-128.33258925,0.50253603,633.0,83.496727,-16.276239,-71.35202,3.3,-0.4,523.0
105.85,-128.332644235,0.50254982,631.0,83.3114015,-16.3724565,-70.9429475,3.3,-0.4,522.5
105.9,-128.33269922,0.50256361,629.0,83.126076,-16.468674,-70.533875,3.3,-0.4,522.0
105.95,-128.33276108500002,0.502580855,627.0,82.6690065,-16.61864,-69.9857945,3.25,-0.4,521.5
106.0,-128.33282295,0.5025981,625.0,82.211937,-16.768606,-69.437714,3.2,-0.4,521.0
106.05,-128.332877365,0.502613045,622.5,81.829994,-16.8838035,-69.033108,3.1500000000000004,-0.4,521.0
106.1,-128.33293178,0.50262799,620.0,81.448051,-16.999001,-68.628502,3.1,-0.4,521.0
106.15,-128.33299307,0.50264812,618.0,81.0602835,-17.098883999999998,-68.3132555,3.0,-0.35,520.5
106.2,-128.33305436,0.50266825,616.0,80.672516,-17.198767,-67.998009,2.9,-0.3,520.0
106.25,-128.333112215,0.5026872250000001,613.5,79.875332,-17.354992,-67.62484,2.75,-0.3,519.5
106.3,-128.33317007,0.5027062,611.0,79.078148,-17.511217,-67.251671,2.6,-0.3,519.0
106.35,-128.33322964500002,0.5027269050000001,608.5,78.590603,-17.606762,-67.02344500000001,2.5,-0.25,519.0
106.4,-128.33328922,0.50274761,606.0,78.103058,-17.702307,-66.795219,2.4,-0.2,519.0
106.45,-128.33333505000002,0.5027648650000001,604.5,77.33700200000001,-17.8022175,-66.522789,2.35,-0.2,518.5
106.5,-128.33338088,0.50278212,603.0,76.570946,-17.902128,-66.250359,2.3,-0.2,518.0
106.55,-128.33344332,0.5028057100000001,600.0,75.574276,-18.02077,-65.915379,2.25,-0.2,518.0
106.6,-128.33350576,0.5028293,597.0,74.577606,-18.139412,-65.580399,2.2,-0.2,518.0
106.65,-128.333557315,0.502850585,595.0,74.02936550000001,-18.196931,-65.390919,2.1,-0.15,518.0
106.7,-128.33360887,0.50287187,593.0,73.481125,-18.25445,-65.201439,2.0,-0.1,518.0
106.75,-128.33366673,0.50289546,590.5,72.18065250000001,-18.327243,-64.709076,1.95,-0.1,517.5
106.8,-128.33372459,0.50291905,588.0,70.88018,-18.400036,-64.216713,1.9,-0.1,517.0
106.85,-128.33378245,0.50294437,585.5,70.1569595,-18.4405185,-63.9429015,1.9,-0.1,517.0
106.9,-128.33384031,0.50296969,583.0,69.433739,-18.481001,-63.66909,1.9,-0.1,517.0
106.95,-128.33388442,0.502989255,581.0,68.5019265,-18.4885065,-63.300537,1.85,-0.05,517.0
107.0,-128.33392853,0.50300882,579.0,67.570114,-18.496012,-62.931984,1.8,-0.0,517.0
107.05,-128.33399441,0.50303874,576.0,66.38535300000001,-18.4956645,-62.459896,1.8,0.0,516.5
107.1,-128.33406029,0.50306866,573.0,65.200592,-18.495317,-61.987808,1.8,-0.0,516.0
107.15,-128.33410784,0.50309168,571.0,64.5171565,-18.484965000000003,-61.7169265,1.8,0.0,516.0
107.2,-128.33415539,0.5031147,569.0,63.833721,-18.474613,-61.446045,1.8,0.0,516.0
107.25,-128.33421039,0.503141755,566.5,62.4174215,-18.413578,-60.890343,1.85,0.0,516.0
107.3,-128.33426539,0.50316881,564.0,61.001122,-18.352543,-60.334641,1.9,0.0,516.0
107.35,-128.33431466000002,0.503194135,562.0,60.3085195,-18.322695,-60.0628895,1.9,0.0,516.0
107.4,-128.33436393,0.50321946,560.0,59.615917,-18.292847,-59.791138,1.9,0.0,516.0
107.45,-128.33442294,0.50325054,557.0,58.477394,-18.168111,-59.245388,2.0,0.0,516.0
107.5,-128.33448195,0.50328162,554.0,57.338871,-18.043375,-58.699638,2.1,0.0,516.0
107.55,-128.33453294,0.50330925,552.0,56.5184385,-17.941715000000002,-58.2909505,2.2,0.0,516.0
107.6,-128.33458393,0.50333688,550.0,55.698006,-17.840055,-57.882263,2.3,0.0,516.0
107.65,-128.334633775,0.50336509,547.5,55.1323225,-17.752876999999998,-57.57827,2.35,0.05,516.0
107.7,-128.33468362,0.5033933,545.0,54.566639,-17.665699,-57.274277,2.4,0.1,516.0
107.75,-128.334737475,0.50342496,542.5,53.676224000000005,-17.444525499999997,-56.686642,2.45,0.1,516.0
107.8,-128.33479133,0.50345662,540.0,52.785809,-17.223352,-56.099007,2.5,0.1,516.0
107.85,-128.334844615,0.503488285,537.5,52.286421,-17.099307,-55.769436,2.6,0.15,516.0
107.9,-128.3348979,0.50351995,535.0,51.787033,-16.975262,-55.439865,2.7,0.2,516.0
107.95,-128.33493915,0.50354586,533.5,51.042484,-16.824718500000003,-55.0812685,2.75,0.2,516.0
108.0,-128.3349804,0.50357177,532.0,50.297935,-16.674175,-54.722672,2.8,0.2,516.0
108.05,-128.335034835,0.503605735,529.5,49.470558,-16.5127265,-54.3467295,2.8,0.2,516.0
108.1,-128.33508927,0.5036397,527.0,48.643181,-16.351278,-53.970787,2.8,0.2,516.0
108.15,-128.335138545,0.5036731,524.5,48.1617125,-16.270692500000003,-53.7743185,2.75,0.2,516.0
108.2,-128.33518782,0.5037065,522.0,47.680244,-16.190107,-53.57785,2.7,0.2,516.0
108.25,-128.335240535,0.50374162,520.0,46.4432295,-16.1245125,-53.309063,2.6,0.25,516.5
108.3,-128.33529325,0.50377674,518.0,45.206215,-16.058918,-53.040276,2.5,0.3,517.0
108.35,-128.33533565,0.50380611,516.0,44.623394000000005,-16.028011499999998,-52.9136315,2.4,0.3,517.0
108.4,-128.33537805,0.50383548,514.0,44.040573,-15.997105,-52.786987,2.3,0.3,517.0
108.45,-128.33543191,0.503873485,511.5,42.900852,-15.980239,-52.5892065,2.2,0.35,517.5
108.5,-128.33548577,0.50391149,509.0,41.761131,-15.963373,-52.391426,2.1,0.4,518.0
108.55,-128.33553103999998,0.503943735,507.0,40.9312935,-15.9578405,-52.255142000000006,1.95,0.45,518.0
108.6,-128.33557631,0.50397598,505.0,40.101456,-15.952308,-52.118858,1.8,0.5,518.0
108.65,-128.335625585,0.50401226,503.0,39.490517,-15.937696,-52.008495,1.7000000000000002,0.5,518.0
108.7,-128.33567486,0.50404854,501.0,38.879578,-15.923084,-51.898132,1.6,0.5,518.0
108.75,-128.33572471500003,0.5040853949999999,499.0,37.718361,-15.8087405,-51.6059035,1.55,0.5,518.5
108.8,-128.33577457,0.50412225,497.0,36.557144,-15.694397,-51.313675,1.5,0.5,519.0
108.85,-128.335819265,0.504156225,495.0,36.1520135,-15.6545045,-51.211731,1.5,0.5,519.0
108.9,-128.33586396,0.5041902,493.0,35.746883,-15.614612,-51.109787,1.5,0.5,519.0
108.95,-128.33591095,0.504225905,491.0,35.199625,-15.451993,-50.8796615,1.5,0.45,519.0
109.0,-128.33595794,0.50426161,489.0,34.652367,-15.289374,-50.649536,1.5,0.4,519.0
109.05,-128.33601696,0.5043071050000001,486.5,34.1300355,-15.096442,-50.3978345,1.6,0.35,519.5
109.1,-128.33607598,0.5043526,484.0,33.607704,-14.90351,-50.146133,1.7,0.3,520.0
109.15,-128.33610635000002,0.504376785,482.5,33.4226835,-14.8351695,-50.0569685,1.7,0.3,520.0
109.2,-128.33613672,0.50440097,481.0,33.237663,-14.766829,-49.967804,1.7,0.3,520.0
109.25,-128.33619173,0.50444474,479.0,32.8770655,-14.539988,-49.700004500000006,1.75,0.25,520.0
109.3,-128.33624674,0.50448851,477.0,32.516468,-14.313147,-49.432205,1.8,0.2,520.0
109.35,-128.33629831500002,0.5045311299999999,474.5,32.3218935,-14.190748500000002,-49.287712,1.8,0.2,520.0
109.4,-128.33634989,0.50457375,472.0,32.127319,-14.06835,-49.143219,1.8,0.2,520.0
109.45,-128.336392295,0.50460888,470.5,31.857291,-14.048084,-49.0414045,1.7000000000000002,0.2,520.0
109.5,-128.3364347,0.50464401,469.0,31.587263,-14.027818,-48.93959,1.6,0.2,520.0
109.55,-128.33648284,0.5046837500000001,467.0,31.3552825,-14.0297895,-48.864906000000005,1.4500000000000002,0.2,520.5
109.6,-128.33653098,0.50472349,465.0,31.123302,-14.031761,-48.790222,1.3,0.2,521.0
109.65,-128.33657797,0.50476323,463.0,30.951622,-14.050517,-48.7447355,1.2000000000000002,0.25,521.0
109.7,-128.33662496,0.50480297,461.0,30.779942,-14.069273,-48.699249,1.1,0.3,521.0
109.75,-128.33667882999998,0.504849045,459.0,30.2564985,-14.272501,-48.643020500000006,0.95,0.35,521.0
109.8,-128.3367327,0.50489512,457.0,29.733055,-14.475729,-48.586792,0.8,0.4,521.0
