Time,Longitude,Latitude,Altitude,Roll,Pitch,Yaw,AOA,AOS,TAS
9.85,-128.218329225,0.51763264,2329.0,91.541702,0.492226,160.01658600000002,-0.35,-1.1,433.5
9.9,-128.21831143,0.51758422,2329.0,91.244415,0.325351,160.235443,-0.3,-1.1,434.0
9.95,-128.21829191,0.51753119,2329.0,90.7112465,0.0368835,160.6631925,-0.2,-1.1,434.5
10.0,-128.21827239,0.51747816,2329.0,90.178078,-0.251584,161.090942,-0.1,-1.1,435.0
10.05,-128.218261485,0.51744876,2328.5,89.84356700000001,-0.4318695,161.361557,-0.05,-1.1,435.0
10.1,-128.21825058,0.51741936,2328.0,89.509056,-0.612155,161.632172,0.0,-1.1,435.0
10.15,-128.21822991,0.517358835,2328.0,89.21921549999999,-0.7733745000000001,161.876984,0.1,-1.1,435.5
10.2,-128.21820924,0.51729831,2328.0,88.929375,-0.934594,162.121796,0.2,-1.1,436.0
10.25,-128.21819718,0.517261995,2328.0,88.50880849999999,-1.1966305,162.535004,0.25,-1.1,436.0
10.3,-128.21818512,0.51722568,2328.0,88.088242,-1.458667,162.948212,0.3,-1.1,436.0
10.35,-128.218161005,0.5171518900000001,2327.5,87.78015149999999,-1.6506235,163.2509005,0.35,-1.1,436.5
10.4,-128.21813689,0.5170781,2327.0,87.472061,-1.84258,163.553589,0.4,-1.1,437.0
10.45,-128.21811966,0.51702161,2326.5,87.1408155,-2.088574,163.966812,0.5,-1.1,437.5
10.5,-128.21810243,0.51696512,2326.0,86.80957,-2.334568,164.380035,0.6,-1.1,438.0
10.55,-128.218087495,0.51691554,2325.5,86.583416,-2.507942,164.674194,0.6499999999999999,-1.1,438.5
10.6,-128.21807256,0.51686596,2325.0,86.357262,-2.681316,164.968353,0.7,-1.1,439.0
10.65,-128.218055905,0.516807735,2324.5,86.12822,-2.8704055,165.292038,0.75,-1.1,439.5
10.7,-128.21803925,0.51674951,2324.0,85.899178,-3.059495,165.615723,0.8,-1.1,440.0
10.75,-128.21802546,0.516699935,2323.5,85.66338,-3.268526,165.9763795,0.8500000000000001,-1.1,440.5
10.8,-128.21801167,0.51665036,2323.0,85.427582,-3.477557,166.337036,0.9,-1.1,441.0
10.85,-128.21799903,0.516601935,2322.5,85.292427,-3.597362,166.5437315,0.9,-1.1,441.5
10.9,-128.21798639,0.51655351,2322.0,85.157272,-3.717167,166.750427,0.9,-1.1,442.0
10.95,-128.2179726,0.5164993200000001,2321.5,84.918682,-3.941256,167.1437375,0.9,-1.1,442.5
11.0,-128.21795881,0.51644513,2321.0,84.680092,-4.165345,167.537048,0.9,-1.1,443.0
11.05,-128.217946745,0.5163972800000001,2320.5,84.5094225,-4.327271,167.822067,0.95,-1.1,443.0
11.1,-128.21793468,0.51634943,2320.0,84.338753,-4.489197,168.107086,1.0,-1.1,443.0
11.15,-128.217921455,0.51629178,2319.5,84.1688805,-4.650162,168.3904265,1.0,-1.15,443.5
11.2,-128.21790823,0.51623413,2319.0,83.999008,-4.811127,168.673767,1.0,-1.2,444.0
11.25,-128.217897885,0.51618801,2318.5,83.793396,-5.00564,169.01612849999998,1.0,-1.2,444.5
11.3,-128.21788754,0.51614189,2318.0,83.587784,-5.200153,169.35849,1.0,-1.2,445.0
11.35,-128.21787431500002,0.516080205,2317.0,83.43588650000001,-5.3438545,169.61145,1.0,-1.2,446.0
11.4,-128.21786109,0.51601852,2316.0,83.283989,-5.487556,169.86441,1.0,-1.2,447.0
11.45,-128.21785189000002,0.5159718200000001,2315.5,83.075077,-5.67814,170.1988675,1.0,-1.2,447.0
11.5,-128.21784269,0.51592512,2315.0,82.866165,-5.868724,170.533325,1.0,-1.2,447.0
11.55,-128.21783176,0.51586747,2314.0,82.65921,-6.0565655,170.862808,1.0,-1.2,448.0
11.6,-128.21782083,0.51580982,2313.0,82.452255,-6.244407,171.192291,1.0,-1.2,449.0
11.65,-128.217812195,0.51576139,2312.0,82.3078725,-6.3724855,171.42283600000002,1.05,-1.2,449.5
11.7,-128.21780356,0.51571296,2311.0,82.16349,-6.500564,171.653381,1.1,-1.2,450.0
11.75,-128.217793205,0.5156529999999999,2310.0,81.896057,-6.731154,172.081909,1.1,-1.25,450.5
11.8,-128.21778285,0.51559304,2309.0,81.628624,-6.961744,172.510437,1.1,-1.3,451.0
11.85,-128.21777536,0.515544035,2308.5,81.50480250000001,-7.068511,172.708847,1.1,-1.3,451.5
11.9,-128.21776787,0.51549503,2308.0,81.380981,-7.175278,172.907257,1.1,-1.3,452.0
11.95,-128.217759805,0.515439105,2307.0,81.1374395,-7.369111,173.346939,1.1,-1.25,452.5
12.0,-128.21775174,0.51538318,2306.0,80.893898,-7.562944,173.786621,1.1,-1.2,453.0
12.05,-128.21774483000002,0.51533302,2305.0,80.70382699999999,-7.7118955,174.1368865,1.15,-1.2,453.5
12.1,-128.21773792,0.51528286,2304.0,80.513756,-7.860847,174.487152,1.2,-1.2,454.0
12.15,-128.21773042,0.51522117,2303.0,80.323162,-7.999661,174.857727,1.25,-1.2,454.5
12.2,-128.21772292,0.51515948,2302.0,80.132568,-8.138475,175.228302,1.3,-1.2,455.0
12.25,-128.21771715,0.515108745,2301.0,79.885929,-8.301585,175.738159,1.4,-1.2,456.0
12.3,-128.21771138,0.51505801,2300.0,79.63929,-8.464695,176.248016,1.5,-1.2,457.0
12.35,-128.217705605,0.51499862,2298.5,79.47474700000001,-8.573509000000001,176.588165,1.55,-1.2,457.5
12.4,-128.21769983,0.51493923,2297.0,79.310204,-8.682323,176.928314,1.6,-1.2,458.0
12.45,-128.21769578,0.514888495,2296.0,78.958935,-8.8258785,122.442711,1.65,-1.2,458.5
12.5,-128.21769173,0.51483776,2295.0,78.607666,-8.969434,67.957108,1.7,-1.2,459.0
12.55,-128.21768768,0.514787595,2294.0,78.30801,-9.084598,16.937424000000007,1.7999999999999998,-1.2,459.5
12.6,-128.21768363,0.51473743,2293.0,78.008354,-9.199762,-34.08226,1.9,-1.2,460.0
12.65,-128.217680145,0.51467689,2291.5,77.693329,-9.2976585,-67.56175999999999,1.95,-1.15,460.5
12.7,-128.21767666,0.51461635,2290.0,77.378304,-9.395555,-101.04126,2.0,-1.1,461.0
12.75,-128.21767433,0.514567915,2289.0,76.85067000000001,-9.5125065,-116.2284205,2.1,-1.1,461.5
12.8,-128.217672,0.51451948,2288.0,76.323036,-9.629458,-131.415581,2.2,-1.1,462.0
12.85,-128.217669655,0.5144554800000001,2286.5,75.94620900000001,-9.712985,-142.262063,2.3,-1.05,462.5
12.9,-128.21766731,0.51439148,2285.0,75.569382,-9.796512,-153.108545,2.4,-1.0,463.0
12.95,-128.217666695,0.514337855,2284.0,75.050129,-9.8910975,-157.808542,2.5,-0.95,463.5
13.0,-128.21766608,0.51428423,2283.0,74.530876,-9.985683,-162.508539,2.6,-0.9,464.0
13.05,-128.21766545499997,0.51422426,2281.5,74.097679,-10.06255,-165.40849,2.6500000000000004,-0.8500000000000001,464.5
13.1,-128.21766483,0.51416429,2280.0,73.664482,-10.139417,-168.308441,2.7,-0.8,465.0
13.15,-128.217665935,0.514112975,2279.0,73.3749885,-10.1892345,-169.642494,2.75,-0.8,466.0
13.2,-128.21766704,0.51406166,2278.0,73.085495,-10.239052,-170.976547,2.8,-0.8,467.0
13.25,-128.21766814,0.5140039949999999,2276.5,72.612446,-10.316089,-171.4542595,2.85,-0.8,467.5
13.3,-128.21766924,0.51394633,2275.0,72.139397,-10.393126,-171.931972,2.9,-0.8,468.0
13.35,-128.21767149,0.5138938550000001,2273.5,71.9085505,-10.4307195,-172.165095,2.9,-0.8500000000000001,468.5
13.4,-128.21767374,0.51384138,2272.0,71.677704,-10.468313,-172.398218,2.9,-0.9,469.0
13.45,-128.21767712500002,0.51378199,2270.5,71.284954,-10.5240795,-172.22054150000002,2.9,-0.9,469.5
13.5,-128.21768051,0.5137226,2269.0,70.892204,-10.579846,-172.042865,2.9,-0.9,470.0
13.55,-128.21768447,0.513662625,2267.5,70.5948295,-10.621095,-171.83993800000002,2.9,-0.9,471.0
13.6,-128.21768843,0.51360265,2266.0,70.297455,-10.662344,-171.637011,2.9,-0.9,472.0
13.65,-128.217693545,0.513550755,2265.0,70.087807,-10.690393,-171.4493515,2.9,-0.9,472.0
13.7,-128.21769866,0.51349886,2264.0,69.878159,-10.718442,-171.261692,2.9,-0.9,472.0
13.75,-128.217703765,0.5134406149999999,2262.5,69.504948,-10.7655545,-170.8060115,2.9,-0.9,473.0
13.8,-128.21770887,0.51338237,2261.0,69.131737,-10.812667,-170.350331,2.9,-0.9,474.0
13.85,-128.21771513,0.513331625,2259.5,68.951218,-10.8354545,-170.1299185,2.9,-0.9,474.5
13.9,-128.21772139,0.51328088,2258.0,68.770699,-10.858242,-169.909506,2.9,-0.9,475.0
13.95,-128.21772879000002,0.5132209050000001,2256.5,68.4564135,-10.899920000000002,-169.456701,2.85,-0.9,475.5
14.0,-128.21773619,0.51316093,2255.0,68.142128,-10.941598,-169.003896,2.8,-0.9,476.0
14.05,-128.217743595,0.51310903,2253.5,67.93636699999999,-10.9690785,-168.7007345,2.8,-0.9,477.0
14.1,-128.217751,0.51305713,2252.0,67.730606,-10.996559,-168.397573,2.8,-0.9,478.0
14.15,-128.217757835,0.513014455,2251.0,67.559944,-11.0179225,-168.130499,2.8,-0.95,478.0
14.2,-128.21776467,0.51297178,2250.0,67.389282,-11.039286,-167.863425,2.8,-1.0,478.0
14.25,-128.21777493000002,0.51290719,2248.5,67.066055,-11.0748655,-167.3041735,2.8,-1.0,478.5
14.3,-128.21778519,0.5128426,2247.0,66.742828,-11.110445,-166.744922,2.8,-1.0,479.0
14.35,-128.21779659499998,0.51278147,2245.0,66.5909195,-11.1271665,-166.48208599999998,2.75,-1.0,480.0
14.4,-128.217808,0.51272034,2243.0,66.439011,-11.143888,-166.21925,2.7,-1.0,481.0
14.45,-128.21781941,0.51266382,2241.5,66.21376799999999,-11.162091,-165.739799,2.7,-1.0,481.5
14.5,-128.21783082,0.5126073,2240.0,65.988525,-11.180294,-165.260348,2.7,-1.0,482.0
14.55,-128.21784394,0.512543865,2238.5,65.800453,-11.194746,-164.849852,2.7,-1.0,483.0
14.6,-128.21785706,0.51248043,2237.0,65.612381,-11.209198,-164.439356,2.7,-1.0,484.0
14.65,-128.217868475,0.512430255,2235.5,65.498974,-11.2175775,-164.16286200000002,2.7,-1.0,484.5
14.7,-128.21787989,0.51238008,2234.0,65.385567,-11.225957,-163.886368,2.7,-1.0,485.0
14.75,-128.21789245000002,0.51232875,2232.5,65.209618,-11.238026,-163.376481,2.7,-1.0,485.5
14.8,-128.21790501,0.51227742,2231.0,65.033669,-11.250095,-162.866594,2.7,-1.0,486.0
14.85,-128.21792043,0.5122174399999999,2229.5,64.921017,-11.2578235,-162.540119,2.7,-1.0,486.5
14.9,-128.21793585,0.51215746,2228.0,64.808365,-11.265552,-162.213644,2.7,-1.0,487.0
14.95,-128.21795012500002,0.5121043999999999,2226.5,64.6406365,-11.267902,-161.735798,2.75,-1.0,487.5
15.0,-128.2179644,0.51205134,2225.0,64.472908,-11.270252,-161.257952,2.8,-1.0,488.0
15.05,-128.217982675,0.511986745,2223.0,64.3117675,-11.271198,-160.8000755,2.8,-1.0,489.0
15.1,-128.21800095,0.51192215,2221.0,64.150627,-11.272144,-160.342199,2.8,-1.0,490.0
15.15,-128.218016375,0.51187082,2219.5,64.04146,-11.2731745,-160.057821,2.85,-0.95,490.5
15.2,-128.2180318,0.51181949,2218.0,63.932293,-11.274205,-159.773443,2.9,-0.9,491.0
15.25,-128.21804665000002,0.511771615,2217.0,63.7242735,-11.277244,-159.302881,2.9,-0.9,491.5
15.3,-128.2180615,0.51172374,2216.0,63.516254,-11.280283,-158.832319,2.9,-0.9,492.0
15.35,-128.21808264499998,0.511660875,2214.0,63.365226500000006,-11.282490500000002,-158.4906855,2.9,-0.8500000000000001,492.5
15.4,-128.21810379,0.51159801,2212.0,63.214199,-11.284698,-158.149052,2.9,-0.8,493.0
15.45,-128.218121505,0.511547255,2210.5,63.0634195,-11.319389,-157.79038350000002,2.85,-0.8,493.5
15.5,-128.21813922,0.5114965,2209.0,62.91264,-11.35408,-157.431715,2.8,-0.8,494.0
15.55,-128.218161505,0.511434205,2207.0,62.7760775,-11.390734,-157.104044,2.7,-0.8,495.0
15.6,-128.21818379,0.51137191,2205.0,62.639515,-11.427388,-156.776373,2.6,-0.8,496.0
15.65,-128.21820322500002,0.51132173,2204.0,62.5586165,-11.4495815,-156.5860365,2.6,-0.8,496.5
15.7,-128.21822266,0.51127155,2203.0,62.477718,-11.471775,-156.3957,2.6,-0.8,497.0
15.75,-128.218245525,0.51121214,2201.0,62.272884000000005,-11.532131,-155.94670200000002,2.55,-0.8,497.5
15.8,-128.21826839,0.51115273,2199.0,62.06805,-11.592487,-155.497704,2.5,-0.8,498.0
15.85,-128.21828954,0.51110024,2197.5,61.9701305,-11.6213415,-155.28305949999998,2.4,-0.8,498.5
15.9,-128.21831069,0.51104775,2196.0,61.872211,-11.650196,-155.068415,2.3,-0.8,499.0
15.95,-128.218336415,0.5109871850000001,2194.0,61.6813315,-11.680027,-154.639368,2.3,-0.8,500.0
16.0,-128.21836214,0.51092662,2192.0,61.490452,-11.709858,-154.210321,2.3,-0.8,501.0
16.05,-128.21838558000002,0.510871825,2190.5,61.350674,-11.728817,-153.894961,2.25,-0.75,501.5
16.1,-128.21840902,0.51081703,2189.0,61.210896,-11.747776,-153.579601,2.2,-0.7,502.0
16.15,-128.21843246,0.510766265,2187.5,61.112225,-11.752184,-153.34537,2.2,-0.7,503.0
16.2,-128.2184559,0.5107155,2186.0,61.013554,-11.756592,-153.111139,2.2,-0.7,504.0
16.25,-128.218480485,0.51066128,2184.5,60.8038295,-11.722635,-152.55713550000002,2.25,-0.7,504.5
16.3,-128.21850507,0.51060706,2183.0,60.594105,-11.688678,-152.003132,2.3,-0.7,505.0
16.35,-128.21853252,0.51055053,2181.0,60.4766905,-11.6696665,-151.69297699999998,2.3,-0.7,505.5
16.4,-128.21855997,0.510494,2179.0,60.359276,-11.650655,-151.382822,2.3,-0.7,506.0
16.45,-128.21858456,0.51044439,2177.5,60.2079505,-11.5935025,-150.9030245,2.35,-0.7,506.5
16.5,-128.21860915,0.51039478,2176.0,60.056625,-11.53635,-150.423227,2.4,-0.7,507.0
16.55,-128.218638315,0.5103365200000001,2174.5,59.9216955,-11.481297,-149.98537449999998,2.5,-0.7,507.5
16.6,-128.21866748,0.51027826,2173.0,59.786766,-11.426244,-149.547522,2.6,-0.7,508.0
16.65,-128.21869436,0.5102280699999999,2171.5,59.706691500000005,-11.388707,-149.26468749999998,2.6500000000000004,-0.7,508.5
16.7,-128.21872124,0.51017788,2170.0,59.626617,-11.35117,-148.981853,2.7,-0.7,509.0
16.75,-128.218752695,0.51012077,2168.0,59.489311,-11.2620705,-148.379997,2.7,-0.7,510.0
16.8,-128.21878415,0.51006366,2166.0,59.352005,-11.172971,-147.778141,2.7,-0.7,511.0
16.85,-128.21881102999998,0.51001578,2164.5,59.2878725,-11.1313565,-147.49704150000002,2.75,-0.75,511.5
16.9,-128.21883791,0.5099679,2163.0,59.22374,-11.089742,-147.215942,2.8,-0.8,512.0
16.95,-128.218870515,0.5099125200000001,2161.5,59.141207,-11.014346499999998,-146.694658,2.8,-0.8,512.5
17.0,-128.21890312,0.50985714,2160.0,59.058674,-10.938951,-146.173374,2.8,-0.8,513.0
17.05,-128.21893458,0.509804065,2158.0,59.0021725,-10.884325,-145.794506,2.85,-0.8,514.0
17.1,-128.21896604,0.50975099,2156.0,58.945671,-10.829699,-145.415638,2.9,-0.8,515.0
17.15,-128.21900036,0.509696185,2154.5,58.8955385,-10.7808275,-145.0621185,2.9,-0.8,515.5
17.2,-128.21903468,0.50964138,2153.0,58.845406,-10.731956,-144.708599,2.9,-0.8,516.0
17.25,-128.219063285,0.5095963800000001,2151.5,58.7824005,-10.6698885,-144.236355,2.9,-0.8,516.5
17.3,-128.21909189,0.50955138,2150.0,58.719395,-10.607821,-143.764111,2.9,-0.8,517.0
17.35,-128.219126215,0.50949888,2148.5,58.6784745,-10.56751,-143.45739200000003,2.9,-0.8,517.5
17.4,-128.21916054,0.50944638,2147.0,58.637554,-10.527199,-143.150673,2.9,-0.8,518.0
17.45,-128.21919372,0.5093979200000001,2145.5,58.5812815,-10.474362,-142.7105845,2.9,-0.8,518.5
17.5,-128.2192269,0.50934946,2144.0,58.525009,-10.421525,-142.270496,2.9,-0.8,519.0
17.55,-128.219260655,0.50929984,2142.5,58.4753455,-10.3753295,-141.878965,2.9,-0.8,519.5
17.6,-128.21929441,0.50925022,2141.0,58.425682,-10.329134,-141.487434,2.9,-0.8,520.0
17.65,-128.21933446,0.50919599,2139.5,58.38607,-10.2882125,-141.143381,2.9,-0.8,520.5
17.7,-128.21937451,0.50914176,2138.0,58.346458,-10.247291,-140.799328,2.9,-0.8,521.0
17.75,-128.21940941,0.5090938700000001,2136.5,58.2992685,-10.1892335,-140.3169385,2.9,-0.8,521.5
17.8,-128.21944431,0.50904598,2135.0,58.252079,-10.131176,-139.834549,2.9,-0.8,522.0
17.85,-128.219485505,0.5089923199999999,2133.0,58.2217215,-10.09383,-139.524246,2.9,-0.8,522.5
17.9,-128.2195267,0.50893866,2131.0,58.191364,-10.056484,-139.213943,2.9,-0.8,523.0
17.95,-128.219562175,0.50889308,2129.5,58.1444395,-9.9986025,-138.7609365,2.9,-0.75,523.5
18.0,-128.21959765,0.5088475,2128.0,58.097515,-9.940721,-138.30793,2.9,-0.7,524.0
18.05,-128.219640565,0.50879384,2126.5,58.0527725,-9.8855105,-137.879221,2.9,-0.7,524.5
18.1,-128.21968348,0.50874018,2125.0,58.00803,-9.8303,-137.450512,2.9,-0.7,525.0
18.15,-128.21971896,0.50869806,2123.5,57.983473,-9.800081,-137.222395,2.9,-0.7,525.5
18.2,-128.21975444,0.50865594,2122.0,57.958916,-9.769862,-136.994278,2.9,-0.7,526.0
18.25,-128.21979621,0.508606315,2120.5,57.889538,-9.6852595,-136.41467649999998,2.9,-0.7,526.5
18.3,-128.21983798,0.50855669,2119.0,57.82016,-9.600657,-135.835075,2.9,-0.7,527.0
18.35,-128.21987518,0.50851457,2118.0,57.7814105,-9.5534025,-135.5113465,2.95,-0.7,527.5
18.4,-128.21991238,0.50847245,2117.0,57.742661,-9.506148,-135.187618,3.0,-0.7,528.0
18.45,-128.21995415,0.50842571,2115.5,57.676878,-9.4318565,-134.7335625,3.0,-0.7,528.5
18.5,-128.21999592,0.50837897,2114.0,57.611095,-9.357565,-134.279507,3.0,-0.7,529.0
18.55,-128.220044565,0.50832588,2112.0,57.5505025,-9.2894535,-133.86640749999998,3.0,-0.7,529.5
18.6,-128.22009321,0.50827279,2110.0,57.48991,-9.221342,-133.453308,3.0,-0.7,530.0
18.65,-128.220143,0.508221435,2108.5,57.424652,-9.1584175,-133.0895805,3.0,-0.6499999999999999,530.5
18.7,-128.22019279,0.50817008,2107.0,57.359394,-9.095493,-132.725853,3.0,-0.6,531.0
18.75,-128.220233995,0.50812795,2105.5,57.249994,-9.004950999999998,-132.23242,3.05,-0.6,531.5
18.8,-128.2202752,0.50808582,2104.0,57.140594,-8.914409,-131.738987,3.1,-0.6,532.0
18.85,-128.22031698,0.50804485,2103.0,57.079086,-8.8635035,-131.461567,3.1,-0.6,532.5
18.9,-128.22035876,0.50800388,2102.0,57.017578,-8.812598,-131.184147,3.1,-0.6,533.0
18.95,-128.22041027,0.50795425,2100.5,56.859398,-8.706088,-130.64511299999998,3.05,-0.6,533.5
19.0,-128.22046178,0.50790462,2099.0,56.701218,-8.599578,-130.106079,3.0,-0.6,534.0
19.05,-128.220504705,0.5078642200000001,2097.5,56.5972045,-8.531210999999999,-129.7635705,3.0,-0.6,534.5
19.1,-128.22054763,0.50782382,2096.0,56.493191,-8.462844,-129.421062,3.0,-0.6,535.0
19.15,-128.22059857,0.50777765,2094.5,56.3856815,-8.394028,-129.08824700000002,3.0,-0.55,535.5
19.2,-128.22064951,0.50773148,2093.0,56.278172,-8.325212,-128.755432,3.0,-0.5,536.0
19.25,-128.220692435,0.50769339,2092.0,56.103634,-8.2177015,-128.2634465,3.05,-0.5,536.5
19.3,-128.22073536,0.5076553,2091.0,55.929096,-8.110191,-127.771461,3.1,-0.5,537.0
19.35,-128.220786875,0.507610855,2089.5,55.8142375,-8.0394395,-127.447689,3.1,-0.5,537.5
19.4,-128.22083839,0.50756641,2088.0,55.699379,-7.968688,-127.123917,3.1,-0.5,538.0
19.45,-128.22088304,0.507529475,2087.0,55.5373285,-7.864034,-126.6819535,3.1,-0.5,538.0
19.5,-128.22092769,0.50749254,2086.0,55.375278,-7.75938,-126.23999,3.1,-0.5,538.0
19.55,-128.220981495,0.507448095,2084.5,55.219152,-7.657901000000001,-125.816181,3.1,-0.5,538.5
19.6,-128.2210353,0.50740365,2083.0,55.063026,-7.556422,-125.392372,3.1,-0.5,539.0
19.65,-128.22108567,0.5073643999999999,2081.5,54.957092,-7.484851000000001,-125.102041,3.1,-0.5,539.5
19.7,-128.22113604,0.50732515,2080.0,54.851158,-7.41328,-124.81171,3.1,-0.5,540.0
19.75,-128.22119099,0.507282435,2078.5,54.648695,-7.265812,-124.2459675,3.1500000000000004,-0.5,540.5
19.8,-128.22124594,0.50723972,2077.0,54.446232,-7.118344,-123.680225,3.2,-0.5,541.0
19.85,-128.221293455,0.50720451,2076.0,54.3513205,-7.049215,-123.415018,3.1500000000000004,-0.5,541.0
19.9,-128.22134097,0.5071693,2075.0,54.256409,-6.980086,-123.149811,3.1,-0.5,541.0
19.95,-128.22139878500002,0.5071277350000001,2074.0,54.073109,-6.8350605,-122.6318705,3.1,-0.5,541.5
20.0,-128.2214566,0.50708617,2073.0,53.889809,-6.690035,-122.11393,3.1,-0.5,542.0
20.05,-128.22150869,0.50704865,2071.5,53.766697,-6.591649,-121.7655795,3.1,-0.5,543.0
20.1,-128.22156078,0.50701113,2070.0,53.643585,-6.493263,-121.417229,3.1,-0.5,544.0
20.15,-128.221614595,0.5069753349999999,2069.0,53.53508,-6.403397999999999,-121.1060905,3.1,-0.5,544.0
20.2,-128.22166841,0.50693954,2068.0,53.426575,-6.313533,-120.794952,3.1,-0.5,544.0
20.25,-128.22171993,0.5069049,2067.0,53.262926,-6.1716105,-120.3173805,3.1,-0.5,544.5
20.3,-128.22177145,0.50687026,2066.0,53.099277,-6.029688,-119.839809,3.1,-0.5,545.0
20.35,-128.221825835,0.506835045,2065.0,53.00251,-5.9457665,-119.557411,3.1,-0.5,545.5
20.4,-128.22188022,0.50679983,2064.0,52.905743,-5.861845,-119.275013,3.1,-0.5,546.0
20.45,-128.221941475,0.506761725,2062.5,52.74688,-5.709853,-118.7801745,3.1,-0.5,546.0
20.5,-128.22200273,0.50672362,2061.0,52.588017,-5.557861,-118.285336,3.1,-0.5,546.0
20.55,-128.222056545,0.50669071,2060.0,52.4851535,-5.4581815,-117.962145,3.1,-0.5,546.5
20.6,-128.22211036,0.5066578,2059.0,52.38229,-5.358502,-117.638954,3.1,-0.5,547.0
20.65,-128.22217104499998,0.506622575,2058.0,52.284195,-5.258629,-117.3172265,3.1500000000000004,-0.45,547.5
20.7,-128.22223173,0.50658735,2057.0,52.1861,-5.158756,-116.995499,3.2,-0.4,548.0
20.75,-128.2222844,0.50655675,2056.0,52.059885,-5.0221160000000005,-116.5586855,3.2,-0.35,548.0
20.8,-128.22233707,0.50652615,2055.0,51.93367,-4.885476,-116.121872,3.2,-0.3,548.0
20.85,-128.222401765,0.5064909200000001,2054.0,51.8501205,-4.7950255,-115.8327215,3.2,-0.3,548.5
20.9,-128.22246646,0.50645569,2053.0,51.766571,-4.704575,-115.543571,3.2,-0.3,549.0
20.95,-128.222521995,0.50642624,2052.5,51.637245,-4.576455,-115.1234775,3.1500000000000004,-0.35,549.5
21.0,-128.22257753,0.50639679,2052.0,51.507919,-4.448335,-114.703384,3.1,-0.4,550.0
21.05,-128.22263822,0.506365025,2051.0,51.407814,-4.3498685,-114.3798255,3.05,-0.4,550.5
21.1,-128.22269891,0.50633326,2050.0,51.307709,-4.251402,-114.056267,3.0,-0.4,551.0
21.15,-128.222756165,0.50630496,2049.0,51.230917000000005,-4.181025,-113.814457,3.05,-0.4,551.0
21.2,-128.22281342,0.50627666,2048.0,51.154125,-4.110648,-113.572647,3.1,-0.4,551.0
21.25,-128.22287582500002,0.5062454750000001,2047.0,51.011118,-3.993947,-113.140171,3.1,-0.4,551.0
21.3,-128.22293823,0.50621429,2046.0,50.868111,-3.877246,-112.707695,3.1,-0.4,551.0
21.35,-128.22299377000002,0.506188295,2045.5,50.7987595,-3.8206505,-112.497963,3.05,-0.4,551.5
21.4,-128.22304931,0.5061623,2045.0,50.729408,-3.764055,-112.288231,3.0,-0.4,552.0
21.45,-128.22310943,0.50613515,2044.0,50.5997105,-3.6808175,-111.947136,2.95,-0.4,552.0
21.5,-128.22316955,0.506108,2043.0,50.470013,-3.59758,-111.606041,2.9,-0.4,552.0
21.55,-128.22323654000002,0.506077965,2042.5,50.354353,-3.5261395,-111.308178,2.8,-0.4,552.5
21.6,-128.22330353,0.50604793,2042.0,50.238693,-3.454699,-111.010315,2.7,-0.4,553.0
21.65,-128.223356775,0.5060254,2041.0,50.1755465,-3.418517,-110.851944,2.7,-0.35,553.5
21.7,-128.22341002,0.50600287,2040.0,50.1124,-3.382335,-110.693573,2.7,-0.3,554.0
21.75,-128.22347587,0.505975135,2039.5,49.949976,-3.3211885,-110.3343775,2.7,-0.25,554.5
21.8,-128.22354172,0.5059474,2039.0,49.787552,-3.260042,-109.975182,2.7,-0.2,555.0
21.85,-128.22359783,0.505924295,2038.5,49.7111455,-3.2312785,-109.806221,2.6,-0.15,555.0
21.9,-128.22365394,0.50590119,2038.0,49.634739,-3.202515,-109.63726,2.5,-0.1,555.0
21.95,-128.22372666,0.505872875,2037.0,49.49856200000001,-3.18623,-109.3639675,2.4,-0.1,555.5
22.0,-128.22379938,0.50584456,2036.0,49.362385,-3.169945,-109.090675,2.3,-0.1,556.0
22.05,-128.223857215,0.5058226,2035.5,49.276455,-3.163641,-108.9213825,2.2,-0.1,556.5
22.1,-128.22391505,0.50580064,2035.0,49.190525,-3.157337,-108.75209,2.1,-0.1,557.0
22.15,-128.22398147,0.505775795,2034.5,49.109047,-3.1539965,-108.590694,2.05,-0.1,557.0
22.2,-128.22404789,0.50575095,2034.0,49.027569,-3.150656,-108.429298,2.0,-0.1,557.0
22.25,-128.22410515,0.505730145,2033.0,48.9061435,-3.1523190000000003,-108.1865425,1.95,-0.15,557.0
22.3,-128.22416241,0.50570934,2032.0,48.784718,-3.153982,-107.943787,1.9,-0.2,557.0
22.35,-128.22422768500002,0.5056862200000001,2031.5,48.7070695,-3.1550455,-107.7885555,1.7999999999999998,-0.2,557.5
22.4,-128.22429296,0.5056631,2031.0,48.629421,-3.156109,-107.633324,1.7,-0.2,558.0
22.45,-128.22435423000002,0.505642295,2030.5,48.5061875,-3.134562,-107.375214,1.65,-0.25,558.5
22.5,-128.2244155,0.50562149,2030.0,48.382954,-3.113015,-107.117104,1.6,-0.3,559.0
22.55,-128.224492805,0.50559548,2029.5,48.2678165,-3.089995,-106.874489,1.55,-0.3,559.0
22.6,-128.22457011,0.50556947,2029.0,48.152679,-3.066975,-106.631874,1.5,-0.3,559.0
22.65,-128.22462966,0.50555097,2028.0,48.072088,-3.0400415,-106.4533235,1.55,-0.3,559.5
22.7,-128.22468921,0.50553247,2027.0,47.991497,-3.013108,-106.274773,1.6,-0.3,560.0
22.75,-128.224760215,0.505509925,2026.5,47.8509215,-2.948075,-105.9487535,1.6,-0.25,560.5
22.8,-128.22483122,0.50548738,2026.0,47.710346,-2.883042,-105.622734,1.6,-0.2,561.0
22.85,-128.22488333,0.50547119,2025.5,47.6471535,-2.853807,-105.4761695,1.65,-0.2,561.0
22.9,-128.22493544,0.505455,2025.0,47.583961,-2.824572,-105.329605,1.7,-0.2,561.0
22.95,-128.225005305,0.505434765,2024.5,47.446718,-2.74418,-105.0131185,1.7,-0.2,561.5
23.0,-128.22507517,0.50541453,2024.0,47.309475,-2.663788,-104.696632,1.7,-0.2,562.0
23.05,-128.22514674500002,0.5053937150000001,2023.5,47.1873075,-2.5892515,-104.4152525,1.7,-0.15,562.5
23.1,-128.22521832,0.5053729,2023.0,47.06514,-2.514715,-104.133873,1.7,-0.1,563.0
23.15,-128.22528188500002,0.50535555,2022.5,46.963833,-2.453488,-103.9106025,1.75,-0.1,563.0
23.2,-128.22534545,0.5053382,2022.0,46.862526,-2.392261,-103.687332,1.8,-0.1,563.0
23.25,-128.22540558,0.505322005,2021.5,46.732708,-2.314347,-103.410732,1.8,-0.1,563.5
23.3,-128.22546571,0.50530581,2021.0,46.60289,-2.236433,-103.134132,1.8,-0.1,564.0
23.35,-128.22553557,0.50528788,2020.5,46.5130655,-2.182521,-102.942745,1.85,-0.1,564.0
23.4,-128.22560543,0.50526995,2020.0,46.423241,-2.128609,-102.751358,1.9,-0.1,564.0
23.45,-128.22566498499998,0.50525491,2019.5,46.3002225,-2.0673,-102.5007475,1.85,-0.1,564.5
23.5,-128.22572454,0.50523987,2019.0,46.177204,-2.005991,-102.250137,1.8,-0.1,565.0
23.55,-128.22579498,0.505222515,2018.5,46.052377500000006,-1.9460065,-101.9979095,1.8,-0.1,565.0
23.6,-128.22586542,0.50520516,2018.0,45.927551,-1.886022,-101.745682,1.8,-0.1,565.0
23.65,-128.22592211,0.505192425,2017.5,45.8537405,-1.85994,-101.6186715,1.7000000000000002,-0.1,565.5
23.7,-128.2259788,0.50517969,2017.0,45.77993,-1.833858,-101.491661,1.6,-0.1,566.0
23.75,-128.22605554,0.50516233,2016.5,45.550974,-1.8170285,-101.248829,1.5,-0.15,566.0
23.8,-128.22613228,0.50514497,2016.0,45.322018,-1.800199,-101.005997,1.4,-0.2,566.0
23.85,-128.226194125,0.50513166,2016.0,45.2142315,-1.7922760000000002,-100.891674,1.4,-0.15,566.5
23.9,-128.22625597,0.50511835,2016.0,45.106445,-1.784353,-100.777351,1.4,-0.1,567.0
23.95,-128.226329845,0.5051032950000001,2015.5,44.678726,-1.872958,-100.667076,1.35,-0.05,567.0
24.0,-128.22640372,0.50508824,2015.0,44.251007,-1.961563,-100.556801,1.3,0.0,567.0
24.05,-128.22646271000002,0.505076085,2014.5,43.91131,-2.0401885,-100.4928325,1.25,0.1,567.5
24.1,-128.2265217,0.50506393,2014.0,43.571613,-2.118814,-100.428864,1.2,0.2,568.0
24.15,-128.226596145,0.505049455,2013.5,43.2166325,-2.2019895,-100.379551,1.1,0.25,568.0
24.2,-128.22667059,0.50503498,2013.0,42.861652,-2.285165,-100.330238,1.0,0.3,568.0
24.25,-128.22674504,0.5050205050000001,2012.5,42.031221,-2.4829835,-100.270992,0.85,0.3,568.5
24.3,-128.22681949,0.50500603,2012.0,41.20079,-2.680802,-100.211746,0.7,0.3,569.0
24.35,-128.22687790499998,0.504995605,2012.0,40.80377,-2.7753765,-100.183418,0.55,0.3,569.0
24.4,-128.22693632,0.50498518,2012.0,40.40675,-2.869951,-100.15509,0.4,0.3,569.0
24.45,-128.22700905,0.504971855,2011.5,39.4871675,-3.040084,-100.0694195,0.3,0.3,569.5
24.5,-128.22708178,0.50495853,2011.0,38.567585,-3.210217,-99.983749,0.2,0.3,570.0
24.55,-128.22714878,0.5049463700000001,2010.5,37.8065245,-3.3449625000000003,-99.910366,0.1,0.3,570.5
24.6,-128.22721578,0.50493421,2010.0,37.045464,-3.479708,-99.836983,-0.0,0.3,571.0
24.65,-128.22727878,0.5049232,2009.5,36.478365,-3.56188,-99.7728885,0.0,0.35,571.0
24.7,-128.22734178,0.50491219,2009.0,35.911266,-3.644052,-99.708794,-0.0,0.4,571.0
24.75,-128.22741279,0.504900025,2008.5,34.9455945,-3.743573,-99.5787775,0.0,0.45,571.5
24.8,-128.2274838,0.50488786,2008.0,33.979923,-3.843094,-99.448761,0.0,0.5,572.0
24.85,-128.22755138,0.504876275,2007.5,33.470018499999995,-3.8956445,-99.3801155,0.0,0.5,572.5
24.9,-128.22761896,0.50486469,2007.0,32.960114,-3.948195,-99.31147,-0.0,0.5,573.0
24.95,-128.2276831,0.50485426,2006.5,32.3377775,-3.9867265,-99.2092515,-0.05,0.5,573.0
25.0,-128.22774724,0.50484383,2006.0,31.715441,-4.025258,-99.107033,-0.1,0.5,573.0
25.05,-128.227826845,0.5048305,2005.5,31.0989075,-4.057918,-99.001793,-0.15,0.45,573.5
25.1,-128.22790645,0.50481717,2005.0,30.482374,-4.090578,-98.896553,-0.2,0.4,574.0
25.15,-128.22797173499998,0.50480674,2004.5,30.074688,-4.110684,-98.8260765,-0.15,0.45,574.5
25.2,-128.22803702,0.50479631,2004.0,29.667002,-4.13079,-98.7556,-0.1,0.5,575.0
25.25,-128.228108605,0.50478472,2003.5,29.086324,-4.1567075,-98.653591,-0.05,0.55,575.5
25.3,-128.22818019,0.50477313,2003.0,28.505646,-4.182625,-98.551582,0.0,0.6,576.0
25.35,-128.22824834,0.5047626949999999,2002.0,28.199427,-4.1962925,-98.497795,0.0,0.6,576.0
25.4,-128.22831649,0.50475226,2001.0,27.893208,-4.20996,-98.444008,0.0,0.6,576.0
25.45,-128.228387505,0.504741825,2000.5,27.382462500000003,-4.240243,-98.3580475,-0.05,0.5,576.5
25.5,-128.22845852,0.50473139,2000.0,26.871717,-4.270526,-98.272087,-0.1,0.4,577.0
25.55,-128.22853068,0.504720375,1999.5,26.467841,-4.295321,-98.20454,-0.1,0.35,577.5
25.6,-128.22860284,0.50470936,1999.0,26.063965,-4.320116,-98.136993,-0.1,0.3,578.0
25.65,-128.22866698500002,0.5047000850000001,1998.5,25.7616875,-4.3389755,-98.0864445,-0.1,0.35,578.5
25.7,-128.22873113,0.50469081,1998.0,25.45941,-4.357835,-98.035896,-0.1,0.4,579.0
25.75,-128.22880386,0.504679795,1997.5,24.88297,-4.3945555,-97.939495,-0.1,0.5,579.0
25.8,-128.22887659,0.50466878,1997.0,24.30653,-4.431276,-97.843094,-0.1,0.6,579.0
25.85,-128.22893614999998,0.504660655,1996.5,24.037653,-4.448404,-97.798134,-0.1,0.6499999999999999,579.5
25.9,-128.22899571,0.50465253,1996.0,23.768776,-4.465532,-97.753174,-0.1,0.7,580.0
25.95,-128.22906501,0.5046426749999999,1995.5,23.129283,-4.5017095,-97.6616175,-0.1,0.75,580.5
26.0,-128.22913431,0.50463282,1995.0,22.48979,-4.537887,-97.570061,-0.1,0.8,581.0
26.05,-128.229207615,0.504622955,1994.0,22.064617,-4.561608,-97.5103075,-0.1,0.9,581.0
26.1,-128.22928092,0.50461309,1993.0,21.639444,-4.585329,-97.450554,-0.1,1.0,581.0
26.15,-128.229346205,0.5046038150000001,1992.5,21.3156965,-4.6021075,-97.406437,-0.15,0.9,581.5
26.2,-128.22941149,0.50459454,1992.0,20.991949,-4.618886,-97.36232,-0.2,0.8,582.0
26.25,-128.22948537,0.504584675,1991.5,20.3406485,-4.6482885,-97.278286,-0.25,0.7,582.0
26.3,-128.22955925,0.50457481,1991.0,19.689348,-4.677691,-97.194252,-0.3,0.6,582.0
26.35,-128.22961480499998,0.504567845,1990.5,19.360674,-4.692529,-97.1518555,-0.3,0.55,582.5
26.4,-128.22967036,0.50456088,1990.0,19.032,-4.707367,-97.109459,-0.3,0.5,583.0
26.45,-128.22974481,0.5045510200000001,1989.5,18.6018585,-4.7256265,-97.0488585,-0.25,0.55,583.5
26.5,-128.22981926,0.50454116,1989.0,18.171717,-4.743886,-96.988258,-0.2,0.6,584.0
26.55,-128.22985992,0.504535935,1988.5,17.895798,-4.755399499999999,-96.948509,-0.2,0.6499999999999999,584.0
26.6,-128.22990058,0.50453071,1988.0,17.619879,-4.766913,-96.90876,-0.2,0.7,584.0
26.65,-128.229967015,0.5045220100000001,1987.5,17.4172995,-4.7753665000000005,-96.8795815,-0.2,0.7,584.5
26.7,-128.23003345,0.50451331,1987.0,17.21472,-4.78382,-96.850403,-0.2,0.7,585.0
26.75,-128.230144555,0.5044993799999999,1986.0,16.8434165,-4.7973865,-96.781044,-0.15,0.75,585.5
26.8,-128.23025566,0.50448545,1985.0,16.472113,-4.810953,-96.711685,-0.1,0.8,586.0
26.85,-128.23032725000002,0.5044767450000001,1984.5,16.3161175,-4.816554999999999,-96.6817475,-0.1,0.8500000000000001,586.5
26.9,-128.23039884,0.50446804,1984.0,16.160122,-4.822157,-96.65181,-0.1,0.9,587.0
26.95,-128.23046298,0.50446049,1983.0,15.9204125,-4.8270785,-96.597458,-0.1,0.95,587.5
27.0,-128.23052712,0.50445294,1982.0,15.680703,-4.832,-96.543106,-0.1,1.0,588.0
27.05,-128.23060272,0.504443655,1981.5,15.521786,-4.834872,-96.5061875,-0.1,1.0,588.0
27.1,-128.23067832,0.50443437,1981.0,15.362869,-4.837744,-96.469269,-0.1,1.0,588.0
27.15,-128.230760215,0.504425075,1980.5,15.2063105,-4.839422,-96.427624,-0.15,0.9,588.5
27.2,-128.23084211,0.50441578,1980.0,15.049752,-4.8411,-96.385979,-0.2,0.8,589.0
27.25,-128.23090911999998,0.5044076550000001,1979.0,14.8859115,-4.841495,-96.336174,-0.25,0.65,589.5
27.3,-128.23097613,0.50439953,1978.0,14.722071,-4.84189,-96.286369,-0.3,0.5,590.0
27.35,-128.231047145,0.5043914,1977.5,14.615124,-4.8421475,-96.2538525,-0.3,0.5,590.0
27.4,-128.23111816,0.50438327,1977.0,14.508177,-4.842405,-96.221336,-0.3,0.5,590.0
27.45,-128.231190895,0.50437514,1976.5,14.3654395,-4.833439,-96.1611745,-0.3,0.5,590.5
27.5,-128.23126363,0.50436701,1976.0,14.222702,-4.824473,-96.101013,-0.3,0.5,591.0
27.55,-128.231328345,0.50435946,1975.5,14.127103,-4.8172505,-96.058529,-0.25,0.55,591.5
27.6,-128.23139306,0.50435191,1975.0,14.031504,-4.810028,-96.016045,-0.2,0.6,592.0
27.65,-128.23147209500002,0.504343195,1974.0,13.944092,-4.801667999999999,-95.971943,-0.2,0.6499999999999999,592.5
27.7,-128.23155113,0.50433448,1973.0,13.85668,-4.793308,-95.927841,-0.2,0.7,593.0
27.75,-128.23162100000002,0.50432693,1972.5,13.766546,-4.782164,-95.8748055,-0.2,0.75,593.0
27.8,-128.23169087,0.50431938,1972.0,13.676412,-4.77102,-95.82177,-0.2,0.8,593.0
27.85,-128.23176303,0.50431125,1971.5,13.621808,-4.7642685,-95.7896385,-0.2,0.8500000000000001,593.5
27.9,-128.23183519,0.50430312,1971.0,13.567204,-4.757517,-95.757507,-0.2,0.9,594.0
27.95,-128.23190334499998,0.504296145,1970.0,13.4909095,-4.7550735,-95.706211,-0.2,0.95,594.5
28.0,-128.2319715,0.50428917,1969.0,13.414615,-4.75263,-95.654915,-0.2,1.0,595.0
28.05,-128.232046525,0.504281035,1968.5,13.358444,-4.751383499999999,-95.616646,-0.15,1.05,595.0
28.1,-128.23212155,0.5042729,1968.0,13.302273,-4.750137,-95.578377,-0.1,1.1,595.0
28.15,-128.23218684,0.504266505,1967.5,13.2624105,-4.7521925,-95.549881,-0.1,1.15,595.5
28.2,-128.23225213,0.50426011,1967.0,13.222548,-4.754248,-95.521385,-0.1,1.2,596.0
28.25,-128.232333455,0.504251395,1966.0,13.153408,-4.764806,-95.468807,-0.1,1.25,596.5
28.3,-128.23241478,0.50424268,1965.0,13.084268,-4.775364,-95.416229,-0.1,1.3,597.0
28.35,-128.232483505,0.504235705,1964.5,13.0504365,-4.78053,-95.390499,-0.1,1.2000000000000002,597.5
28.4,-128.23255223,0.50422873,1964.0,13.016605,-4.785696,-95.364769,-0.1,1.1,598.0
28.45,-128.23261637500002,0.504222335,1963.5,12.9650585,-4.793967,-95.324211,-0.15,0.95,598.0
28.5,-128.23268052,0.50421594,1963.0,12.913512,-4.802238,-95.283653,-0.2,0.8,598.0
28.55,-128.23275841,0.50420838,1962.5,12.8681525,-4.809561,-95.247818,-0.25,0.65,598.5
28.6,-128.2328363,0.50420082,1962.0,12.822793,-4.816884,-95.211983,-0.3,0.5,599.0
28.65,-128.23290617,0.504193845,1961.0,12.8091415,-4.8194110000000006,-95.187817,-0.3,0.55,599.0
28.7,-128.23297604,0.50418687,1960.0,12.79549,-4.821938,-95.163651,-0.3,0.6,599.0
28.75,-128.23305393,0.50417931,1959.5,12.81756,-4.8198545,-95.119835,-0.25,0.6499999999999999,599.5
28.8,-128.23313182,0.50417175,1959.0,12.83963,-4.817771,-95.076019,-0.2,0.7,600.0
28.85,-128.23319883,0.504165355,1958.5,12.85085,-4.816712,-95.0537415,-0.2,0.7,600.0
28.9,-128.23326584,0.50415896,1958.0,12.86207,-4.815653,-95.031464,-0.2,0.7,600.0
28.95,-128.23334201,0.50415198,1957.0,12.945956,-4.805473,-94.988892,-0.2,0.75,600.5
29.0,-128.23341818,0.504145,1956.0,13.029842,-4.795293,-94.94632,-0.2,0.8,601.0
29.05,-128.23348748,0.5041386,1955.5,13.0912445,-4.7877925,-94.9178545,-0.2,0.8,601.5
29.1,-128.23355678,0.5041322,1955.0,13.152647,-4.780292,-94.889389,-0.2,0.8,602.0
29.15,-128.233630085,0.5041258,1954.5,13.212732,-4.774564,-94.8633535,-0.2,0.8,602.0
29.2,-128.23370339,0.5041194,1954.0,13.272817,-4.768836,-94.837318,-0.2,0.8,602.0
29.25,-128.23377842,0.50411242,1953.5,13.379119,-4.761766,-94.794727,-0.2,0.8500000000000001,602.5
29.3,-128.23385345,0.50410544,1953.0,13.485421,-4.754696,-94.752136,-0.2,0.9,603.0
29.35,-128.233924465,0.504099615,1952.0,13.543253,-4.7508505,-94.7289695,-0.2,0.95,603.5
29.4,-128.23399548,0.50409379,1951.0,13.601085,-4.747005,-94.705803,-0.2,1.0,604.0
29.45,-128.23407509,0.504086805,1950.5,13.657756,-4.741349,-94.654293,-0.2,1.05,604.0
29.5,-128.2341547,0.50407982,1950.0,13.714427,-4.735693,-94.602783,-0.2,1.1,604.0
29.55,-128.23422113499998,0.5040739999999999,1949.5,13.7464145,-4.732192,-94.5689885,-0.2,1.15,604.5
29.6,-128.23428757,0.50406818,1949.0,13.778402,-4.728691,-94.535194,-0.2,1.2,605.0
29.65,-128.234364885,0.504061775,1948.0,13.7932875,-4.719901500000001,-94.49567,-0.2,1.25,605.5
29.7,-128.2344422,0.50405537,1947.0,13.808173,-4.711112,-94.456146,-0.2,1.3,606.0
29.75,-128.234506345,0.50405013,1946.5,13.7987715,-4.6923425000000005,-94.400253,-0.15,1.35,606.0
29.8,-128.23457049,0.50404489,1946.0,13.78937,-4.673573,-94.34436,-0.1,1.4,606.0
