Time,Longitude,Latitude,Altitude,Roll,Pitch,Yaw,AOA,AOS,TAS
109.85,-128.33677568000002,0.5049319800000001,455.0,29.4975375,-14.56717,-48.5614855,0.65,0.4,521.5
109.9,-128.33681866,0.50496884,453.0,29.26202,-14.658611,-48.536179,0.5,0.4,522.0
109.95,-128.336870235,0.505013765,451.0,28.627657,-14.7558895,-48.38118,0.45,0.45,522.0
110.0,-128.33692181,0.50505869,449.0,27.993294,-14.853168,-48.226181,0.4,0.5,522.0
110.05,-128.33696479000002,0.5050955500000001,447.5,27.538854,-14.9101445,-48.1077195,0.35,0.5,522.0
110.1,-128.33700777,0.50513241,446.0,27.084414,-14.967121,-47.989258,0.3,0.5,522.0
110.15,-128.337057055,0.505176185,444.0,26.556595,-14.943318,-47.8421325,0.3,0.55,522.0
110.2,-128.33710634,0.50521996,442.0,26.028776,-14.919515,-47.695007,0.3,0.6,522.0
110.25,-128.33714473499998,0.50525394,440.5,25.097435,-14.7071875,-47.41732,0.4,0.6499999999999999,522.0
110.3,-128.33718313,0.50528792,439.0,24.166094,-14.49486,-47.139633,0.5,0.7,522.0
110.35,-128.33723184500002,0.505331695,437.0,23.5178365,-14.3470685,-46.9463655,0.6,0.75,522.0
110.4,-128.33728056,0.50537547,435.0,22.869579,-14.199277,-46.753098,0.7,0.8,522.0
110.45,-128.33732354,0.50541406,433.0,21.958329,-13.9870365,-46.5699695,0.75,0.8,522.0
110.5,-128.33736652,0.50545265,431.0,21.047079,-13.774796,-46.386841,0.8,0.8,522.0
110.55,-128.33741522999998,0.505497,429.0,20.0884735,-13.550587,-46.212654,0.9,0.8500000000000001,522.0
110.6,-128.33746394,0.50554135,427.0,19.129868,-13.326378,-46.038467,1.0,0.9,522.0
110.65,-128.33750406,0.50557821,425.5,18.6643985,-13.2175105,-45.9538955,1.05,0.95,522.0
110.7,-128.33754418,0.50561507,424.0,18.198929,-13.108643,-45.869324,1.1,1.0,522.0
110.75,-128.337595755,0.5056623,422.0,16.792793500000002,-13.0325535,-45.77639,1.05,1.05,522.0
110.8,-128.33764733,0.50570953,420.0,15.386658,-12.956464,-45.683456,1.0,1.1,522.0
110.85,-128.33768745,0.5057469699999999,418.5,14.7740615,-12.923315,-45.642967,0.95,1.1,522.0
110.9,-128.33772757,0.50578441,417.0,14.161465,-12.890166,-45.602478,0.9,1.1,522.0
110.95,-128.33777857500002,0.505832215,415.0,13.135755,-12.922474,-45.579605,0.8,1.1,522.0
111.0,-128.33782958,0.50588002,413.0,12.110045,-12.954782,-45.556732,0.7,1.1,522.0
111.05,-128.337870845,0.50591919,411.5,11.4001465,-12.9900815,-45.547516,0.6,1.05,521.5
111.1,-128.33791211,0.50595836,410.0,10.690248,-13.025381,-45.5383,0.5,1.0,521.0
111.15,-128.33796024999998,0.506003285,408.5,10.0802595,-13.0449665,-45.5317845,0.45,1.0,521.0
111.2,-128.33800839,0.50604821,407.0,9.470271,-13.064552,-45.525269,0.4,1.0,521.0
111.25,-128.33804793500002,0.50608623,405.5,8.619009,-13.0534015,-45.5211795,0.35,1.0,521.0
111.3,-128.33808748,0.50612425,404.0,7.767747,-13.042251,-45.51709,0.3,1.0,521.0
111.35,-128.338136195,0.50616975,402.0,7.222823,-13.0351125,-45.514480500000005,0.25,1.0,521.0
111.4,-128.33818491,0.50621525,400.0,6.677899,-13.027974,-45.511871,0.2,1.0,521.0
111.45,-128.33822732,0.506256145,398.5,6.0236545,-12.9710995,-45.508003,0.2,1.0,521.0
111.5,-128.33826973,0.50629704,397.0,5.36941,-12.914225,-45.504135,0.2,1.0,521.0
111.55,-128.33832073500002,0.5063448500000001,395.0,4.7775525000000005,-12.853389,-45.500496,0.2,0.95,520.5
111.6,-128.33837174,0.50639266,393.0,4.185695,-12.792553,-45.496857,0.2,0.9,520.0
111.65,-128.33841071,0.5064301,391.5,3.8695885,-12.7558915,-45.495064,0.2,0.9,520.0
111.7,-128.33844968,0.50646754,390.0,3.553482,-12.71923,-45.493271,0.2,0.9,520.0
111.75,-128.338492665,0.50650901,388.5,3.0404615,-12.6268655,-45.491638,0.25,0.9,519.5
111.8,-128.33853565,0.50655048,387.0,2.527441,-12.534501,-45.490005,0.3,0.9,519.0
111.85,-128.338579205,0.506591375,385.5,2.241425,-12.4830075,-45.4890975,0.3,0.9,519.0
111.9,-128.33862276,0.50663227,384.0,1.955409,-12.431514,-45.48819,0.3,0.9,519.0
111.95,-128.338669755,0.5066771999999999,382.5,1.702744,-12.3835305,-45.4886475,0.3,0.9,518.5
112.0,-128.33871675,0.50672213,381.0,1.450079,-12.335547,-45.489105,0.3,0.9,518.0
112.05,-128.33876088,0.50676418,379.5,1.259864,-12.29824,-45.4900435,0.3,0.9,517.5
112.1,-128.33880501,0.50680623,378.0,1.069649,-12.260933,-45.490982,0.3,0.9,517.0
112.15,-128.33885257999998,0.50685173,376.0,0.956827,-12.2431535,-45.4907685,0.3,0.8500000000000001,517.0
112.2,-128.33890015,0.50689723,374.0,0.844005,-12.225374,-45.490555,0.3,0.8,517.0
112.25,-128.33894542500002,0.50694101,372.5,0.7570315000000001,-12.232851,-45.4865725,0.25,0.8,516.5
112.3,-128.3389907,0.50698479,371.0,0.670058,-12.240328,-45.48259,0.2,0.8,516.0
112.35,-128.339034255,0.50702626,369.5,0.623211,-12.2443555,-45.4804305,0.15,0.8,516.0
112.4,-128.33907781,0.50706773,368.0,0.576364,-12.248383,-45.478271,0.1,0.8,516.0
112.45,-128.33912193999998,0.507110355,366.5,0.5519495,-12.281734,-45.4721525,0.05,0.8,515.5
112.5,-128.33916607,0.50715298,365.0,0.527535,-12.315085,-45.466034,0.0,0.8,515.0
112.55,-128.33920791,0.5071927199999999,363.5,0.5163015,-12.3501375,-45.460083,-0.05,0.8,514.5
112.6,-128.33924975,0.50723246,362.0,0.505068,-12.38519,-45.454132,-0.1,0.8,514.0
112.65,-128.33929789,0.50727854,360.5,0.4955745,-12.4123775,-45.4476775,-0.1,0.8,514.0
112.7,-128.33934603,0.50732462,359.0,0.486081,-12.439565,-45.441223,-0.1,0.8,514.0
112.75,-128.33938959,0.50736667,357.5,0.4731535,-12.470831,-45.429077,-0.1,0.8,513.5
112.8,-128.33943315,0.50740872,356.0,0.460226,-12.502097,-45.416931,-0.1,0.8,513.0
112.85,-128.33948071499998,0.507454225,354.0,0.452064,-12.521836,-45.4092635,-0.1,0.8,512.5
112.9,-128.33952828,0.50749973,352.0,0.443902,-12.541575,-45.401596,-0.1,0.8,512.0
112.95,-128.33957126500002,0.5075406250000001,350.5,0.389569,-12.5282605,-45.3845595,-0.1,0.8,512.0
113.0,-128.33961425,0.50758152,349.0,0.335236,-12.514946,-45.367523,-0.1,0.8,512.0
113.05,-128.33965494,0.507620685,347.5,0.2905155,-12.501027,-45.3541715,-0.1,0.75,511.5
113.1,-128.33969563,0.50765985,346.0,0.245795,-12.487108,-45.34082,-0.1,0.7,511.0
113.15,-128.33973976,0.507702475,344.5,0.205793,-12.4679535,-45.3310775,-0.1,0.75,511.0
113.2,-128.33978389,0.5077451,343.0,0.165791,-12.448799,-45.321335,-0.1,0.8,511.0
113.25,-128.33982974,0.5077888749999999,341.5,0.0114855,-12.3159605,-45.3031465,-0.05,0.8,510.5
113.3,-128.33987559,0.50783265,340.0,-0.14282,-12.183122,-45.284958,0.0,0.8,510.0
113.35,-128.339915135,0.50787067,338.5,-0.216441,-12.1197425,-45.276291,0.05,0.8,510.0
113.4,-128.33995468,0.50790869,337.0,-0.290062,-12.056363,-45.267624,0.1,0.8,510.0
113.45,-128.34000225,0.50795419,335.5,-0.4406495,-11.9119445,-45.2566985,0.15,0.8500000000000001,509.5
113.5,-128.34004982,0.50799969,334.0,-0.591237,-11.767526,-45.245773,0.2,0.9,509.0
113.55,-128.34009394499998,0.50804174,332.5,-0.7100075,-11.6517275,-45.2380445,0.3,0.95,508.5
113.6,-128.34013807,0.50808379,331.0,-0.828778,-11.535929,-45.230316,0.4,1.0,508.0
113.65,-128.34017933500002,0.50812411,329.5,-0.908976,-11.4681285,-45.226082000000005,0.4,1.0,508.0
113.7,-128.3402206,0.50816443,328.0,-0.989174,-11.400328,-45.221848,0.4,1.0,508.0
113.75,-128.34026588,0.50820763,326.5,-1.2294725,-11.29398,-45.218338,0.4,1.0,507.5
113.8,-128.34031116,0.50825083,325.0,-1.469771,-11.187632,-45.214828,0.4,1.0,507.0
113.85,-128.34035357,0.5082917250000001,324.0,-1.591238,-11.1338735,-45.213066,0.45,1.0,506.5
113.9,-128.34039598,0.50833262,323.0,-1.712705,-11.080115,-45.211304,0.5,1.0,506.0
113.95,-128.340435525,0.508370635,321.5,-1.9472535,-11.024542,-45.2143325,0.5,1.0,505.5
114.0,-128.34047507,0.50840865,320.0,-2.181802,-10.968969,-45.217361,0.5,1.0,505.0
114.05,-128.34052493000002,0.50845646,318.5,-2.4311595,-10.916697,-45.221481,0.45,1.05,505.0
114.1,-128.34057479,0.50850427,317.0,-2.680517,-10.864425,-45.225601,0.4,1.1,505.0
114.15,-128.34061548,0.5085428599999999,315.5,-2.8726055,-10.814574,-45.230499,0.45,1.05,504.5
114.2,-128.34065617,0.50858145,314.0,-3.064694,-10.764723,-45.235397,0.5,1.0,504.0
114.25,-128.34070259499998,0.5086263799999999,312.5,-3.5799579999999995,-10.599661,-45.254158,0.55,1.0,503.5
114.3,-128.34074902,0.50867131,311.0,-4.095222,-10.434599,-45.272919,0.6,1.0,503.0
114.35,-128.34078856000002,0.5087087450000001,310.0,-4.336981,-10.357153,-45.281723,0.6,1.0,503.0
114.4,-128.3408281,0.50874618,309.0,-4.57874,-10.279707,-45.290527,0.6,1.0,503.0
114.45,-128.340872805,0.5087893800000001,307.5,-5.253362,-10.05268,-45.318115,0.6499999999999999,1.05,502.5
114.5,-128.34091751,0.50883258,306.0,-5.927984,-9.825653,-45.345703,0.7,1.1,502.0
114.55,-128.340958775,0.508872325,305.0,-6.481909,-9.638188,-45.3686445,0.75,1.15,501.5
114.6,-128.34100004,0.50891207,304.0,-7.035834,-9.450723,-45.391586,0.8,1.2,501.0
114.65,-128.34104761,0.5089570000000001,302.5,-7.5347665,-9.2894475,-45.417488,0.9,1.2,500.5
114.7,-128.34109518,0.50900193,301.0,-8.033699,-9.128172,-45.44339,1.0,1.2,500.0
114.75,-128.34113587000002,0.50904052,299.5,-8.932765,-8.866821,-45.510292,1.05,1.25,500.0
114.8,-128.34117656,0.50907911,298.0,-9.831831,-8.60547,-45.577194,1.1,1.3,500.0
114.85,-128.34121553,0.50911597,297.0,-10.3213325,-8.463176,-45.613617,1.15,1.35,499.5
114.9,-128.3412545,0.50915283,296.0,-10.810834,-8.320882,-45.65004,1.2,1.4,499.0
114.95,-128.34130034999998,0.50919603,295.0,-11.4710135,-8.147822,-45.72419,1.2,1.4,498.5
115.0,-128.3413462,0.50923923,294.0,-12.131193,-7.974762,-45.79834,1.2,1.4,498.0
115.05,-128.34138975500002,0.5092801250000001,293.0,-12.6312815,-7.848406000000001,-45.8607865,1.2,1.4,497.5
115.1,-128.34143331,0.50932102,292.0,-13.13137,-7.72205,-45.923233,1.2,1.4,497.0
115.15,-128.341480305,0.509364795,290.5,-13.499307,-7.6430845,-45.974777,1.15,1.4,496.5
115.2,-128.3415273,0.50940857,289.0,-13.867244,-7.564119,-46.026321,1.1,1.4,496.0
115.25,-128.34156855999998,0.5094471599999999,288.0,-14.318124,-7.528154499999999,-46.1138685,1.05,1.4,495.5
115.3,-128.34160982,0.50948575,287.0,-14.769004,-7.49219,-46.201416,1.0,1.4,495.0
115.35,-128.34165509500002,0.509527795,286.0,-15.0552115,-7.4693605,-46.256988500000006,0.9,1.4,495.0
115.4,-128.34170037,0.50956984,285.0,-15.341419,-7.446531,-46.312561,0.8,1.4,495.0
115.45,-128.341741635,0.509607855,284.0,-15.6665045,-7.438854,-46.4035645,0.8,1.4,494.5
115.5,-128.3417829,0.50964587,283.0,-15.99159,-7.431177,-46.494568,0.8,1.4,494.0
115.55,-128.341824165,0.509683885,282.0,-16.267663,-7.428474,-46.57769,0.75,1.4,493.5
115.6,-128.34186543,0.5097219,281.0,-16.543736,-7.425771,-46.660812,0.7,1.4,493.0
115.65,-128.3419107,0.509762795,280.0,-16.7051385,-7.424191,-46.7094115,0.6499999999999999,1.4,493.0
115.7,-128.34195597,0.50980369,279.0,-16.866541,-7.422611,-46.758011,0.6,1.4,493.0
115.75,-128.342000675,0.509844585,278.0,-17.3057435,-7.3641175,-46.89328,0.55,1.4,492.5
115.8,-128.34204538,0.50988548,277.0,-17.744946,-7.305624,-47.028549,0.5,1.4,492.0
115.85,-128.342085495,0.509921185,276.0,-17.975154,-7.274965,-47.099449,0.5,1.35,491.5
115.9,-128.34212561,0.50995689,275.0,-18.205362,-7.244306,-47.170349,0.5,1.3,491.0
115.95,-128.34217203,0.50999836,274.0,-18.605992,-7.1916255,-47.269783,0.45,1.25,490.5
116.0,-128.34221845,0.51003983,273.0,-19.006622,-7.138945,-47.369217,0.4,1.2,490.0
116.05,-128.34226487,0.510081875,272.0,-19.389815,-7.0886865,-47.4597625,0.4,1.15,489.5
116.1,-128.34231129,0.51012392,271.0,-19.773008,-7.038428,-47.550308,0.4,1.1,489.0
116.15,-128.342351405,0.5101590549999999,270.5,-19.9521065,-7.0149385,-47.5926205,0.4,1.15,488.5
116.2,-128.34239152,0.51019419,270.0,-20.131205,-6.991449,-47.634933,0.4,1.2,488.0
116.25,-128.34240986,0.51021089,269.5,-20.7373,-7.008936,-47.6759335,0.4,1.2,488.0
116.3,-128.3424282,0.51022759,269.0,-21.343395,-7.026423,-47.716934,0.4,1.2,488.0
116.35,-128.34249582,0.510286915,267.5,-21.915345,-7.0429245,-47.755623,0.35,1.25,487.5
116.4,-128.34256344,0.51034624,266.0,-22.487295,-7.059426,-47.794312,0.3,1.3,487.0
116.45,-128.34261329999998,0.510389435,265.0,-23.346405,-7.1016325,-47.8350145,0.25,1.35,486.5
116.5,-128.34266316,0.51043263,264.0,-24.205515,-7.143839,-47.875717,0.2,1.4,486.0
116.55,-128.34270614000002,0.510470065,263.0,-25.1635115,-7.1952795,-47.9167175,0.15,1.4,485.5
116.6,-128.34274912,0.5105075,262.0,-26.121508,-7.24672,-47.957718,0.1,1.4,485.0
116.65,-128.3427921,0.510544935,261.0,-26.6004365,-7.272436,-47.978203,0.05,1.45,484.5
116.7,-128.34283508,0.51058237,260.0,-27.079365,-7.298152,-47.998688,-0.0,1.5,484.0
116.75,-128.34288436,0.510624415,259.0,-28.5159505,-7.233760999999999,-48.1804355,0.0,1.55,483.5
116.8,-128.34293364,0.51066646,258.0,-29.952536,-7.16937,-48.362183,0.0,1.6,483.0
116.85,-128.342973755,0.510701015,257.0,-30.625247,-7.139217,-48.4472735,0.0,1.6,482.5
116.9,-128.34301387,0.51073557,256.0,-31.297958,-7.109064,-48.532364,0.0,1.6,482.0
116.95,-128.34305914499998,0.510773005,255.5,-32.444410000000005,-6.9695975,-48.779564,0.05,1.65,482.0
117.0,-128.34310442,0.51081044,255.0,-33.590862,-6.830131,-49.026764,0.1,1.7,482.0
117.05,-128.34314625000002,0.5108461449999999,254.0,-34.7002275,-6.671839,-49.29303,0.15,1.7,481.5
117.1,-128.34318808,0.51088185,253.0,-35.809593,-6.513547,-49.559296,0.2,1.7,481.0
117.15,-128.343233925,0.510919285,252.0,-36.6142615,-6.3699695,-49.7964175,0.3,1.75,480.5
117.2,-128.34327977,0.51095672,251.0,-37.41893,-6.226392,-50.033539,0.4,1.8,480.0
117.25,-128.34332045500005,0.510990125,250.0,-38.7437055,-5.8223165,-50.680519,0.6000000000000001,1.85,480.0
117.3,-128.34336114,0.51102353,249.0,-40.068481,-5.418241,-51.327499,0.8,1.9,480.0
117.35,-128.343409275,0.511062115,248.0,-40.9455085,-5.1507355,-51.755798,1.1,1.95,479.5
117.4,-128.34345741,0.5111007,247.0,-41.822536,-4.88323,-52.184097,1.4,2.0,479.0
117.45,-128.343506695,0.51113928,246.5,-43.1202275,-4.424427,-52.9444005,1.65,2.05,478.5
117.5,-128.34355598,0.51117786,246.0,-44.417919,-3.965624,-53.704704,1.9,2.1,478.0
117.55,-128.34359838,0.511211265,245.0,-45.580755,-3.538206,-54.4187315,2.2,2.1500000000000004,477.5
117.6,-128.34364078,0.51124467,244.0,-46.743591,-3.110788,-55.132759,2.5,2.2,477.0
117.65,-128.34369407,0.5112826699999999,243.0,-47.7897205,-2.7612455,-55.7685965,2.8,2.3,476.0
117.7,-128.34374736,0.51132067,242.0,-48.83585,-2.411703,-56.404434,3.1,2.4,475.0
117.75,-128.343789765,0.5113511900000001,241.5,-50.476969,-1.9884445,-57.378559,3.35,2.45,474.5
117.8,-128.34383217,0.51138171,241.0,-52.118088,-1.565186,-58.352684,3.6,2.5,474.0
117.85,-128.34388316500002,0.511416255,240.5,-53.211779,-1.283114,-59.001869,3.8,2.55,473.0
117.9,-128.34393416,0.5114508,240.0,-54.30547,-1.001042,-59.651054,4.0,2.6,472.0
117.95,-128.343977705,0.5114790149999999,239.5,-55.414713,-0.7529935,-60.4963415,4.15,2.6,471.5
118.0,-128.34402125,0.51150723,239.0,-56.523956,-0.504945,-61.341629,4.3,2.6,471.0
118.05,-128.34406594,0.511536015,238.5,-57.6466025,-0.266924,-62.2611235,4.449999999999999,2.6,470.5
118.1,-128.34411063,0.5115648,238.0,-58.769249,-0.028903,-63.180618,4.6,2.6,470.0
118.15,-128.34416105,0.51159416,237.5,-59.3761005,0.0997594999999999,-63.67765800000001,4.699999999999999,2.6,469.0
118.2,-128.34421147,0.51162352,237.0,-59.982952,0.228422,-64.174698,4.8,2.6,468.0
118.25,-128.34425959499998,0.511650575,236.5,-60.6958905,0.3775355,-65.259785,4.85,2.55,467.5
118.3,-128.34430772,0.51167763,236.0,-61.408829,0.526649,-66.344872,4.9,2.5,467.0
118.35,-128.344360425,0.511705835,235.5,-61.8671875,0.6225160000000001,-67.042496,5.0,2.45,466.0
118.4,-128.34441313,0.51173404,235.0,-62.325546,0.718383,-67.74012,5.1,2.4,465.0
118.45,-128.344463545,0.511758785,234.5,-62.564912500000005,0.7972589999999999,-68.490246,5.15,2.3,464.5
118.5,-128.34451396,0.51178353,234.0,-62.804279,0.876135,-69.240372,5.2,2.2,464.0
118.55,-128.344568385,0.51181058,233.5,-62.949234,0.957291,-70.1417505,5.25,2.1,463.5
118.6,-128.34462281,0.51183763,233.0,-63.094189,1.038447,-71.043129,5.3,2.0,463.0
118.65,-128.34467036,0.51185719,232.5,-63.15082,1.087336,-71.533104,5.35,1.9,462.0
118.7,-128.34471791,0.51187675,232.0,-63.207451,1.136225,-72.023079,5.4,1.8,461.0
118.75,-128.34477233,0.511899765,232.0,-63.1073475,1.2981775,-73.149124,5.45,1.75,460.5
118.8,-128.34482675,0.51192278,232.0,-63.007244,1.46013,-74.275169,5.5,1.7,460.0
118.85,-128.34487888,0.511942915,231.5,-62.954357,1.5456905,-74.87006,5.6,1.6,459.0
118.9,-128.34493101,0.51196305,231.0,-62.90147,1.631251,-75.464951,5.7,1.5,458.0
118.95,-128.34497168,0.511977425,231.0,-62.7892035,1.8226055,-76.2723125,5.75,1.45,457.5
119.0,-128.34501235,0.5119918,231.0,-62.676937,2.01396,-77.079674,5.8,1.4,457.0
119.05,-128.34506791,0.51201078,230.5,-62.534662,2.2578825,-78.0364725,5.9,1.35,456.5
119.1,-128.34512347,0.51202976,230.0,-62.392387,2.501805,-78.993271,6.0,1.3,456.0
119.15,-128.34517846,0.512045855,230.0,-62.32139,2.623527,-79.47073,6.05,1.3,455.0
119.2,-128.34523345,0.51206195,230.0,-62.250393,2.745249,-79.948189,6.1,1.3,454.0
119.25,-128.345290155,0.512078045,230.0,-62.056202,3.201854,-81.26633849999999,6.3,1.3,453.0
119.3,-128.34534686,0.51209414,230.0,-61.862011,3.658459,-82.584488,6.5,1.3,452.0
119.35,-128.34539211,0.5121050549999999,229.5,-61.77042,3.873814,-83.2061845,6.65,1.35,451.5
119.4,-128.34543736,0.51211597,229.0,-61.678829,4.089169,-83.827881,6.8,1.4,451.0
119.45,-128.34550208000002,0.5121297499999999,229.0,-61.49633,4.518799,-84.8923225,6.949999999999999,1.4,449.5
119.5,-128.3455668,0.51214353,229.0,-61.313831,4.948429,-85.956764,7.1,1.4,448.0
119.55,-128.345617775,0.5121538649999999,229.0,-61.164003,5.301248,-86.7917745,7.25,1.45,447.5
119.6,-128.34566875,0.5121642,229.0,-61.014175,5.654067,-87.626785,7.4,1.5,447.0
119.65,-128.34571857999998,0.5121710749999999,229.5,-60.926563,5.860389,-88.11508549999999,7.5,1.55,446.0
119.7,-128.34576841,0.51217795,230.0,-60.838951,6.066711,-88.603386,7.6,1.6,445.0
119.75,-128.34582396500002,0.512185975,230.0,-60.5765745,6.609359,-89.81247350000001,7.699999999999999,1.65,443.5
119.8,-128.34587952,0.512194,230.0,-60.314198,7.152007,-91.021561,7.8,1.7,442.0
119.85,-128.345936215,0.5121997149999999,230.0,-60.1582395,7.4737065,-91.7373775,8.05,1.7,441.5
119.9,-128.34599291,0.51220543,230.0,-60.002281,7.795406,-92.453194,8.3,1.7,441.0
119.95,-128.34604502500002,0.512208845,230.5,-59.788273,8.185020999999999,-93.316288,8.65,1.5,440.0
120.0,-128.34609714,0.51221226,231.0,-59.574265,8.574636,-94.179382,9.0,1.3,439.0
120.05,-128.34614639,0.51221568,231.0,-59.3835585,8.9128395,-94.9278335,9.35,1.15,438.0
120.1,-128.34619564,0.5122191,231.0,-59.192852,9.251043,-95.676285,9.7,1.0,437.0
120.15,-128.34625061499997,0.51221905,231.5,-59.0301225,9.535867,-96.309124,9.1,1.4,435.5
120.2,-128.34630559,0.512219,232.0,-58.867393,9.820691,-96.941963,8.5,1.8,434.0
120.25,-128.34635484,0.51221896,232.5,-58.633579,10.21258,-97.824436,7.85,2.25,433.0
120.3,-128.34640409,0.51221892,233.0,-58.399765,10.604469,-98.706909,7.2,2.7,432.0
120.35,-128.346464215,0.512216565,233.5,-58.2228415,10.901001,-99.3746565,6.85,2.9000000000000004,431.5
120.4,-128.34652434,0.51221421,234.0,-58.045918,11.197533,-100.042404,6.5,3.1,431.0
120.45,-128.34656958,0.51221129,234.5,-57.8969785,11.462383,-100.6663665,6.7,2.95,430.0
120.5,-128.34661482,0.51220837,235.0,-57.748039,11.727233,-101.290329,6.9,2.8,429.0
120.55,-128.34667265500002,0.5122042849999999,235.5,-57.583471,12.025604,-102.0030555,7.1,2.65,428.0
120.6,-128.34673049,0.5122002,236.0,-57.418903,12.323975,-102.715782,7.3,2.5,427.0
120.65,-128.34677629499998,0.5121943950000001,237.0,-57.343847,12.4600555,-103.040844,7.3,2.5,426.5
120.7,-128.3468221,0.51218859,238.0,-57.268791,12.596136,-103.365906,7.3,2.5,426.0
120.75,-128.346871345,0.51218221,238.5,-57.1842175,12.850209,-104.122406,7.25,2.45,425.0
120.8,-128.34692059,0.51217583,239.0,-57.099644,13.104282,-104.878906,7.2,2.4,424.0
120.85,-128.346974985,0.512167135,240.0,-57.0473175,13.264497,-105.3586615,7.15,2.35,423.0
120.9,-128.34702938,0.51215844,241.0,-56.994991,13.424712,-105.838417,7.1,2.3,422.0
120.95,-128.347076905,0.5121497500000001,241.5,-57.0064045,13.5626575,-106.3344725,7.05,2.25,421.5
121.0,-128.34712443,0.51214106,242.0,-57.017818,13.700603,-106.830528,7.0,2.2,421.0
121.05,-128.347177105,0.5121306400000001,243.0,-57.0519825,13.8334425,-107.342281,6.85,2.2,420.0
121.1,-128.34722978,0.51212022,244.0,-57.086147,13.966282,-107.854034,6.7,2.2,419.0
121.15,-128.347276155,0.5121092300000001,244.5,-57.1267545,14.0381895,-108.1533085,6.6,2.2,418.5
121.2,-128.34732253,0.51209824,245.0,-57.167362,14.110097,-108.452583,6.5,2.2,418.0
121.25,-128.347375205,0.51208551,246.0,-57.45775,14.204286,-109.083267,6.35,2.3,417.5
121.3,-128.34742788,0.51207278,247.0,-57.748138,14.298475,-109.713951,6.2,2.4,417.0
121.35,-128.347474825,0.51206006,248.0,-57.896509,14.3465995,-110.03619,6.050000000000001,2.4,416.0
121.4,-128.34752177,0.51204734,249.0,-58.04488,14.394724,-110.358429,5.9,2.4,415.0
121.45,-128.34756929,0.512033465,250.0,-58.393791,14.46476,-110.9380265,5.85,2.4,414.5
121.5,-128.34761681,0.51201959,251.0,-58.742702,14.534796,-111.517624,5.8,2.4,414.0
121.55,-128.34765975,0.51200687,252.0,-59.0588245,14.591911,-112.0165785,5.75,2.4,413.5
121.6,-128.34770269,0.51199415,253.0,-59.374947,14.649026,-112.515533,5.7,2.4,413.0
121.65,-128.347757075,0.5119756550000001,254.0,-59.65712,14.704387,-112.9776035,5.6,2.45,412.0
121.7,-128.34781146,0.51195716,255.0,-59.939293,14.759748,-113.439674,5.5,2.5,411.0
121.75,-128.34785554,0.511942135,256.0,-60.3765545,14.863262,-114.223396,5.45,2.5,410.5
121.8,-128.34789962,0.51192711,257.0,-60.813816,14.966776,-115.007118,5.4,2.5,410.0
121.85,-128.3479437,0.5119103549999999,258.0,-61.0829775,15.030494999999998,-115.489544,5.4,2.5,409.5
121.9,-128.34798778,0.5118936,259.0,-61.352139,15.094214,-115.97197,5.4,2.5,409.0
121.95,-128.34803415,0.511875115,260.0,-61.721266,15.211212,-116.777052,5.45,2.5,408.5
122.0,-128.34808052,0.51185663,261.0,-62.090393,15.32821,-117.582134,5.5,2.5,408.0
122.05,-128.348122885,0.5118398749999999,262.0,-62.422476,15.4429895,-118.35256,5.65,2.45,407.5
122.1,-128.34816525,0.51182312,263.0,-62.754559,15.557769,-119.122986,5.8,2.4,407.0
122.15,-128.348211045,0.51180175,264.0,-62.980629,15.638611,-119.6649035,5.85,2.35,406.5
122.2,-128.34825684,0.51178038,265.0,-63.206699,15.719453,-120.206821,5.9,2.3,406.0
122.25,-128.34830091499998,0.5117601650000001,266.0,-63.5715485,15.8752325,-121.2445545,6.0,2.3,405.0
122.3,-128.34834499,0.51173995,267.0,-63.936398,16.031012,-122.282288,6.1,2.3,404.0
122.35,-128.348388495,0.5117180100000001,268.5,-64.1560155,16.124783,-122.9069425,6.25,2.3,403.5
122.4,-128.348432,0.51169607,270.0,-64.375633,16.218554,-123.531597,6.4,2.3,403.0
122.45,-128.34847722,0.5116718149999999,271.0,-64.6325605,16.3576845,-124.495302,6.550000000000001,2.3,402.5
122.5,-128.34852244,0.51164756,272.0,-64.889488,16.496815,-125.459007,6.7,2.3,402.0
122.55,-128.34855907500005,0.51162793,273.0,-65.067402,16.599924,-126.1798855,6.800000000000001,2.3,401.5
122.6,-128.34859571,0.5116083,274.0,-65.245316,16.703033,-126.900764,6.9,2.3,401.0
122.65,-128.34863977999998,0.511581745,275.0,-65.385254,16.795183,-127.543598,7.0,2.25,400.0
122.7,-128.34868385,0.51155519,276.0,-65.525192,16.887333,-128.186432,7.1,2.2,399.0
122.75,-128.34872449,0.51152979,277.5,-65.67033,17.031311000000002,-129.1854155,7.199999999999999,2.1500000000000004,398.5
122.8,-128.34876513,0.51150439,279.0,-65.815468,17.175289,-130.184399,7.3,2.1,398.0
122.85,-128.34880748,0.5114766850000001,280.0,-65.9053115,17.264412,-130.80276500000002,7.35,2.1,397.0
122.9,-128.34884983,0.51144898,281.0,-65.995155,17.353535,-131.421131,7.4,2.1,396.0
122.95,-128.34888188000002,0.51142647,282.0,-66.068615,17.465476000000002,-132.176262,7.5,2.1,395.5
123.0,-128.34891393,0.51140396,283.0,-66.142075,17.577417,-132.931393,7.6,2.1,395.0
123.05,-128.34895056,0.51137856,284.0,-66.212841,17.6994705,-133.749634,7.65,2.1,394.5
123.1,-128.34898719,0.51135316,285.0,-66.283607,17.821524,-134.567875,7.7,2.1,394.0
123.15,-128.349026675,0.511322,286.5,-66.331703,17.9074405,-135.1385575,7.7,2.05,393.0
123.2,-128.34906616,0.51129084,288.0,-66.379799,17.993357,-135.70924,7.7,2.0,392.0
123.25,-128.349105075,0.511259675,289.5,-66.458477,18.1651315,-136.796528,7.75,2.0,391.5
123.3,-128.34914399,0.51122851,291.0,-66.537155,18.336906,-137.883816,7.8,2.0,391.0
123.35,-128.34917718499997,0.5112008100000001,292.0,-66.5762025,18.4221485,-138.4233745,7.85,2.0,390.5
123.4,-128.34921038,0.51117311,293.0,-66.61525,18.507391,-138.962933,7.9,2.0,390.0
123.45,-128.34924471,0.51114253,294.0,-66.68491399999999,18.6392,-139.7854845,7.95,2.0,389.0
123.5,-128.34927904,0.51111195,295.0,-66.754578,18.771009,-140.608036,8.0,2.0,388.0
123.55,-128.34931681,0.511077325,296.5,-66.8284305,18.9053915,-141.44305400000002,8.1,2.05,387.5
123.6,-128.34935458,0.5110427,298.0,-66.902283,19.039774,-142.278072,8.2,2.1,387.0
123.65,-128.34938376000002,0.5110127,299.5,-66.937939,19.104657000000003,-142.68124,8.25,2.1,386.5
123.7,-128.34941294,0.5109827,301.0,-66.973595,19.16954,-143.084408,8.3,2.1,386.0
123.75,-128.349441545,0.5109538499999999,302.0,-67.024189,19.3018405,-143.976059,8.3,2.1,385.5
123.8,-128.34947015,0.510925,303.0,-67.074783,19.434141,-144.86771,8.3,2.1,385.0
123.85,-128.349503335,0.51088981,304.5,-67.1089935,19.5236245,-145.4708025,8.3,2.1500000000000004,384.5
123.9,-128.34953652,0.51085462,306.0,-67.143204,19.613108,-146.073895,8.3,2.2,384.0
123.95,-128.34956455499997,0.51082231,307.0,-67.1477245,19.6832285,-146.669825,8.25,2.2,383.0
124.0,-128.34959259,0.51079,308.0,-67.152245,19.753349,-147.265755,8.2,2.2,382.0
124.05,-128.3496252,0.510751925,309.5,-67.144394,19.822993,-147.9258995,8.1,2.2,381.5
124.1,-128.34965781,0.51071385,311.0,-67.136543,19.892637,-148.586044,8.0,2.2,381.0
124.15,-128.34968069,0.51068443,312.0,-67.13287700000001,19.925121,-148.893958,7.95,2.2,380.0
124.2,-128.34970357,0.51065501,313.0,-67.129211,19.957605,-149.201872,7.9,2.2,379.0
124.25,-128.34973274499998,0.510616935,314.5,-67.12482449999999,19.97719,-149.9333755,7.800000000000001,2.2,378.5
124.3,-128.34976192,0.51057886,316.0,-67.120438,19.996775,-150.664879,7.7,2.2,378.0
124.35,-128.349789375,0.5105419449999999,317.5,-67.11819499999999,20.0068225,-151.040162,7.6,2.25,377.5
124.4,-128.34981683,0.51050503,319.0,-67.115952,20.01687,-151.415445,7.5,2.3,377.0
124.45,-128.34984486000002,0.5104646500000001,320.5,-67.13882849999999,19.959913,-151.8194835,7.3,2.3,376.0
124.5,-128.34987289,0.51042427,322.0,-67.161705,19.902956,-152.223522,7.1,2.3,375.0
124.55,-128.349895195,0.510392545,323.0,-67.18405899999999,19.8460605,-152.504013,6.949999999999999,2.35,375.0
124.6,-128.3499175,0.51036082,324.0,-67.206413,19.789165,-152.784504,6.8,2.4,375.0
124.65,-128.349940945,0.51032275,325.5,-67.221153,19.7516505,-152.969449,6.6,2.4,374.5
124.7,-128.34996439,0.51028468,327.0,-67.235893,19.714136,-153.154394,6.4,2.4,374.0
124.75,-128.34998955499998,0.51024546,328.5,-67.19319899999999,19.490198,-153.3563565,6.15,2.4,373.0
124.8,-128.35001472,0.51020624,330.0,-67.150505,19.26626,-153.558319,5.9,2.4,372.0
124.85,-128.350039885,0.5101635600000001,331.5,-67.1252555,19.133825,-153.677759,5.6,2.4,371.5
124.9,-128.35006505,0.51012088,333.0,-67.100006,19.00139,-153.797199,5.3,2.4,371.0
124.95,-128.35008449,0.510087425,334.0,-67.056671,18.816637,-153.97031750000002,5.1,2.35,371.0
125.0,-128.35010393,0.51005397,335.0,-67.013336,18.631884,-154.143436,4.9,2.3,371.0
125.05,-128.35012623,0.51001475,336.5,-66.964981,18.4324525,-154.33156350000002,4.7,2.25,370.5
125.1,-128.35014853,0.50997553,338.0,-66.916626,18.233021,-154.519691,4.5,2.2,370.0
125.15,-128.350169115,0.5099374649999999,339.5,-66.892086,18.102695500000003,-154.670616,4.35,2.2,369.5
125.2,-128.3501897,0.5098994,341.0,-66.867546,17.97237,-154.821541,4.2,2.2,369.0
125.25,-128.350212,0.5098584500000001,342.0,-66.8554,17.752470000000002,-155.1920595,4.05,2.2,369.0
125.3,-128.3502343,0.5098175,343.0,-66.843254,17.53257,-155.562578,3.9,2.2,369.0
125.35,-128.35025088,0.50978405,344.5,-66.83734150000001,17.425544000000002,-155.7429095,3.8,2.1500000000000004,368.5
125.4,-128.35026746,0.5097506,346.0,-66.831429,17.318518,-155.923241,3.7,2.1,368.0
125.45,-128.35028804,0.50971023,347.0,-66.90212650000001,17.1693925,-156.335453,3.65,2.1,367.5
125.5,-128.35030862,0.50966986,348.0,-66.972824,17.020267,-156.747665,3.6,2.1,367.0
125.55,-128.35032977499998,0.5096271800000001,349.5,-67.06896950000001,16.8801765,-157.19552900000002,3.6,2.1,367.0
125.6,-128.35035093,0.5095845,351.0,-67.165115,16.740086,-157.643393,3.6,2.1,367.0
125.65,-128.350367505,0.50954817,352.0,-67.234268,16.671682500000003,-157.886405,3.65,2.1,366.5
125.7,-128.35038408,0.50951184,353.0,-67.303421,16.603279,-158.129417,3.7,2.1,366.0
125.75,-128.35040465999998,0.50946801,354.0,-67.681366,16.478635,-158.84832649999998,3.75,2.1,366.0
125.8,-128.35042524,0.50942418,355.0,-68.059311,16.353991,-159.567236,3.8,2.1,366.0
125.85,-128.350441245,0.509387845,356.5,-68.242016,16.293734999999998,-159.9147795,3.9,2.05,365.5
125.9,-128.35045725,0.50935151,358.0,-68.424721,16.233479,-160.262323,4.0,2.0,365.0
125.95,-128.350473255,0.509314605,359.0,-68.78681950000001,16.1690495,-160.8428905,4.1,2.05,365.0
126.0,-128.35048926,0.5092777,360.0,-69.148918,16.10462,-161.423458,4.2,2.1,365.0
126.05,-128.35050697499997,0.5092361750000001,361.0,-69.59726699999999,16.038832,-162.1147975,4.300000000000001,2.1,364.5
126.1,-128.35052469,0.50919465,362.0,-70.045616,15.973044,-162.806137,4.4,2.1,364.0
126.15,-128.35054012,0.5091531300000001,363.0,-70.3123895,15.9343325,-163.2219695,4.550000000000001,2.1,363.5
126.2,-128.35055555,0.50911161,364.0,-70.579163,15.895621,-163.637802,4.7,2.1,363.0
126.25,-128.35057040499998,0.5090735500000001,365.0,-71.089573,15.8258265,-164.4782955,4.800000000000001,2.1500000000000004,363.0
126.3,-128.35058526,0.50903549,366.0,-71.599983,15.756032,-165.318789,4.9,2.2,363.0
126.35,-128.35060125500002,0.508989935,367.5,-71.946304,15.708675,-165.889075,5.050000000000001,2.2,362.5
126.4,-128.35061725,0.50894438,369.0,-72.292625,15.661318,-166.459361,5.2,2.2,362.0
126.45,-128.35063039,0.508905745,370.0,-72.600925,15.588197,-167.21522149999998,5.35,2.2,362.0
126.5,-128.35064353,0.50886711,371.0,-72.909225,15.515076,-167.971082,5.5,2.2,362.0
126.55,-128.350655525,0.50883078,371.5,-73.135242,15.455602,-168.57225799999998,5.6,2.2,361.5
126.6,-128.35066752,0.50879445,372.0,-73.361259,15.396128,-169.173434,5.7,2.2,361.0
126.65,-128.35068065500002,0.50874832,373.5,-73.5132025,15.348884,-169.62980399999998,5.85,2.2,361.0
126.7,-128.35069379,0.50870219,375.0,-73.665146,15.30164,-170.086174,6.0,2.2,361.0
126.75,-128.35070407,0.50866644,375.5,-73.746857,15.2030965,-170.857518,6.05,2.2,360.5
126.8,-128.35071435,0.50863069,376.0,-73.828568,15.104553,-171.628862,6.1,2.2,360.0
126.85,-128.35072691,0.508583985,377.0,-73.887238,15.0337945,-172.182726,6.199999999999999,2.2,359.5
126.9,-128.35073947,0.50853728,378.0,-73.945908,14.963036,-172.73659,6.3,2.2,359.0
126.95,-128.350748595,0.508497495,379.0,-73.925415,14.872309,-173.34934700000002,6.35,2.2,359.0
127.0,-128.35075772,0.50845771,380.0,-73.904922,14.781582,-173.962104,6.4,2.2,359.0
127.05,-128.350768565,0.50841158,381.0,-73.85502199999999,14.680255,-174.618961,6.45,2.1500000000000004,358.5
127.1,-128.35077941,0.50836545,382.0,-73.805122,14.578928,-175.275818,6.5,2.1,358.0
127.15,-128.35078625,0.50832855,383.0,-73.78195149999999,14.5318835,-175.5807845,6.55,2.05,357.5
127.2,-128.35079309,0.50829165,384.0,-73.758781,14.484839,-175.885751,6.6,2.0,357.0
127.25,-128.35079993,0.508253595,384.5,-73.624424,14.354724999999998,-176.616283,6.65,2.0,357.0
127.3,-128.35080677,0.50821554,385.0,-73.490067,14.224611,-177.346815,6.7,2.0,357.0
127.35,-128.35081361,0.50817806,386.0,-73.410454,14.1484975,-177.772529,6.7,1.95,357.0
127.4,-128.35082045,0.50814058,387.0,-73.330841,14.072384,-178.198243,6.7,1.9,357.0
127.45,-128.35082784999997,0.508085235,388.0,-73.1762695,13.9405155,-123.1899495,6.7,1.85,356.5
127.5,-128.35083525,0.50802989,389.0,-73.021698,13.808647,-68.181656,6.7,1.8,356.0
127.55,-128.350840945,0.50799068,390.0,-72.91133500000001,13.7174565,-18.5100555,6.65,1.8,355.5
127.6,-128.35084664,0.50795147,391.0,-72.800972,13.626266,31.161545,6.6,1.8,355.0
127.65,-128.350850615,0.507909385,392.0,-72.728554,13.5664285,63.7551805,6.6,1.75,355.0
127.7,-128.35085459,0.5078673,393.0,-72.656136,13.506591,96.348816,6.6,1.7,355.0
127.75,-128.350858565,0.50782579,393.5,-72.4731065,13.3745675,113.3356935,6.55,1.7,355.0
127.8,-128.35086254,0.50778428,394.0,-72.290077,13.242544,130.322571,6.5,1.7,355.0
127.85,-128.35086537,0.50774738,395.0,-72.168987,13.155194,141.561386,6.5,1.7,354.5
127.9,-128.3508682,0.50771048,396.0,-72.047897,13.067844,152.800201,6.5,1.7,354.0
127.95,-128.35086932500002,0.5076816550000001,396.0,-71.9582825,13.0120765,155.5847625,6.5,1.7,354.0
128.0,-128.35087045,0.50765283,396.0,-71.868668,12.956309,158.369324,6.5,1.7,354.0
128.05,-128.35087383,0.507589415,397.5,-71.6725275,12.8375545,162.410416,6.5,1.75,354.0
128.1,-128.35087721,0.507526,399.0,-71.476387,12.7188,166.451508,6.5,1.8,354.0
128.15,-128.350877745,0.5074810350000001,400.0,-71.3994825,12.6722335,168.036118,6.5,1.8,353.5
128.2,-128.35087828,0.50743607,401.0,-71.322578,12.625667,169.620728,6.5,1.8,353.0
128.25,-128.35087882,0.5073922550000001,401.5,-71.111942,12.5199705,169.9908145,6.55,1.8,353.0
128.3,-128.35087936,0.50734844,402.0,-70.901306,12.414274,170.360901,6.6,1.8,353.0
128.35,-128.35087818,0.50730751,403.0,-70.796459,12.3616655,170.545105,6.55,1.8,352.5
128.4,-128.350877,0.50726658,404.0,-70.691612,12.309057,170.729309,6.5,1.8,352.0
128.45,-128.35087582,0.507223345,404.5,-70.513176,12.2232735,170.54924,6.5,1.8,352.0
128.5,-128.35087464,0.50718011,405.0,-70.33474,12.13749,170.369171,6.5,1.8,352.0
128.55,-128.350873465,0.507144945,405.5,-70.20023,12.073423,170.15486149999998,6.5,1.8,352.0
128.6,-128.35087229,0.50710978,406.0,-70.06572,12.009356,169.940552,6.5,1.8,352.0
128.65,-128.35086939500002,0.5070705799999999,407.0,-69.970028,11.9637745,169.788071,6.5,1.8,351.5
128.7,-128.3508665,0.50703138,408.0,-69.874336,11.918193,169.63559,6.5,1.8,351.0
128.75,-128.350863025,0.50698296,408.5,-69.625576,11.8016575,169.1001435,6.45,1.75,351.0
128.8,-128.35085955,0.50693454,409.0,-69.376816,11.685122,168.564697,6.4,1.7,351.0
128.85,-128.35085608,0.50689707,409.5,-69.2466355,11.6242005,168.279724,6.4,1.7,351.0
128.9,-128.35085261,0.5068596,410.0,-69.116455,11.563279,167.994751,6.4,1.7,351.0
128.95,-128.35084742,0.5068111799999999,411.0,-68.92208099999999,11.478093,167.55003349999998,6.35,1.7,351.0
129.0,-128.35084223,0.50676276,412.0,-68.727707,11.392907,167.105316,6.3,1.7,351.0
129.05,-128.35083761,0.506721255,412.5,-68.5403405,11.313254,166.6684875,6.3,1.7,351.0
129.1,-128.35083299,0.50667975,413.0,-68.352974,11.233601,166.231659,6.3,1.7,351.0
129.15,-128.35082666,0.5066405549999999,413.5,-68.241043,11.1860165,165.970703,6.3,1.65,351.0
129.2,-128.35082033,0.50660136,414.0,-68.129112,11.138432,165.709747,6.3,1.6,351.0
129.25,-128.350813995,0.506559285,415.0,-67.881981,11.046802,165.1015775,6.3,1.6,350.5
129.3,-128.35080766,0.50651721,416.0,-67.63485,10.955172,164.493408,6.3,1.6,350.0
129.35,-128.35080133,0.506479165,416.5,-67.4963955,10.9040805,164.1520995,6.3,1.6,350.0
129.4,-128.350795,0.50644112,417.0,-67.357941,10.852989,163.810791,6.3,1.6,350.0
129.45,-128.35078637499998,0.50639616,417.5,-67.172211,10.789921,163.3379365,6.25,1.6,350.0
129.5,-128.35077775,0.5063512,418.0,-66.986481,10.726853,162.865082,6.2,1.6,350.0
129.55,-128.3507697,0.5063097,418.5,-66.8020935,10.6672285,162.3875125,6.2,1.6,350.0
129.6,-128.35076165,0.5062682,419.0,-66.617706,10.607604,161.909943,6.2,1.6,350.0
129.65,-128.350751875,0.506224395,419.5,-66.501911,10.5701585,161.610001,6.2,1.6,350.0
129.7,-128.3507421,0.50618059,420.0,-66.386116,10.532713,161.310059,6.2,1.6,350.0
129.75,-128.350732905,0.50614082,420.5,-66.1658745,10.4709565,160.719147,6.25,1.6,349.5
129.8,-128.35072371,0.50610105,421.0,-65.945633,10.4092,160.128235,6.3,1.6,349.0
