Time,Longitude,Latitude,Altitude,Roll,Pitch,Yaw,AOA,AOS,TAS
49.85,-128.264235375,0.50487292,2419.0,-4.0049755,26.8220055,-89.43221249999999,-0.85,3.25,574.0
49.9,-128.26430124,0.50487287,2423.0,-3.951685,26.675152,-89.405525,-1.0,3.3,573.0
49.95,-128.26435908500002,0.50487282,2426.5,-3.884286,26.1466905,-89.320572,-1.25,3.35,572.5
50.0,-128.26441693,0.50487277,2430.0,-3.816887,25.618229,-89.235619,-1.5,3.4,572.0
50.05,-128.26448394,0.50487214,2433.5,-3.7466225,24.988532,-89.135296,-1.9,3.45,571.0
50.1,-128.26455095,0.50487151,2437.0,-3.676358,24.358835,-89.034973,-2.3,3.5,570.0
50.15,-128.26460879500002,0.5048714599999999,2440.5,-3.6268145,23.9363155,-88.9707565,-2.55,3.2,569.5
50.2,-128.26466664,0.50487141,2444.0,-3.577271,23.513796,-88.90654,-2.8,2.9,569.0
50.25,-128.26473250499998,0.50487136,2447.5,-3.4569065,22.567875,-88.774956,-3.1,2.55,568.5
50.3,-128.26479837,0.50487131,2451.0,-3.336542,21.621954,-88.643372,-3.4,2.2,568.0
50.35,-128.26485507,0.50487126,2454.5,-3.278828,21.1683905,-88.5802765,-3.6,1.7000000000000002,567.5
50.4,-128.26491177,0.50487121,2458.0,-3.221114,20.714827,-88.517181,-3.8,1.2,567.0
50.45,-128.26497763499998,0.50487116,2461.0,-3.076044,20.2033445,-88.4122275,-3.8,0.5,566.5
50.5,-128.2650435,0.50487111,2464.0,-2.930974,19.691862,-88.307274,-3.8,-0.2,566.0
50.55,-128.265109935,0.504871055,2467.5,-2.8129065,19.330248,-88.2265205,-3.7,-0.8,565.5
50.6,-128.26517637,0.504871,2471.0,-2.694839,18.968634,-88.145767,-3.6,-1.4,565.0
50.65,-128.26523937000002,0.504870945,2474.0,-2.5797030000000003,18.747758,-88.07652250000001,-3.55,-1.2999999999999998,564.5
50.7,-128.26530237,0.50487089,2477.0,-2.464567,18.526882,-88.007278,-3.5,-1.2,564.0
50.75,-128.26537167499998,0.50487141,2480.0,-2.242786,18.2923765,-87.88765699999999,-3.4,-1.05,563.5
50.8,-128.26544098,0.50487193,2483.0,-2.021005,18.057871,-87.768036,-3.3,-0.9,563.0
50.85,-128.26549997,0.504871885,2486.0,-1.911544,17.94213,-87.708996,-3.25,-0.95,562.5
50.9,-128.26555896,0.50487184,2489.0,-1.802083,17.826389,-87.649956,-3.2,-1.0,562.0
50.95,-128.265625395,0.50487236,2491.5,-1.5664030000000002,17.3053595,-87.477024,-3.25,-1.1,562.0
51.0,-128.26569183,0.50487288,2494.0,-1.330723,16.78433,-87.304092,-3.3,-1.2,562.0
51.05,-128.265749675,0.50487341,2496.5,-1.1569525,16.3756445,-87.172451,-3.45,-1.15,561.5
51.1,-128.26580752,0.50487394,2499.0,-0.983182,15.966959,-87.04081,-3.6,-1.1,561.0
51.15,-128.26586594000003,0.50487447,2501.5,-0.8624620000000001,15.6701675,-86.948601,-3.75,-0.65,560.5
51.2,-128.26592436,0.504875,2504.0,-0.741742,15.373376,-86.856392,-3.9,-0.2,560.0
51.25,-128.26599538,0.5048755149999999,2507.0,-0.432493,14.468521,-86.6116335,-4.1,0.35,559.5
51.3,-128.2660664,0.50487603,2510.0,-0.123244,13.563666,-86.366875,-4.3,0.9,559.0
51.35,-128.26612539,0.50487656,2512.0,0.0169329999999999,13.1535115,-86.255932,-4.4,1.2,559.0
51.4,-128.26618438,0.50487709,2514.0,0.15711,12.743357,-86.144989,-4.5,1.5,559.0
51.45,-128.26625482999998,0.504878185,2516.5,0.4166785,12.1479035,-85.9303705,-4.55,1.7,558.5
51.5,-128.26632528,0.50487928,2519.0,0.676247,11.55245,-85.715752,-4.6,1.9,558.0
51.55,-128.26638599,0.5048803850000001,2521.0,0.8553850000000001,11.1615735,-85.566513,-4.55,2.05,557.5
51.6,-128.2664467,0.50488149,2523.0,1.034523,10.770697,-85.417274,-4.5,2.2,557.0
51.65,-128.26651829,0.504882585,2525.0,1.240058,10.4696295,-85.3104435,-4.45,2.3,557.0
51.7,-128.26658988,0.50488368,2527.0,1.445593,10.168562,-85.203613,-4.4,2.4,557.0
51.75,-128.26665459999998,0.504885355,2529.0,1.7829864999999998,9.88452,-85.120075,-4.25,2.4,556.5
51.8,-128.26671932,0.50488703,2531.0,2.12038,9.600478,-85.036537,-4.1,2.4,556.0
51.85,-128.266780605,0.50488871,2532.5,2.3156725,9.4360675,-84.988182,-4.0,2.5,555.5
51.9,-128.26684189,0.50489039,2534.0,2.510965,9.271657,-84.939827,-3.9,2.6,555.0
51.95,-128.266908325,0.504892065,2536.0,2.8677,9.074116,-84.949375,-3.75,2.6500000000000004,555.0
52.0,-128.26697476,0.50489374,2538.0,3.224435,8.876575,-84.958923,-3.6,2.7,555.0
52.05,-128.267042345,0.504895415,2539.5,3.5334305,8.7221785,-84.983112,-3.45,2.7,554.5
52.1,-128.26710993,0.50489709,2541.0,3.842426,8.567782,-85.007301,-3.3,2.7,554.0
52.15,-128.26717236000002,0.504899345,2542.5,4.0313185,8.448991,-85.0182455,-3.2,2.55,554.0
52.2,-128.26723479,0.5049016,2544.0,4.220211,8.3302,-85.02919,-3.1,2.4,554.0
52.25,-128.267298365,0.50490328,2545.5,4.453202,8.119036,-85.0324975,-3.05,2.3,554.0
52.3,-128.26736194,0.50490496,2547.0,4.686193,7.907872,-85.035805,-3.0,2.2,554.0
52.35,-128.26743697,0.5049077799999999,2549.0,4.8436665,7.7651515,-85.038048,-2.95,2.1,554.0
52.4,-128.267512,0.5049106,2551.0,5.00114,7.622431,-85.040291,-2.9,2.0,554.0
52.45,-128.26757099000002,0.50491286,2552.0,5.029695500000001,7.370601,-84.878418,-2.85,2.0,553.5
52.5,-128.26762998,0.50491512,2553.0,5.058251,7.118771,-84.716545,-2.8,2.0,553.0
52.55,-128.267699285,0.5049173650000001,2554.5,5.06482,6.887907,-84.5550955,-2.75,2.0,553.0
52.6,-128.26776859,0.50491961,2556.0,5.071389,6.657043,-84.393646,-2.7,2.0,553.0
52.65,-128.26783331,0.50492244,2557.0,5.0811785,6.527286999999999,-84.276779,-2.6500000000000004,1.95,553.0
52.7,-128.26789803,0.50492527,2558.0,5.090968,6.397531,-84.159912,-2.6,1.9,553.0
52.75,-128.26795988499998,0.5049281050000001,2559.5,5.133823,6.254397,-83.8936575,-2.5,1.9,553.0
52.8,-128.26802174,0.50493094,2561.0,5.176678,6.111263,-83.627403,-2.4,1.9,553.0
52.85,-128.2680899,0.5049337650000001,2562.0,5.202954999999999,6.023499,-83.4641455,-2.3,2.05,553.0
52.9,-128.26815806,0.50493659,2563.0,5.229232,5.935735,-83.300888,-2.2,2.2,553.0
52.95,-128.26822048999998,0.5049399999999999,2564.0,5.475623,5.9401685,-83.202839,-2.05,2.4000000000000004,553.0
53.0,-128.26828292,0.50494341,2565.0,5.722014,5.944602,-83.10479,-1.9,2.6,553.0
53.05,-128.26835795,0.50494681,2566.0,6.0486915,5.9800165,-83.0259365,-1.7,2.7,552.5
53.1,-128.26843298,0.50495021,2567.0,6.375369,6.015431,-82.947083,-1.5,2.8,552.0
53.15,-128.268500565,0.50495419,2568.5,6.689699,6.036004,-82.910561,-1.35,2.75,552.0
53.2,-128.26856815,0.50495817,2570.0,7.004029,6.056577,-82.874039,-1.2,2.7,552.0
53.25,-128.26863229999998,0.50496215,2570.5,7.468491,6.0737755,-82.858532,-1.15,2.6,552.0
53.3,-128.26869645,0.50496613,2571.0,7.932953,6.090974,-82.843025,-1.1,2.5,552.0
53.35,-128.268756015,0.504969545,2572.0,8.188727,6.100445000000001,-82.834484,-1.0,2.4,552.0
53.4,-128.26881558,0.50497296,2573.0,8.444501,6.109916,-82.825943,-0.9,2.3,552.0
53.45,-128.26888316499998,0.504977515,2574.0,8.698283,6.052192,-82.6594125,-0.8500000000000001,2.25,552.0
53.5,-128.26895075,0.50498207,2575.0,8.952065,5.994468,-82.492882,-0.8,2.2,552.0
53.55,-128.26901089,0.50498548,2576.0,9.1168815,5.9379185,-82.33984749999999,-0.75,2.2,551.5
53.6,-128.26907103,0.50498889,2577.0,9.281698,5.881369,-82.186813,-0.7,2.2,551.0
53.65,-128.26914205,0.50499402,2578.0,9.4026575,5.8316315,-82.0376545,-0.6499999999999999,2.5,551.0
53.7,-128.26921307,0.50499915,2579.0,9.523617,5.781894,-81.888496,-0.6,2.8,551.0
53.75,-128.269286385,0.5050048549999999,2580.0,9.6463135,5.6967035,-81.58177549999999,-0.55,3.2,551.0
53.8,-128.2693597,0.50501056,2581.0,9.76901,5.611513,-81.275055,-0.5,3.6,551.0
53.85,-128.26941812,0.505015125,2582.0,9.8254505,5.572324500000001,-81.133957,-0.45,3.75,551.0
53.9,-128.26947654,0.50501969,2583.0,9.881891,5.533136,-80.992859,-0.4,3.9,551.0
53.95,-128.26952981,0.505023685,2583.5,10.2108825,5.481857,-80.9264105,-0.4,3.75,551.0
54.0,-128.26958308,0.50502768,2584.0,10.539874,5.430578,-80.859962,-0.4,3.6,551.0
54.05,-128.26965353,0.505033965,2585.0,10.8552215,5.388317499999999,-80.8256795,-0.4,3.4000000000000004,551.0
54.1,-128.26972398,0.50504025,2586.0,11.170569,5.346057,-80.791397,-0.4,3.2,551.0
54.15,-128.269807605,0.5050476749999999,2587.0,11.5481625,5.2953155,-80.833931,-0.35,3.1,550.5
54.2,-128.26989123,0.5050551,2588.0,11.925756,5.244574,-80.876465,-0.3,3.0,550.0
54.25,-128.269948505,0.50506082,2588.5,12.4251795,5.1772905,-81.0340425,-0.3,2.95,550.0
54.3,-128.27000578,0.50506654,2589.0,12.924603,5.110007,-81.19162,-0.3,2.9,550.0
54.35,-128.27006477499998,0.505072255,2590.0,13.283396,5.06167,-81.3048325,-0.35,2.75,550.0
54.4,-128.27012377,0.50507797,2591.0,13.642189,5.013333,-81.418045,-0.4,2.6,550.0
54.45,-128.27020453,0.5050859750000001,2592.0,13.9439905,4.9221900000000005,-81.5419465,-0.4,2.35,550.0
54.5,-128.27028529,0.50509398,2593.0,14.245792,4.831047,-81.665848,-0.4,2.1,550.0
54.55,-128.27034715000002,0.505100275,2593.5,14.416545,4.7693695,-81.74168399999999,-0.4,1.9,550.0
54.6,-128.27040901,0.50510657,2594.0,14.587298,4.707692,-81.81752,-0.4,1.7,550.0
54.65,-128.270471445,0.50511286,2595.0,14.670055,4.6604255,-81.848133,-0.45,1.6,550.0
54.7,-128.27053388,0.50511915,2596.0,14.752812,4.613159,-81.878746,-0.5,1.5,550.0
54.75,-128.27060089499997,0.505126015,2596.5,14.630719,4.506840499999999,-81.77129,-0.5,1.45,550.0
54.8,-128.27066791,0.50513288,2597.0,14.508626,4.400522,-81.663834,-0.5,1.4,550.0
54.85,-128.27070915,0.5051374550000001,2597.5,14.4459095,4.3459085,-81.60863499999999,-0.5,1.4,550.0
54.9,-128.27075039,0.50514203,2598.0,14.383193,4.291295,-81.553436,-0.5,1.4,550.0
54.95,-128.270832295,0.5051511900000001,2599.0,14.264818,4.218401500000001,-81.3884315,-0.5,1.45,550.0
55.0,-128.2709142,0.50516035,2600.0,14.146443,4.145508,-81.223427,-0.5,1.5,550.0
55.05,-128.27099439,0.50516951,2600.5,14.0157,4.0755415,-81.0199355,-0.5,1.6,550.0
55.1,-128.27107458,0.50517867,2601.0,13.884957,4.005575,-80.816444,-0.5,1.7,550.0
55.15,-128.271121545,0.505184395,2601.5,13.8285785,3.975404,-80.72869850000001,-0.45,1.7999999999999998,550.0
55.2,-128.27116851,0.50519012,2602.0,13.7722,3.945233,-80.640953,-0.4,1.9,550.0
55.25,-128.271255,0.5052004299999999,2603.0,14.125758,3.8841095,-80.4378545,-0.35,2.05,550.0
55.3,-128.27134149,0.50521074,2604.0,14.479316,3.822986,-80.234756,-0.3,2.2,550.0
55.35,-128.2714108,0.5052193300000001,2604.5,14.6441355,3.7944915,-80.1400755,-0.25,2.25,550.0
55.4,-128.27148011,0.50522792,2605.0,14.808955,3.765997,-80.045395,-0.2,2.3,550.0
55.45,-128.27154197,0.5052353650000001,2605.5,16.653474,3.770548,-80.1588785,-0.1,2.3,550.0
55.5,-128.27160383,0.50524281,2606.0,18.497993,3.775099,-80.272362,-0.0,2.3,550.0
55.55,-128.27167371000002,0.50525198,2607.0,20.342412000000003,3.784993,-80.4052085,0.05,2.2,550.0
55.6,-128.27174359,0.50526115,2608.0,22.186831,3.794887,-80.538055,0.1,2.1,550.0
55.65,-128.27180316,0.50526917,2608.5,24.128855,3.86863,-80.619461,0.15,1.85,549.5
55.7,-128.27186273,0.50527719,2609.0,26.070879,3.942373,-80.700867,0.2,1.6,549.0
55.75,-128.27193318000002,0.505286935,2609.5,31.208470500000004,4.253432999999999,-80.8091125,0.3,1.1,549.0
55.8,-128.27200363,0.50529668,2610.0,36.346062,4.564493,-80.917358,0.4,0.6,549.0
55.85,-128.27206836,0.5053064300000001,2610.5,38.9732325,4.7235565,-80.97271699999999,0.5,0.15,548.5
55.9,-128.27213309,0.50531618,2611.0,41.600403,4.88262,-81.028076,0.6,-0.3,548.0
55.95,-128.27220297000002,0.5053265,2611.5,47.5637245,5.4874875,-80.1322175,0.95,-0.75,548.0
56.0,-128.27227285,0.50533682,2612.0,53.527046,6.092355,-79.236359,1.3,-1.2,548.0
56.05,-128.272335285,0.505345995,2612.5,57.704752,6.535185500000001,-78.528809,1.65,-1.65,548.0
56.1,-128.27239772,0.50535517,2613.0,61.882458,6.978016,-77.821259,2.0,-2.1,548.0
56.15,-128.272468175,0.505367795,2613.5,65.7591075,7.277518000000001,-76.8776665,2.4,-2.7,547.5
56.2,-128.27253863,0.50538042,2614.0,69.635757,7.57702,-75.934074,2.8,-3.3,547.0
56.25,-128.27260049,0.5053919,2615.0,75.42783349999999,7.736111,-73.78133,3.4,-3.7,546.5
56.3,-128.27266235,0.50540338,2616.0,81.21991,7.895202,-71.628586,4.0,-4.1,546.0
56.35,-128.2727225,0.50541659,2616.0,84.442196,7.9837085,-70.430954,4.5,-4.55,545.5
56.4,-128.27278265,0.5054298,2616.0,87.664482,8.072215,-69.233322,5.0,-5.0,545.0
56.45,-128.27284967,0.505446465,2616.5,92.5482025,7.2498135,-67.308502,5.45,-5.3,544.0
56.5,-128.27291669,0.50546313,2617.0,97.431923,6.427412,-65.383682,5.9,-5.6,543.0
56.55,-128.2729734,0.5054775,2617.5,100.691597,5.746109000000001,-64.0837555,6.300000000000001,-5.65,543.0
56.6,-128.27303011,0.50549187,2618.0,103.951271,5.064806,-62.783829,6.7,-5.7,543.0
56.65,-128.273100575,0.505514875,2618.5,106.9497755,4.1241825,-61.70765299999999,7.15,-5.800000000000001,541.5
56.7,-128.27317104,0.50553788,2619.0,109.94828,3.183559,-60.631477,7.6,-5.9,540.0
56.75,-128.27320828,0.505550535,2619.0,112.89447,1.613141,-59.820236,7.75,-5.800000000000001,540.0
56.8,-128.27324552,0.50556319,2619.0,115.84066,0.042723,-59.008995,7.9,-5.7,540.0
56.85,-128.27333088,0.50559483,2619.0,118.37381,-1.307528,-58.3114855,8.25,-5.25,539.0
56.9,-128.27341624,0.50562647,2619.0,120.90696,-2.657779,-57.613976,8.6,-4.8,538.0
56.95,-128.27347353,0.50565064,2618.5,123.422577,-4.5918535,-57.371708,8.649999999999999,-4.4,537.0
57.0,-128.27353082,0.50567481,2618.0,125.938194,-6.525928,-57.12944,8.7,-4.0,536.0
57.05,-128.27357952,0.5056949500000001,2617.5,127.465389,-7.763336,-57.030414500000006,8.7,-3.5,536.0
57.1,-128.27362822,0.50571509,2617.0,128.992584,-9.000744,-56.931389,8.7,-3.0,536.0
57.15,-128.27366546000002,0.50573293,2616.5,129.92870299999998,-9.759241,-56.8706855,8.7,-2.7,535.5
57.2,-128.2737027,0.50575077,2616.0,130.864822,-10.517738,-56.809982,8.7,-2.4,535.0
57.25,-128.27379552000002,0.50579624,2614.5,133.6174465,-12.810854,-57.0373955,8.399999999999999,-1.6,534.5
57.3,-128.27388834,0.50584171,2613.0,136.370071,-15.10397,-57.264809,8.1,-0.8,534.0
57.35,-128.27393876000002,0.505867615,2612.0,137.3628765,-15.932109,-57.3537065,7.9,-0.4,533.5
57.4,-128.27398918,0.50589352,2611.0,138.355682,-16.760248,-57.442604,7.7,0.0,533.0
57.45,-128.27403959999998,0.505921155,2609.5,139.855362,-17.781726,-57.5103185,7.550000000000001,0.3,533.0
57.5,-128.27409002,0.50594879,2608.0,141.355042,-18.803204,-57.578033,7.4,0.6,533.0
57.55,-128.27415305,0.505982755,2606.5,143.012291,-19.870866,-57.635124,7.15,0.8500000000000001,533.0
57.6,-128.27421608,0.50601672,2605.0,144.66954,-20.938528,-57.692215,6.9,1.1,533.0
57.65,-128.27426421,0.5060449300000001,2603.0,145.8635025,-21.649872,-57.650448,6.7,1.2000000000000002,533.0
57.7,-128.27431234,0.50607314,2601.0,147.057465,-22.361216,-57.608681,6.5,1.3,533.0
57.75,-128.274369065,0.50610596,2599.0,148.363686,-23.06872,-57.461674,6.25,1.3,533.0
57.8,-128.27442579,0.50613878,2597.0,149.669907,-23.776224,-57.314667,6.0,1.3,533.0
57.85,-128.274479655,0.506171025,2594.5,150.5098955,-24.231199,-57.220135,5.7,1.25,533.5
57.9,-128.27453352,0.50620327,2592.0,151.349884,-24.686174,-57.125603,5.4,1.2,534.0
57.95,-128.27458967,0.5062372399999999,2589.5,152.3146135,-25.4432465,-56.714928,5.25,1.05,534.0
58.0,-128.27464582,0.50627121,2587.0,153.279343,-26.200319,-56.304253,5.1,0.9,534.0
58.05,-128.274696245,0.5063017249999999,2584.5,153.89460000000005,-26.722017,-55.992283,4.949999999999999,0.75,534.5
58.1,-128.27474667,0.50633224,2582.0,154.509857,-27.243715,-55.680313,4.8,0.6,535.0
58.15,-128.274798245,0.5063656400000001,2578.5,154.857315,-27.6724955,-55.4088135,4.699999999999999,0.4499999999999999,535.0
58.2,-128.27484982,0.50639904,2575.0,155.204773,-28.101276,-55.137314,4.6,0.3,535.0
58.25,-128.274902535,0.506432435,2572.0,155.28669,-28.9328375,-54.554336500000005,4.55,0.2,535.5
58.3,-128.27495525,0.50646583,2569.0,155.368607,-29.764399,-53.971359,4.5,0.1,536.0
58.35,-128.275005105,0.506498655,2565.5,155.4151615,-30.237061,-53.639984,4.45,-0.05,536.5
58.4,-128.27505496,0.50653148,2562.0,155.461716,-30.709723,-53.308609,4.4,-0.2,537.0
58.45,-128.27510252000002,0.5065631500000001,2558.5,154.9496385,-31.503461,-52.7548025,4.4,-0.3,537.5
58.5,-128.27515008,0.50659482,2555.0,154.437561,-32.297199,-52.200996,4.4,-0.4,538.0
58.55,-128.275195925,0.506625915,2552.0,153.9464185,-32.9514885,-51.7447925,4.4,-0.45,538.5
58.6,-128.27524177,0.50665701,2549.0,153.455276,-33.605778,-51.288589,4.4,-0.5,539.0
58.65,-128.27528933500002,0.5066909900000001,2545.0,152.911499,-34.212986,-50.8670805,4.45,-0.55,539.5
58.7,-128.2753369,0.50672497,2541.0,152.367722,-34.820194,-50.445572,4.5,-0.6,540.0
58.75,-128.27537816,0.5067543400000001,2537.5,151.327507,-35.7656935,-49.7933885,4.55,-0.6499999999999999,540.5
58.8,-128.27541942,0.50678371,2534.0,150.287292,-36.711193,-49.141205,4.6,-0.7,541.0
58.85,-128.27546812999998,0.5068199950000001,2529.5,149.6048505,-37.331499,-48.713341,4.699999999999999,-0.7,541.5
58.9,-128.27551684,0.50685628,2525.0,148.922409,-37.951805,-48.285477,4.8,-0.7,542.0
58.95,-128.275558675,0.5068879550000001,2520.5,147.9073485,-38.8515165,-47.636925000000005,4.85,-0.6499999999999999,542.5
59.0,-128.27560051,0.50691963,2516.0,146.892288,-39.751228,-46.988373,4.9,-0.6,543.0
59.05,-128.27564005,0.50695073,2512.0,146.0687865,-40.4785195,-46.460800500000005,4.95,-0.6,543.5
59.1,-128.27567959,0.50698183,2508.0,145.245285,-41.205811,-45.933228,5.0,-0.6,544.0
59.15,-128.275720855,0.5070158149999999,2503.0,144.635765,-41.7179185,-45.572258000000005,5.0,-0.5,544.5
59.2,-128.27576212,0.5070498,2498.0,144.026245,-42.230026,-45.211288,5.0,-0.4,545.0
59.25,-128.27580109000002,0.50708263,2493.5,142.830322,-42.971405,-44.799667,4.85,-0.35,545.5
59.3,-128.27584006,0.50711546,2489.0,141.634399,-43.712784,-44.388046,4.7,-0.3,546.0
59.35,-128.275879605,0.50715002,2483.5,140.9138335,-44.159483,-44.140022,4.550000000000001,-0.25,547.0
59.4,-128.27591915,0.50718458,2478.0,140.193268,-44.606182,-43.891998,4.4,-0.2,548.0
59.45,-128.27595354,0.507215685,2473.5,138.838539,-44.8798715,-43.837143,4.15,-0.15,548.5
59.5,-128.27598793,0.50724679,2469.0,137.48381,-45.153561,-43.782288,3.9,-0.1,549.0
59.55,-128.27602633,0.5072813549999999,2463.5,136.07904050000002,-45.356192,-43.7843785,3.5,-0.1,550.0
59.6,-128.27606473,0.50731592,2458.0,134.674271,-45.558823,-43.786469,3.1,-0.1,551.0
59.65,-128.276101985,0.507351635,2452.5,133.15390050000002,-45.647812,-43.87112449999999,2.75,0.0,551.5
59.7,-128.27613924,0.50738735,2447.0,131.63353,-45.736801,-43.95578,2.4,0.1,552.0
59.75,-128.276170195,0.50741788,2442.0,129.226841,-45.7265985,-44.185341,2.05,0.15,553.0
59.8,-128.27620115,0.50744841,2437.0,126.820152,-45.716396,-44.414902,1.7,0.2,554.0
59.85,-128.276236685,0.507483555,2431.5,125.2029035,-45.709541,-44.569153,1.3,0.2,555.0
59.9,-128.27627222,0.5075187,2426.0,123.585655,-45.702686,-44.723404,0.9,0.2,556.0
59.95,-128.276303745,0.507549805,2421.0,120.4493865,-45.7088775,-44.8838425,0.6,0.2,557.0
60.0,-128.27633527,0.50758091,2416.0,117.313118,-45.715069,-45.044281,0.3,0.2,558.0
60.05,-128.27637138,0.5076172050000001,2410.0,114.2461395,-45.7233295,-45.1854935,-0.0499999999999999,0.15,559.0
60.1,-128.27640749,0.5076535,2404.0,111.179161,-45.73159,-45.326706,-0.4,0.1,560.0
60.15,-128.276440165,0.5076869150000001,2398.5,108.8207895,-45.7680625,-45.358345,-0.55,0.05,561.0
60.2,-128.27647284,0.50772033,2393.0,106.462418,-45.804535,-45.389984,-0.7,-0.0,562.0
60.25,-128.27650723,0.50775547,2387.0,101.9978485,-45.9471645,-45.2618635,-0.8,-0.05,563.5
60.3,-128.27654162,0.50779061,2381.0,97.533279,-46.089794,-45.133743,-0.9,-0.1,565.0
60.35,-128.276574295,0.5078246,2375.5,95.198837,-46.1643735,-45.0667495,-0.95,-0.1,566.0
60.4,-128.27660697,0.50785859,2370.0,92.864395,-46.238953,-44.999756,-1.0,-0.1,567.0
60.45,-128.27663791999998,0.50789085,2364.5,89.34854100000001,-46.3861295,-44.6872025,-1.0,-0.1,568.0
60.5,-128.27666887,0.50792311,2359.0,85.832687,-46.533306,-44.374649,-1.0,-0.1,569.0
60.55,-128.27670212,0.507958255,2353.0,82.5485305,-46.67688750000001,-44.0456315,-0.95,-0.1,570.0
60.6,-128.27673537,0.5079934,2347.0,79.264374,-46.820469,-43.716614,-0.9,-0.1,571.0
60.65,-128.276766895,0.508026815,2341.5,76.95697799999999,-46.9208735,-43.463272,-0.8500000000000001,-0.1,572.0
60.7,-128.27679842,0.50806023,2336.0,74.649582,-47.021278,-43.20993,-0.8,-0.1,573.0
60.75,-128.276833385,0.50809825,2329.5,70.990803,-47.1791535,-42.745712,-0.75,-0.05,573.5
60.8,-128.27686835,0.50813627,2323.0,67.332024,-47.337029,-42.281494,-0.7,0.0,574.0
60.85,-128.276897015,0.50816796,2317.5,65.5894035,-47.412224,-42.060402,-0.6,0.05,575.0
60.9,-128.27692568,0.50819965,2312.0,63.846783,-47.487419,-41.83931,-0.5,0.1,576.0
60.95,-128.2769595,0.5082376749999999,2306.0,61.1890755,-47.581772,-41.463959,-0.45,0.15,577.0
61.0,-128.27699332,0.5082757,2300.0,58.531368,-47.676125,-41.088608,-0.4,0.2,578.0
61.05,-128.277022555,0.50830854,2294.5,56.5616625,-47.7422355,-40.8032685,-0.35,0.3,579.0
61.1,-128.27705179,0.50834138,2289.0,54.591957,-47.808346,-40.517929,-0.3,0.4,580.0
61.15,-128.277084465,0.5083794049999999,2282.5,53.0643195,-47.856787,-40.30838,-0.3,0.45,581.5
61.2,-128.27711714,0.50841743,2276.0,51.536682,-47.905228,-40.098831,-0.3,0.5,583.0
61.25,-128.277151535,0.5084571849999999,2269.5,49.100563,-47.969614,-39.8180925,-0.3,0.55,584.0
61.3,-128.27718593,0.50849694,2263.0,46.664444,-48.034,-39.537354,-0.3,0.6,585.0
61.35,-128.27721402,0.5085297799999999,2257.5,45.4870775,-48.0651165,-39.4016725,-0.3,0.6,586.0
61.4,-128.27724211,0.50856262,2252.0,44.309711,-48.096233,-39.265991,-0.3,0.6,587.0
61.45,-128.27727479,0.5086018,2246.0,41.9963245,-48.1757525,-39.081604,-0.35,0.6499999999999999,588.0
61.5,-128.27730747,0.50864098,2240.0,39.682938,-48.255272,-38.897217,-0.4,0.7,589.0
61.55,-128.277339,0.50867843,2234.0,37.724913,-48.3255595,-38.754486,-0.45,0.7,590.0
61.6,-128.27737053,0.50871588,2228.0,35.766888,-48.395847,-38.611755,-0.5,0.7,591.0
61.65,-128.27739977,0.508752175,2222.0,34.2775365,-48.4429415,-38.5091245,-0.55,0.75,592.0
61.7,-128.27742901,0.50878847,2216.0,32.788185,-48.490036,-38.406494,-0.6,0.8,593.0
61.75,-128.2774571,0.508822465,2210.5,30.386213,-48.5517675,-38.254257,-0.6499999999999999,0.8,593.5
61.8,-128.27748519,0.50885646,2205.0,27.984241,-48.613499,-38.10202,-0.7,0.8,594.0
61.85,-128.277519015,0.50889852,2198.0,26.3870475,-48.654547,-38.0007935,-0.75,0.8500000000000001,595.5
61.9,-128.27755284,0.50894058,2191.0,24.789854,-48.695595,-37.899567,-0.8,0.9,597.0
61.95,-128.27758093,0.50897573,2185.5,22.7543115,-48.7033275,-37.7847445,-0.8500000000000001,0.9,597.5
62.0,-128.27760902,0.50901088,2180.0,20.718769,-48.71106,-37.669922,-0.9,0.9,598.0
62.05,-128.27764342,0.509053515,2173.0,18.919368,-48.712595,-37.570099,-0.9,0.8500000000000001,599.5
62.1,-128.27767782,0.50909615,2166.0,17.119967,-48.71413,-37.470276,-0.9,0.8,601.0
62.15,-128.27770591,0.509131295,2160.5,16.16046,-48.712112,-37.418381,-0.9,0.8,602.0
62.2,-128.277734,0.50916644,2155.0,15.200953,-48.710094,-37.366486,-0.9,0.8,603.0
62.25,-128.27777012,0.50921196,2147.5,12.7504945,-48.6727465,-37.2492525,-0.9,0.8500000000000001,604.0
62.3,-128.27780624,0.50925748,2140.0,10.300036,-48.635399,-37.132019,-0.9,0.9,605.0
62.35,-128.27783261,0.5092909000000001,2135.0,9.240244,-48.6192455,-37.0813215,-0.9,0.9,606.0
62.4,-128.27785898,0.50932432,2130.0,8.180452,-48.603092,-37.030624,-0.9,0.9,607.0
62.45,-128.27788994,0.509364075,2123.5,6.407113000000001,-48.5740795,-36.950691000000006,-0.9,0.9,608.0
62.5,-128.2779209,0.50940383,2117.0,4.633774,-48.545067,-36.870758,-0.9,0.9,609.0
62.55,-128.27795415,0.509445315,2110.5,3.126446,-48.5200445,-36.8036955,-0.95,0.95,610.0
62.6,-128.2779874,0.5094868,2104.0,1.619118,-48.495022,-36.736633,-1.0,1.0,611.0
62.65,-128.27801664,0.50952425,2098.0,0.6559975,-48.475895,-36.69548,-1.0,1.0,612.0
62.7,-128.27804588,0.5095617,2092.0,-0.307123,-48.456768,-36.654327,-1.0,1.0,613.0
62.75,-128.27807569499998,0.50959973,2086.0,-2.0467645,-48.4111175,-36.5860825,-0.95,1.0,614.0
62.8,-128.27810551,0.50963776,2080.0,-3.786406,-48.365467,-36.517838,-0.9,1.0,615.0
62.85,-128.278139905,0.50968155,2073.0,-4.923896,-48.335621,-36.473198,-0.95,1.05,616.0
62.9,-128.2781743,0.50972534,2066.0,-6.061386,-48.305775,-36.428558,-1.0,1.1,617.0
62.95,-128.27820354,0.5097622150000001,2060.0,-7.2349345,-48.249405,-36.4253765,-1.0,1.1,618.0
63.0,-128.27823278,0.50979909,2054.0,-8.408483,-48.193035,-36.422195,-1.0,1.1,619.0
63.05,-128.278266605,0.509842305,2047.5,-9.574481,-48.129385,-36.431877,-1.0,1.1,620.0
63.1,-128.27830043,0.50988552,2041.0,-10.740479,-48.065735,-36.441559,-1.0,1.1,621.0
63.15,-128.27832623,0.5099177850000001,2036.0,-11.2628735,-48.037218,-36.4458925,-1.0,1.1,622.0
63.2,-128.27835203,0.50995005,2031.0,-11.785268,-48.008701,-36.450226,-1.0,1.1,623.0
63.25,-128.27838987,0.5099978700000001,2023.0,-12.5672945,-47.9173355,-36.5759735,-1.0,1.05,624.0
63.3,-128.27842771,0.51004569,2015.0,-13.349321,-47.82597,-36.701721,-1.0,1.0,625.0
63.35,-128.278461535,0.51008833,2008.5,-13.734892,-47.780926,-36.76371,-1.0,1.0,626.5
63.4,-128.27849536,0.51013097,2002.0,-14.120463,-47.735882,-36.825699,-1.0,1.0,628.0
63.45,-128.27852517,0.510169,1996.0,-14.2698175,-47.629906,-36.9599075,-0.95,0.95,628.5
63.5,-128.27855498,0.51020703,1990.0,-14.419172,-47.52393,-37.094116,-0.9,0.9,629.0
63.55,-128.27858365,0.510243325,1984.5,-14.489592,-47.4348815,-37.206024,-0.8500000000000001,0.9,630.0
63.6,-128.27861232,0.51027962,1979.0,-14.560012,-47.345833,-37.317932,-0.8,0.9,631.0
63.65,-128.27864729,0.51032226,1972.5,-14.5870905,-47.2575075,-37.41378,-0.75,0.8500000000000001,632.0
63.7,-128.27868226,0.5103649,1966.0,-14.614169,-47.169182,-37.509628,-0.7,0.8,633.0
63.75,-128.27871895,0.51041099,1958.5,-14.5237445,-46.9664135,-37.6756515,-0.6499999999999999,0.75,634.5
63.8,-128.27875564,0.51045708,1951.0,-14.43332,-46.763645,-37.841675,-0.6,0.7,636.0
63.85,-128.278786025,0.5104945350000001,1945.5,-14.391625,-46.670149,-37.918213,-0.55,0.7,637.0
63.9,-128.27881641,0.51053199,1940.0,-14.34993,-46.576653,-37.994751,-0.5,0.7,638.0
63.95,-128.27885138,0.5105746250000001,1933.5,-14.277225,-46.3551735,-38.1264955,-0.45,0.7,638.5
64.0,-128.27888635,0.51061726,1927.0,-14.20452,-46.133694,-38.25824,-0.4,0.7,639.0
64.05,-128.27892075,0.510659895,1920.5,-14.1465455,-45.948265,-38.3630295,-0.4,0.7,640.0
64.1,-128.27895515,0.51070253,1914.0,-14.088571,-45.762836,-38.467819,-0.4,0.7,641.0
64.15,-128.278991265,0.51074574,1907.5,-14.080069,-45.588907,-38.5527955,-0.3,0.7,642.0
64.2,-128.27902738,0.51078895,1901.0,-14.071567,-45.414978,-38.637772,-0.2,0.7,643.0
64.25,-128.27905891,0.5108281299999999,1895.0,-14.182187,-45.0443785,-38.7815095,-0.1,0.7,644.0
64.3,-128.27909044,0.51086731,1889.0,-14.292807,-44.673779,-38.925247,-0.0,0.7,645.0
64.35,-128.27911968,0.51090188,1884.0,-14.356862,-44.459181,-39.008476,0.05,0.7,646.0
64.4,-128.27914892,0.51093645,1879.0,-14.420917,-44.244583,-39.091705,0.1,0.7,647.0
64.45,-128.27919134,0.510987155,1871.5,-14.6268345,-43.8368435,-39.2411345,0.2,0.75,648.0
64.5,-128.27923376,0.51103786,1864.0,-14.832752,-43.429104,-39.390564,0.3,0.8,649.0
64.55,-128.27926873,0.51107934,1858.0,-15.021871,-43.08725,-39.5141525,0.4,0.8500000000000001,650.0
64.6,-128.2793037,0.51112082,1852.0,-15.21099,-42.745396,-39.637741,0.5,0.9,651.0
64.65,-128.27934211000002,0.51116576,1846.0,-15.363785,-42.502750500000005,-39.729141,0.55,0.9,651.5
64.7,-128.27938052,0.5112107,1840.0,-15.51658,-42.260105,-39.820541,0.6,0.9,652.0
64.75,-128.27941606,0.5112510299999999,1834.0,-15.898191,-41.85577,-39.998077,0.6499999999999999,0.95,653.0
64.8,-128.2794516,0.51129136,1828.0,-16.279802,-41.451435,-40.175613,0.7,1.0,654.0
64.85,-128.279492305,0.51133918,1821.5,-16.530588,-41.185713,-40.2922745,0.7,1.05,655.0
64.9,-128.27953301,0.511387,1815.0,-16.781374,-40.919991,-40.408936,0.7,1.1,656.0
64.95,-128.279557085,0.51141408,1812.5,-17.1407155,-40.624619,-40.57540899999999,0.75,1.1,656.5
65.0,-128.27958116,0.51144116,1810.0,-17.500057,-40.329247,-40.741882,0.8,1.1,657.0
65.05,-128.2796339,0.511501075,1801.0,-18.0759875,-39.8738025,-41.00855249999999,0.8500000000000001,1.15,658.0
65.1,-128.27968664,0.51156099,1792.0,-18.651918,-39.418358,-41.275223,0.9,1.2,659.0
65.15,-128.27973594,0.5116151449999999,1784.5,-19.076675,-39.0660075,-41.497734,0.95,1.2,660.0
65.2,-128.27978524,0.5116693,1777.0,-19.501432,-38.713657,-41.720245,1.0,1.2,661.0
65.25,-128.279824215,0.511711935,1771.5,-20.0794,-38.2125625,-42.056976,1.1,1.2,661.5
65.3,-128.27986319,0.51175457,1766.0,-20.657368,-37.711468,-42.393707,1.2,1.2,662.0
65.35,-128.27990045,0.511794895,1761.5,-21.0005855,-37.4139005,-42.593666,1.2999999999999998,1.2,662.5
65.4,-128.27993771,0.51183522,1757.0,-21.343803,-37.116333,-42.793625,1.4,1.2,663.0
65.45,-128.27998758,0.5118882250000001,1750.0,-21.799943,-36.5531615,-43.1989365,1.45,1.2,664.0
65.5,-128.28003745,0.51194123,1743.0,-22.256083,-35.98999,-43.604248,1.5,1.2,665.0
65.55,-128.28007987,0.5119861649999999,1737.5,-22.5704435,-35.5677375,-43.9119795,1.55,1.15,666.0
65.6,-128.28012229,0.5120311,1732.0,-22.884804,-35.145485,-44.219711,1.6,1.1,667.0
65.65,-128.28017101,0.5120800649999999,1726.0,-23.0914735,-34.7863655,-44.481102,1.65,1.1,667.5
65.7,-128.28021973,0.51212903,1720.0,-23.298143,-34.427246,-44.742493,1.7,1.1,668.0
65.75,-128.28026444,0.51217512,1714.5,-23.43478,-33.8458555,-45.1645585,1.75,1.15,668.5
65.8,-128.28030915,0.51222121,1709.0,-23.571417,-33.264465,-45.586624,1.8,1.2,669.0
65.85,-128.28035558,0.512266715,1704.0,-23.648531,-32.936348,-45.824829,1.85,1.15,669.5
65.9,-128.28040201,0.51231222,1699.0,-23.725645,-32.608231,-46.063034,1.9,1.1,670.0
65.95,-128.28045301999998,0.512361185,1693.0,-23.701748,-32.104644,-46.4102325,1.9,1.05,671.0
66.0,-128.28050403,0.51241015,1687.0,-23.677851,-31.601057,-46.757431,1.9,1.0,672.0
66.05,-128.280555615,0.51245969,1681.5,-23.6331685,-31.173849,-47.0488205,1.9,0.95,672.5
66.1,-128.2806072,0.51250923,1676.0,-23.588486,-30.746641,-47.34021,1.9,0.9,673.0
66.15,-128.280653625,0.5125518600000001,1671.5,-23.5443145,-30.439782,-47.5389635,1.95,0.9,673.5
66.2,-128.28070005,0.51259449,1667.0,-23.500143,-30.132923,-47.737717,2.0,0.9,674.0
66.25,-128.280753925,0.51264345,1661.5,-23.3961725,-29.6122235,-48.049675,1.95,0.9,674.5
66.3,-128.2808078,0.51269241,1656.0,-23.292202,-29.091524,-48.361633,1.9,0.9,675.0
66.35,-128.280861105,0.51274022,1651.5,-23.237526,-28.8176945,-48.525673,1.9,0.95,675.5
66.4,-128.28091441,0.51278803,1647.0,-23.18285,-28.543865,-48.689713,1.9,1.0,676.0
66.45,-128.2809637,0.51283123,1642.5,-23.112977,-28.1779955,-48.8996355,1.85,1.0,676.5
66.5,-128.28101299,0.51287443,1638.0,-23.043104,-27.812126,-49.109558,1.8,1.0,677.0
66.55,-128.281071445,0.5129256950000001,1633.0,-22.9765165,-27.460456,-49.309662,1.7000000000000002,1.0,677.5
66.6,-128.2811299,0.51297696,1628.0,-22.909929,-27.108786,-49.509766,1.6,1.0,678.0
66.65,-128.28118091,0.513019585,1624.0,-22.874446,-26.909138,-49.6232455,1.6,1.0,678.5
66.7,-128.28123192,0.51306221,1620.0,-22.838963,-26.70949,-49.736725,1.6,1.0,679.0
66.75,-128.281297255,0.513117505,1614.5,-22.784633,-26.2718535,-49.9842685,1.5,1.0,679.5
66.8,-128.28136259,0.5131728,1609.0,-22.730303,-25.834217,-50.231812,1.4,1.0,680.0
66.85,-128.281411875,0.513213115,1605.0,-22.707103,-25.647334,-50.33754,1.4,1.0,680.5
66.9,-128.28146116,0.51325343,1601.0,-22.683903,-25.460451,-50.443268,1.4,1.0,681.0
66.95,-128.28152649499998,0.5133064199999999,1596.5,-22.681529,-25.1201495,-50.661949,1.2999999999999998,1.05,681.5
67.0,-128.28159183,0.51335941,1592.0,-22.679155,-24.779848,-50.88063,1.2,1.1,682.0
67.05,-128.2816457,0.51340318,1588.0,-22.6825245,-24.5582265,-51.0262755,1.15,1.1,682.5
67.1,-128.28169957,0.51344695,1584.0,-22.685894,-24.336605,-51.171921,1.1,1.1,683.0
67.15,-128.281759745,0.513494755,1579.5,-22.70953,-24.1363105,-51.3061145,1.05,1.1,683.5
67.2,-128.28181992,0.51354256,1575.0,-22.733166,-23.936016,-51.440308,1.0,1.1,684.0
67.25,-128.28187264500002,0.51358403,1571.5,-22.812378,-23.6408615,-51.6435855,1.0,1.05,684.5
67.3,-128.28192537,0.5136255,1568.0,-22.89159,-23.345707,-51.846863,1.0,1.0,685.0
67.35,-128.28198898,0.5136750299999999,1564.0,-22.9451305,-23.146206,-51.9842645,1.0,0.95,685.5
67.4,-128.28205259,0.51372456,1560.0,-22.998671,-22.946705,-52.121666,1.0,0.9,686.0
67.45,-128.28211792000002,0.51377351,1555.5,-23.250248,-22.7386935,-52.2801245,0.9,0.95,686.5
67.5,-128.28218325,0.51382246,1551.0,-23.501825,-22.530682,-52.438583,0.8,1.0,687.0
67.55,-128.282239415,0.513865655,1547.5,-23.6844585,-22.402464,-52.538391,0.7,1.0,687.5
67.6,-128.28229558,0.51390885,1544.0,-23.867092,-22.274246,-52.638199,0.6,1.0,688.0
67.65,-128.28235976000002,0.5139560750000001,1540.5,-24.0898845,-22.157031,-52.7393455,0.5,1.0,688.0
67.7,-128.28242394,0.5140033,1537.0,-24.312677,-22.039816,-52.840492,0.4,1.0,688.0
67.75,-128.28248526,0.514048795,1533.0,-24.75481,-21.8721245,-53.0070685,0.35,0.95,688.5
67.8,-128.28254658,0.51409429,1529.0,-25.196943,-21.704433,-53.173645,0.3,0.9,689.0
67.85,-128.282616495,0.514145545,1525.0,-25.48007,-21.5970485,-53.280308000000005,0.25,0.9,689.5
67.9,-128.28268641,0.5141968,1521.0,-25.763197,-21.489664,-53.386971,0.2,0.9,690.0
67.95,-128.28274428499998,0.514238265,1518.0,-26.1848345,-21.4160965,-53.47345,0.1,0.9,690.5
68.0,-128.28280216,0.51427973,1515.0,-26.606472,-21.342529,-53.559929,0.0,0.9,691.0
68.05,-128.282858895,0.514320615,1511.5,-26.955717,-21.291292,-53.6234245,-0.1,0.8500000000000001,691.5
68.1,-128.28291563,0.5143615,1508.0,-27.304962,-21.240055,-53.68692,-0.2,0.8,692.0
68.15,-128.282986115,0.514411025,1504.0,-27.6685685,-21.2026585,-53.7681845,-0.3,0.8500000000000001,692.5
68.2,-128.2830566,0.51446055,1500.0,-28.032175,-21.165262,-53.849449,-0.4,0.9,693.0
68.25,-128.283119635,0.51450547,1497.0,-28.496421,-21.1431065,-53.9775045,-0.45,0.9,693.5
68.3,-128.28318267,0.51455039,1494.0,-28.960667,-21.120951,-54.10556,-0.5,0.9,694.0
68.35,-128.2832394,0.51458955,1490.5,-29.2056965,-21.109257,-54.173149,-0.6,0.9,694.0
68.4,-128.28329613,0.51462871,1487.0,-29.450726,-21.097563,-54.240738,-0.7,0.9,694.0
68.45,-128.28336718999998,0.5146776550000001,1483.5,-29.65249,-20.909748,-54.5081215,-0.6499999999999999,0.9,694.5
68.5,-128.28343825,0.5147266,1480.0,-29.854254,-20.721933,-54.775505,-0.6,0.9,695.0
68.55,-128.28350644,0.51477382,1476.5,-29.9740165,-20.5420665,-55.01548,-0.5,0.9,696.0
68.6,-128.28357463,0.51482104,1473.0,-30.093779,-20.3622,-55.255455,-0.4,0.9,697.0
68.65,-128.28363709,0.5148625,1469.5,-30.1065505,-20.204137000000003,-55.4336775,-0.35,0.9,697.5
68.7,-128.28369955,0.51490396,1466.0,-30.119322,-20.046074,-55.6119,-0.3,0.9,698.0
68.75,-128.28376373,0.514947145,1463.0,-29.985943,-19.746806,-55.8937035,-0.25,0.9,698.5
68.8,-128.28382791,0.51499033,1460.0,-29.852564,-19.447538,-56.175507,-0.2,0.9,699.0
68.85,-128.283898965,0.515036975,1456.5,-29.7679585,-19.2577095,-56.35425600000001,-0.1,0.9,699.0
68.9,-128.28397002,0.51508362,1453.0,-29.683353,-19.067881,-56.533005,-0.0,0.9,699.0
68.95,-128.284035345,0.515125075,1450.0,-29.494435,-18.895942,-56.688499500000006,0.0,0.8500000000000001,699.5
69.0,-128.28410067,0.51516653,1447.0,-29.305517,-18.724003,-56.843994,-0.0,0.8,700.0
69.05,-128.284170575,0.515211445,1443.5,-29.143976,-18.596752,-56.957836,-0.05,0.8,700.5
69.1,-128.28424048,0.51525636,1440.0,-28.982435,-18.469501,-57.071678,-0.1,0.8,701.0
69.15,-128.28430294,0.5152955100000001,1437.0,-28.877719,-18.4057235,-57.138851,-0.15,0.8,701.5
69.2,-128.2843654,0.51533466,1434.0,-28.773003,-18.341946,-57.206024,-0.2,0.8,702.0
69.25,-128.284438745,0.515380725,1431.0,-28.5355835,-18.27755,-57.3299635,-0.3,0.8500000000000001,702.0
69.3,-128.28451209,0.51542679,1428.0,-28.298164,-18.213154,-57.453903,-0.4,0.9,702.0
69.35,-128.284585435,0.515472275,1424.5,-28.1665485,-18.177454,-57.5226095,-0.45,0.8500000000000001,702.5
69.4,-128.28465878,0.51551776,1421.0,-28.034933,-18.141754,-57.591316,-0.5,0.8,703.0
69.45,-128.28472525,0.5155586400000001,1418.0,-27.8212395,-18.031787,-57.7333105,-0.5,0.8,703.5
69.5,-128.28479172,0.51559952,1415.0,-27.607546,-17.92182,-57.875305,-0.5,0.8,704.0
69.55,-128.284865065,0.51564385,1412.0,-27.4235085,-17.822058,-58.000549,-0.5,0.75,704.5
69.6,-128.28493841,0.51568818,1409.0,-27.239471,-17.722296,-58.125793,-0.5,0.7,705.0
69.65,-128.28500144,0.51572618,1406.5,-27.1129035,-17.6441425,-58.214153,-0.5,0.75,705.5
69.7,-128.28506447,0.51576418,1404.0,-26.986336,-17.565989,-58.302513,-0.5,0.8,706.0
69.75,-128.285144115,0.51581139,1400.5,-26.7132435,-17.360041,-58.5018805,-0.5,0.8,706.5
69.8,-128.28522376,0.5158586,1397.0,-26.440151,-17.154093,-58.701248,-0.5,0.8,707.0
