Time,Longitude,Latitude,Altitude,Roll,Pitch,Yaw,AOA,AOS,TAS
29.85,-128.2346501,0.50403848,1945.5,13.7830065,-4.6608665,-94.3065185,-0.1,1.2999999999999998,606.5
29.9,-128.23472971,0.50403207,1945.0,13.776643,-4.64816,-94.268677,-0.1,1.2,607.0
29.95,-128.23479729000002,0.50402683,1944.5,13.746698,-4.6004855,-94.206562,-0.15,1.05,607.5
30.0,-128.23486487,0.50402159,1944.0,13.716753,-4.552811,-94.144447,-0.2,0.9,608.0
30.05,-128.23494677,0.50401518,1943.0,13.687309,-4.5063365,-94.087242,-0.2,0.75,608.5
30.1,-128.23502867,0.50400877,1942.0,13.657865,-4.459862,-94.030037,-0.2,0.6,609.0
30.15,-128.235095105,0.504003525,1941.5,13.6404585,-4.4294135,-93.9941825,-0.15,0.6499999999999999,609.0
30.2,-128.23516154,0.50399828,1941.0,13.623052,-4.398965,-93.958328,-0.1,0.7,609.0
30.25,-128.23523771499998,0.50399245,1940.5,13.591885,-4.3304895,-93.8845555,-0.05,0.75,609.5
30.3,-128.23531389,0.50398662,1940.0,13.560718,-4.262014,-93.810783,0.0,0.8,610.0
30.35,-128.23539178,0.50398137,1939.5,13.5440025,-4.2252885,-93.771217,0.0,0.9,610.5
30.4,-128.23546967,0.50397612,1939.0,13.527287,-4.188563,-93.731651,0.0,1.0,611.0
30.45,-128.235538395,0.503970875,1938.5,13.5053935,-4.1543475,-93.6782455,0.0,1.05,611.0
30.5,-128.23560712,0.50396563,1938.0,13.4835,-4.120132,-93.62484,0.0,1.1,611.0
30.55,-128.23568501,0.503960375,1937.0,13.465071,-4.0929205,-93.5797005,0.0,1.2000000000000002,611.5
30.6,-128.2357629,0.50395512,1936.0,13.446642,-4.065709,-93.534561,0.0,1.3,612.0
30.65,-128.2358322,0.503950455,1935.5,13.4396235,-4.0519685,-93.509403,0.0,1.35,612.0
30.7,-128.2359015,0.50394579,1935.0,13.432605,-4.038228,-93.484245,0.0,1.4,612.0
30.75,-128.23598111,0.5039405349999999,1934.5,13.455706500000002,-4.024179,-93.427246,0.0,1.45,612.5
30.8,-128.23606072,0.50393528,1934.0,13.478808,-4.01013,-93.370247,0.0,1.5,613.0
30.85,-128.23612716000002,0.50393119,1933.5,13.490012,-4.0033175,-93.3426095,-0.05,1.4,613.0
30.9,-128.2361936,0.5039271,1933.0,13.501216,-3.996505,-93.314972,-0.1,1.3,613.0
30.95,-128.236274925,0.503921845,1932.5,13.531689,-3.973399,-93.258507,-0.15,1.05,613.5
31.0,-128.23635625,0.50391659,1932.0,13.562162,-3.950293,-93.202042,-0.2,0.8,614.0
31.05,-128.23641810499998,0.5039125,1931.5,13.584425,-3.9329385,-93.162743,-0.25,0.6000000000000001,614.5
31.1,-128.23647996,0.50390841,1931.0,13.606688,-3.915584,-93.123444,-0.3,0.4,615.0
31.15,-128.236567015,0.50390315,1930.5,13.6268765,-3.884789,-93.077652,-0.25,0.5,615.0
31.2,-128.23665407,0.50389789,1930.0,13.647065,-3.853994,-93.03186,-0.2,0.6,615.0
31.25,-128.236724515,0.5038938,1929.5,13.6651445,-3.796113,-92.9704245,-0.15,0.6499999999999999,615.5
31.3,-128.23679496,0.50388971,1929.0,13.683224,-3.738232,-92.908989,-0.1,0.7,616.0
31.35,-128.236875715,0.50388503,1928.0,13.69512,-3.7001445,-92.8685685,-0.05,0.8,616.5
31.4,-128.23695647,0.50388035,1927.0,13.707016,-3.662057,-92.828148,-0.0,0.9,617.0
31.45,-128.237024625,0.503876835,1927.0,13.7156625,-3.5972935,-92.767784,0.0,0.95,617.5
31.5,-128.23709278,0.50387332,1927.0,13.724309,-3.53253,-92.70742,0.0,1.0,618.0
31.55,-128.23717411,0.50386864,1926.0,13.7310225,-3.4727425,-92.6526105,0.05,1.1,618.0
31.6,-128.23725544,0.50386396,1925.0,13.737736,-3.412955,-92.597801,0.1,1.2,618.0
31.65,-128.23732817500002,0.5038604449999999,1925.0,13.7445835,-3.3697115,-92.5568425,0.15,1.2999999999999998,618.5
31.7,-128.23740091,0.50385693,1925.0,13.751431,-3.326468,-92.515884,0.2,1.4,619.0
31.75,-128.237479375,0.50385283,1924.5,13.764877,-3.2636605000000003,-92.454105,0.2,1.5,619.0
31.8,-128.23755784,0.50384873,1924.0,13.778323,-3.200853,-92.392326,0.2,1.6,619.0
31.85,-128.23762886,0.50384579,1923.5,13.785363,-3.167966,-92.35997,0.25,1.65,619.5
31.9,-128.23769988,0.50384285,1923.0,13.792403,-3.135079,-92.327614,0.3,1.7,620.0
31.95,-128.23776746,0.503839335,1922.5,13.8077765,-3.0930935,-92.276398,0.3,1.75,620.0
32.0,-128.23783504,0.50383582,1922.0,13.82315,-3.051108,-92.225182,0.3,1.8,620.0
32.05,-128.237915225,0.503832295,1921.5,13.838142,-3.013433,-92.177372,0.3,1.85,620.5
32.1,-128.23799541,0.50382877,1921.0,13.853134,-2.975758,-92.129562,0.3,1.9,621.0
32.15,-128.238069295,0.5038258250000001,1920.5,13.855038,-2.9492685,-92.0948025,0.2,1.6,621.0
32.2,-128.23814318,0.50382288,1920.0,13.856942,-2.922779,-92.060043,0.1,1.3,621.0
32.25,-128.23822336,0.503819355,1919.5,13.838194,-2.8777175,-91.998039,0.05,0.95,621.5
32.3,-128.23830354,0.50381583,1919.0,13.819446,-2.832656,-91.936035,-0.0,0.6,622.0
32.35,-128.23837685,0.50381289,1918.5,13.809833,-2.8095545,-91.904251,-0.05,0.6,622.0
32.4,-128.23845016,0.50380995,1918.0,13.80022,-2.786453,-91.872467,-0.1,0.6,622.0
32.45,-128.23853378,0.50380642,1918.0,13.764023,-2.7071825,-91.795479,-0.05,0.7,622.5
32.5,-128.2386174,0.50380289,1918.0,13.727826,-2.627912,-91.718491,-0.0,0.8,623.0
32.55,-128.23868555500002,0.50380053,1917.5,13.704823,-2.5778265,-91.671162,0.05,0.8500000000000001,623.5
32.6,-128.23875371,0.50379817,1917.0,13.68182,-2.527741,-91.623833,0.1,0.9,624.0
32.65,-128.23883046,0.5037958,1916.5,13.6565025,-2.471655,-91.5765725,0.15,1.0,624.0
32.7,-128.23890721,0.50379343,1916.0,13.631185,-2.415569,-91.529312,0.2,1.1,624.0
32.75,-128.238977085,0.50379107,1915.5,13.5839295,-2.3089065,-91.4510155,0.25,1.2000000000000002,624.0
32.8,-128.23904696,0.50378871,1915.0,13.536674,-2.202244,-91.372719,0.3,1.3,624.0
32.85,-128.23912485,0.50378634,1915.0,13.506894,-2.135024,-91.3233795,0.35,1.4,624.5
32.9,-128.23920274,0.50378397,1915.0,13.477114,-2.067804,-91.27404,0.4,1.5,625.0
32.95,-128.239274905,0.5037816049999999,1914.5,13.4286075,-1.960239,-91.199257,0.45,1.6,625.0
33.0,-128.23934707,0.50377924,1914.0,13.380101,-1.852674,-91.124474,0.5,1.7,625.0
33.05,-128.23942611,0.50377687,1914.0,13.3400635,-1.7640885,-91.063332,0.5,1.7999999999999998,625.5
33.1,-128.23950515,0.5037745,1914.0,13.300026,-1.675503,-91.00219,0.5,1.9,626.0
33.15,-128.23958304500002,0.503772705,1913.5,13.266524,-1.5986205,-90.9500885,0.55,2.0,626.0
33.2,-128.23966094,0.50377091,1913.0,13.233022,-1.521738,-90.897987,0.6,2.1,626.0
33.25,-128.23969874,0.503770305,1913.0,13.202,-1.44711,-90.848579,0.6,2.1500000000000004,626.5
33.3,-128.23973654,0.5037697,1913.0,13.170978,-1.372482,-90.799171,0.6,2.2,627.0
33.35,-128.239806985,0.50376791,1913.0,13.140203,-1.298448,-90.7501525,0.6,2.3,627.0
33.4,-128.23987743,0.50376612,1913.0,13.109428,-1.224414,-90.701134,0.6,2.4,627.0
33.45,-128.23996449,0.5037643199999999,1912.5,13.066790999999998,-1.1313814999999998,-90.6311075,0.6,2.45,627.0
33.5,-128.24005155,0.50376252,1912.0,13.024154,-1.038349,-90.561081,0.6,2.5,627.0
33.55,-128.240116845,0.503761315,1912.0,13.003405,-0.995246,-90.52652,0.6499999999999999,2.6,627.5
33.6,-128.24018214,0.50376011,1912.0,12.982656,-0.952143,-90.491959,0.7,2.7,628.0
33.65,-128.24030127,0.503758285,1911.5,12.955133,-0.889634,-90.441124,0.7,2.8,628.0
33.7,-128.2404204,0.50375646,1911.0,12.92761,-0.827125,-90.390289,0.7,2.9,628.0
33.75,-128.240490845,0.503755245,1911.0,12.907967,-0.7688595,-90.34124,0.7,2.95,628.5
33.8,-128.24056129,0.50375403,1911.0,12.888324,-0.710594,-90.292191,0.7,3.0,629.0
33.85,-128.240643765,0.5037528099999999,1911.0,12.8748505,-0.670628,-90.258549,0.7,3.1,629.0
33.9,-128.24072624,0.50375159,1911.0,12.861377,-0.630662,-90.224907,0.7,3.2,629.0
33.95,-128.240799555,0.503750955,1911.0,12.85535,-0.577862,-90.17593,0.6499999999999999,3.25,629.0
34.0,-128.24087287,0.50375032,1911.0,12.849323,-0.525062,-90.126953,0.6,3.3,629.0
34.05,-128.2409542,0.50374968,1910.5,12.845835,-0.477163,-90.0817565,0.6,3.35,629.5
34.1,-128.24103553,0.50374904,1910.0,12.842347,-0.429264,-90.03656,0.6,3.4,630.0
34.15,-128.24110654999998,0.5037484050000001,1910.0,12.8410875,-0.3910065,-90.003582,0.6,3.45,630.0
34.2,-128.24117757,0.50374777,1910.0,12.839828,-0.352749,-89.970604,0.6,3.5,630.0
34.25,-128.241261765,0.5037471250000001,1910.0,12.84043,-0.2686659999999999,-89.9050105,0.6499999999999999,3.5,630.0
34.3,-128.24134596,0.50374648,1910.0,12.841032,-0.184583,-89.839417,0.7,3.5,630.0
34.35,-128.241426145,0.503746415,1910.0,12.8413545,-0.1396125,-89.804337,0.4499999999999999,2.55,630.0
34.4,-128.24150633,0.50374635,1910.0,12.841677,-0.094642,-89.769257,0.2,1.6,630.0
34.45,-128.24157449,0.503746295,1910.0,12.856302,-0.015025,-89.712559,-0.0499999999999999,0.3999999999999999,630.0
34.5,-128.24164265,0.50374624,1910.0,12.870927,0.064592,-89.655861,-0.3,-0.8,630.0
34.55,-128.24172226,0.5037461750000001,1910.0,12.8859895,0.1385305,-89.603779,-0.55,-2.0,630.5
34.6,-128.24180187,0.50374611,1910.0,12.901052,0.212469,-89.551697,-0.8,-3.2,631.0
34.65,-128.241873465,0.50374605,1910.0,12.9154175,0.262438,-89.5154685,-0.75,-3.1500000000000004,631.5
34.7,-128.24194506,0.50374599,1910.0,12.929783,0.312407,-89.47924,-0.7,-3.1,632.0
34.75,-128.24202868,0.503745925,1910.5,12.9660825,0.3974085,-89.4147145,-0.7,-3.05,632.0
34.8,-128.2421123,0.50374586,1911.0,13.002382,0.48241,-89.350189,-0.7,-3.0,632.0
34.85,-128.24218332499998,0.503746375,1911.0,13.0199945,0.5236535,-89.3188705,-0.7,-2.95,632.0
34.9,-128.24225435,0.50374689,1911.0,13.037607,0.564897,-89.287552,-0.7,-2.9,632.0
34.95,-128.24233625,0.5037474,1911.0,13.091369,0.6346704999999999,-89.231594,-0.6499999999999999,-2.8,632.5
35.0,-128.24241815,0.50374791,1911.0,13.145131,0.704444,-89.175636,-0.6,-2.7,633.0
35.05,-128.242489175,0.5037484299999999,1911.0,13.187051,0.7541625,-89.135307,-0.6,-2.6500000000000004,633.0
35.1,-128.2425602,0.50374895,1911.0,13.228971,0.803881,-89.094978,-0.6,-2.6,633.0
35.15,-128.24264325,0.5037500349999999,1911.0,13.27921,0.8486575,-89.0562325,-0.6,-2.55,633.5
35.2,-128.2427263,0.50375112,1911.0,13.329449,0.893434,-89.017487,-0.6,-2.5,634.0
35.25,-128.242800185,0.50375164,1911.5,13.411113,0.9468385,-88.967041,-0.55,-2.45,634.0
35.3,-128.24287407,0.50375216,1912.0,13.492777,1.000243,-88.916595,-0.5,-2.4,634.0
35.35,-128.2429554,0.503753245,1912.0,13.5453645,1.034633,-88.8841095,-0.5,-2.3,634.0
35.4,-128.24303673,0.50375433,1912.0,13.597952,1.069023,-88.851624,-0.5,-2.2,634.0
35.45,-128.243114055,0.503755995,1912.0,13.6789585,1.124119,-88.7943765,-0.55,-2.1500000000000004,634.0
35.5,-128.24319138,0.50375766,1912.0,13.759965,1.179215,-88.737129,-0.6,-2.1,634.0
35.55,-128.243263545,0.503758755,1912.5,13.8158365,1.2174115,-88.6969795,-0.6,-2.05,634.0
35.6,-128.24333571,0.50375985,1913.0,13.871708,1.255608,-88.65683,-0.6,-2.0,634.0
35.65,-128.243417615,0.503761515,1913.0,13.918479,1.3021295,-88.611065,-0.55,-1.95,634.0
35.7,-128.24349952,0.50376318,1913.0,13.96525,1.348651,-88.5653,-0.5,-1.9,634.0
35.75,-128.243571115,0.503764275,1913.5,14.008335,1.410739,-88.5070875,-0.5,-1.85,634.5
35.8,-128.24364271,0.50376537,1914.0,14.05142,1.472827,-88.448875,-0.5,-1.8,635.0
35.85,-128.243722325,0.503767035,1914.0,14.0796225,1.5134685,-88.41077,-0.45,-1.7000000000000002,635.0
35.9,-128.24380194,0.5037687,1914.0,14.107825,1.55411,-88.372665,-0.4,-1.6,635.0
35.95,-128.24387124499998,0.503770375,1914.5,14.1054075,1.6224675,-88.310806,-0.4,-1.55,635.0
36.0,-128.24394055,0.50377205,1915.0,14.10299,1.690825,-88.248947,-0.4,-1.5,635.0
36.05,-128.24402761,0.503774285,1915.0,14.092217,1.7644155,-88.18272400000001,-0.35,-1.4,635.5
36.1,-128.24411467,0.50377652,1915.0,14.081444,1.838006,-88.116501,-0.3,-1.3,636.0
36.15,-128.244182255,0.50377877,1915.5,14.0698135,1.880966,-88.0780795,-0.3,-1.25,636.0
36.2,-128.24424984,0.50378102,1916.0,14.058183,1.923926,-88.039658,-0.3,-1.2,636.0
36.25,-128.244336325,0.503783255,1916.5,14.0102295,2.019619,-87.955063,-0.25,-1.05,636.0
36.3,-128.24442281,0.50378549,1917.0,13.962276,2.115312,-87.870468,-0.2,-0.9,636.0
36.35,-128.24450071,0.50378831,1917.0,13.9379235,2.163909,-87.827507,-0.2,-0.8,636.0
36.4,-128.24457861,0.50379113,1917.0,13.913571,2.212506,-87.784546,-0.2,-0.7,636.0
36.45,-128.244646765,0.503793385,1917.5,13.8665735,2.2857295,-87.7170375,-0.2,-0.55,636.0
36.5,-128.24471492,0.50379564,1918.0,13.819576,2.358953,-87.649529,-0.2,-0.4,636.0
36.55,-128.244796825,0.503798455,1918.5,13.774045,2.427684,-87.585785,-0.15,-0.35,636.5
36.6,-128.24487873,0.50380127,1919.0,13.728514,2.496415,-87.522041,-0.1,-0.3,637.0
36.65,-128.244960065,0.503804085,1919.5,13.6892295,2.5565075,-87.46665200000001,-0.2,-0.55,637.0
36.7,-128.2450414,0.5038069,1920.0,13.649945,2.6166,-87.411263,-0.3,-0.8,637.0
36.75,-128.24510956,0.50380973,1920.0,13.6065515,2.6837675,-87.3496935,-0.35,-1.05,637.0
36.8,-128.24517772,0.50381256,1920.0,13.563158,2.750935,-87.288124,-0.4,-1.3,637.0
36.85,-128.2452602,0.5038159499999999,1920.5,13.5325675,2.7982845000000003,-87.2447205,-0.4,-1.35,637.0
36.9,-128.24534268,0.50381934,1921.0,13.501977,2.845634,-87.201317,-0.4,-1.4,637.0
36.95,-128.245422295,0.5038221599999999,1921.5,13.4561985,2.919819,-87.135811,-0.35,-1.35,637.0
37.0,-128.24550191,0.50382498,1922.0,13.41042,2.994004,-87.070305,-0.3,-1.3,637.0
37.05,-128.24557751499998,0.503828375,1922.5,13.3781375,3.0466585,-87.024048,-0.25,-1.2000000000000002,637.5
37.1,-128.24565312,0.50383177,1923.0,13.345855,3.099313,-86.977791,-0.2,-1.1,638.0
37.15,-128.24573216,0.503835745,1923.5,13.316965,3.1438425,-86.9373935,-0.2,-1.0,638.0
37.2,-128.2458112,0.50383972,1924.0,13.288075,3.188372,-86.896996,-0.2,-0.9,638.0
37.25,-128.24588509,0.50384312,1924.5,13.246961,3.246001,-86.841736,-0.2,-0.8,638.0
37.3,-128.24595898,0.50384652,1925.0,13.205847,3.30363,-86.786476,-0.2,-0.7,638.0
37.35,-128.24604203,0.503850485,1925.5,13.180351,3.3393665,-86.7522125,-0.15,-0.6,638.0
37.4,-128.24612508,0.50385445,1926.0,13.154855,3.375103,-86.717949,-0.1,-0.5,638.0
37.45,-128.24620011500002,0.503858425,1926.5,13.1121745,3.4166425,-86.6690255,-0.1,-0.4,638.0
37.5,-128.24627515,0.5038624,1927.0,13.069494,3.458182,-86.620102,-0.1,-0.3,638.0
37.55,-128.24634616999998,0.503865805,1927.5,13.0392015,3.486409,-86.58595650000001,-0.1,-0.25,638.0
37.6,-128.24641719,0.50386921,1928.0,13.008909,3.514636,-86.551811,-0.1,-0.2,638.0
37.65,-128.24649967,0.503873755,1929.0,12.979983,3.5432795,-86.5174825,-0.15,-0.4499999999999999,638.0
37.7,-128.24658215,0.5038783,1930.0,12.951057,3.571923,-86.483154,-0.2,-0.7,638.0
37.75,-128.246653175,0.50388228,1930.5,12.911227,3.61542,-86.43177399999999,-0.25,-0.9,638.0
37.8,-128.2467242,0.50388626,1931.0,12.871397,3.658917,-86.380394,-0.3,-1.1,638.0
37.85,-128.246807255,0.50389138,1931.5,12.845091,3.6876455,-86.3464585,-0.35,-1.15,638.0
37.9,-128.24689031,0.5038965,1932.0,12.818785,3.716374,-86.312523,-0.4,-1.2,638.0
37.95,-128.246964195,0.503900475,1932.5,12.771701,3.7759275,-86.254906,-0.35,-1.1,638.0
38.0,-128.24703808,0.50390445,1933.0,12.724617,3.835481,-86.197289,-0.3,-1.0,638.0
38.05,-128.24712457,0.50390957,1934.0,12.685222,3.885922,-86.149315,-0.3,-0.9,638.0
38.1,-128.24721106,0.50391469,1935.0,12.645827,3.936363,-86.101341,-0.3,-0.8,638.0
38.15,-128.247274065,0.503918675,1935.5,12.6241715,3.962892,-86.07528300000001,-0.3,-0.75,638.0
38.2,-128.24733707,0.50392266,1936.0,12.602516,3.989421,-86.049225,-0.3,-0.7,638.0
38.25,-128.24742757,0.50392835,1936.5,12.5451745,4.049165,-85.982849,-0.3,-0.6,638.0
38.3,-128.24751807,0.50393404,1937.0,12.487833,4.108909,-85.916473,-0.3,-0.5,638.0
38.35,-128.24758909500002,0.5039385949999999,1937.5,12.4629135,4.134873,-85.8876305,-0.3,-0.4,638.5
38.4,-128.24766012,0.50394315,1938.0,12.437994,4.160837,-85.858788,-0.3,-0.3,639.0
38.45,-128.24774145,0.50394885,1939.0,12.390815,4.180753,-85.8091355,-0.3,-0.2,639.0
38.5,-128.24782278,0.50395455,1940.0,12.343636,4.200669,-85.759483,-0.3,-0.1,639.0
38.55,-128.247899535,0.50395968,1940.5,12.3110935,4.212214,-85.72560100000001,-0.3,-0.05,639.0
38.6,-128.24797629,0.50396481,1941.0,12.278551,4.223759,-85.691719,-0.3,0.0,639.0
38.65,-128.248043875,0.503969365,1941.5,12.2582385,4.229826,-85.67113499999999,-0.3,0.1,639.0
38.7,-128.24811146,0.50397392,1942.0,12.237926,4.235893,-85.650551,-0.3,0.2,639.0
38.75,-128.248188215,0.5039796249999999,1943.0,12.182468,4.2401255,-85.60045249999999,-0.3,0.25,639.0
38.8,-128.24826497,0.50398533,1944.0,12.12701,4.244358,-85.550354,-0.3,0.3,639.0
38.85,-128.24834171999998,0.5039904550000001,1944.5,12.0976475,4.246599,-85.5238305,-0.35,0.2,639.0
38.9,-128.24841847,0.50399558,1945.0,12.068285,4.24884,-85.497307,-0.4,0.1,639.0
38.95,-128.248493505,0.504001285,1946.0,11.957823,4.2678925,-85.440014,-0.45,-0.1,639.0
39.0,-128.24856854,0.50400699,1947.0,11.847361,4.286945,-85.382721,-0.5,-0.3,639.0
39.05,-128.24863384000002,0.50401155,1947.5,11.7928635,4.296647,-85.35566700000001,-0.55,-0.4499999999999999,639.0
39.1,-128.24869914,0.50401611,1948.0,11.738366,4.306349,-85.328613,-0.6,-0.6,639.0
39.15,-128.24877818,0.50402239,1948.5,11.696736,4.3137605,-85.3079415,-0.55,-0.6,639.0
39.2,-128.24885722,0.50402867,1949.0,11.655106,4.321172,-85.28727,-0.5,-0.6,639.0
39.25,-128.24894314,0.5040349399999999,1950.0,11.380011,4.3456545,-85.2234765,-0.5,-0.55,639.0
39.3,-128.24902906,0.50404121,1951.0,11.104916,4.370137,-85.159683,-0.5,-0.5,639.0
39.35,-128.24911326,0.50404806,1952.0,10.9548535,4.383490999999999,-85.1248815,-0.5,-0.45,639.0
39.4,-128.24919746,0.50405491,1953.0,10.804791,4.396845,-85.09008,-0.5,-0.4,639.0
39.45,-128.24927192,0.504060615,1953.5,10.4787355,4.411465,-85.0396725,-0.5,-0.35,639.0
39.5,-128.24934638,0.50406632,1954.0,10.15268,4.426085,-84.989265,-0.5,-0.3,639.0
39.55,-128.249427715,0.504073175,1955.0,9.855351,4.438219,-84.945385,-0.5,-0.3,639.0
39.6,-128.24950905,0.50408003,1956.0,9.558022,4.450353,-84.901505,-0.5,-0.3,639.0
39.65,-128.24958350999998,0.504085735,1956.5,9.332559,4.459087,-84.872231,-0.5,-0.2,639.0
39.7,-128.24965797,0.50409144,1957.0,9.107096,4.467821,-84.842957,-0.5,-0.1,639.0
39.75,-128.249736445,0.5040982949999999,1958.0,8.574902,4.486813,-84.78769700000001,-0.5,-0.05,639.0
39.8,-128.24981492,0.50410515,1959.0,8.042708,4.505805,-84.732437,-0.5,-0.0,639.0
39.85,-128.24988193500002,0.504110285,1959.5,7.7911795,4.514780999999999,-84.7063255,-0.5,0.0,639.0
39.9,-128.24994895,0.50411542,1960.0,7.539651,4.523757,-84.680214,-0.5,0.0,639.0
39.95,-128.25003544,0.5041228449999999,1961.0,7.0431045,4.5432985,-84.63900000000001,-0.5,0.1,639.0
40.0,-128.25012193,0.50413027,1962.0,6.546558,4.56284,-84.597786,-0.5,0.2,639.0
40.05,-128.250198685,0.504137125,1962.5,6.157559,4.5784565,-84.5672415,-0.5,0.25,639.0
40.1,-128.25027544,0.50414398,1963.0,5.76856,4.594073,-84.536697,-0.5,0.3,639.0
40.15,-128.250355625,0.504150835,1964.0,5.397330999999999,4.609151499999999,-84.5107495,-0.5,0.35,639.0
40.2,-128.25043581,0.50415769,1965.0,5.026102,4.62423,-84.484802,-0.5,0.4,639.0
40.25,-128.2505034,0.5041633999999999,1965.5,4.4755795,4.646912,-84.45214849999999,-0.5,0.45,639.0
40.3,-128.25057099,0.50416911,1966.0,3.925057,4.669594,-84.419495,-0.5,0.5,639.0
40.35,-128.25064373499998,0.504175395,1967.0,3.5905875,4.6833745,-84.3996545,-0.5,0.45,639.0
40.4,-128.25071648,0.50418168,1968.0,3.256118,4.697155,-84.379814,-0.5,0.4,639.0
40.45,-128.25077834,0.5041868199999999,1968.5,2.660656,4.721671000000001,-84.354309,-0.5,0.25,639.0
40.5,-128.2508402,0.50419196,1969.0,2.065194,4.746187,-84.328804,-0.5,0.1,639.0
40.55,-128.25089748,0.5041971000000001,1969.5,1.71633,4.760548,-84.3150865,-0.5,0.0,639.0
40.6,-128.25095476,0.50420224,1970.0,1.367466,4.774909,-84.301369,-0.5,-0.1,639.0
40.65,-128.25107619,0.50421252,1971.5,0.8507640000000001,4.7971235,-84.2846565,-0.45,-0.2,639.0
40.7,-128.25119762,0.5042228,1973.0,0.334062,4.819338,-84.267944,-0.4,-0.3,639.0
40.75,-128.25128067,0.50423023,1974.0,-0.2642494999999999,4.848821,-84.26293150000001,-0.4,-0.3,639.0
40.8,-128.25136372,0.50423766,1975.0,-0.862561,4.878304,-84.257919,-0.4,-0.3,639.0
40.85,-128.25143303,0.504243945,1975.5,-1.1587055,4.8928975,-84.255436,-0.4,-0.3,639.0
40.9,-128.25150234,0.50425023,1976.0,-1.45485,4.907491,-84.252953,-0.4,-0.3,639.0
40.95,-128.25158024,0.504257085,1977.0,-1.8566055,4.935279,-84.2653775,-0.4,-0.25,639.0
41.0,-128.25165814,0.50426394,1978.0,-2.258361,4.963067,-84.277802,-0.4,-0.2,639.0
41.05,-128.251744055,0.5042713649999999,1979.0,-2.617891,4.9902925,-84.29357949999999,-0.4,-0.25,639.0
41.1,-128.25182997,0.50427879,1980.0,-2.977421,5.017518,-84.309357,-0.4,-0.3,639.0
41.15,-128.251903285,0.504285075,1981.0,-3.1681085,5.0416445,-84.324646,-0.4,-0.3,639.0
41.2,-128.2519766,0.50429136,1982.0,-3.358796,5.065771,-84.339935,-0.4,-0.3,639.0
41.25,-128.252043615,0.50429707,1982.5,-3.540632,5.112495,-84.3714445,-0.35,-0.3,639.0
41.3,-128.25211063,0.50430278,1983.0,-3.722468,5.159219,-84.402954,-0.3,-0.3,639.0
41.35,-128.252197695,0.5043102049999999,1984.0,-3.8567795,5.1937315,-84.4262275,-0.3,-0.3,639.0
41.4,-128.25228476,0.50431763,1985.0,-3.991091,5.228244,-84.449501,-0.3,-0.3,639.0
41.45,-128.25235807500002,0.50432391,1986.0,-4.077449,5.322311,-84.4839705,-0.3,-0.25,639.0
41.5,-128.25243139,0.50433019,1987.0,-4.163807,5.416378,-84.51844,-0.3,-0.2,639.0
41.55,-128.25251502,0.50433762,1988.0,-4.2295415,5.514042,-84.55174600000001,-0.25,-0.15,639.0
41.6,-128.25259865,0.50434505,1989.0,-4.295276,5.611706,-84.585052,-0.2,-0.1,639.0
41.65,-128.25267311,0.50435133,1989.5,-4.3302075,5.721266,-84.61010350000001,-0.2,-0.05,639.0
41.7,-128.25274757,0.50435761,1990.0,-4.365139,5.830826,-84.635155,-0.2,0.0,639.0
41.75,-128.25283005,0.50436446,1991.0,-4.3974465,6.0762505,-84.67667399999999,-0.1,0.1,639.0
41.8,-128.25291253,0.50437131,1992.0,-4.429754,6.321675,-84.718193,-0.0,0.2,639.0
41.85,-128.25298069000002,0.50437702,1993.0,-4.445061,6.437954,-84.73786150000001,0.05,0.2,639.0
41.9,-128.25304885,0.50438273,1994.0,-4.460368,6.554233,-84.75753,0.1,0.2,639.0
41.95,-128.25313477,0.50438958,1995.0,-4.476191,6.830264,-84.792904,0.2,0.0499999999999999,639.0
42.0,-128.25322069,0.50439643,1996.0,-4.492014,7.106295,-84.828278,0.3,-0.1,639.0
42.05,-128.253292285,0.50440214,1997.0,-4.500593,7.2824985,-84.850014,0.4,-0.2,639.0
42.1,-128.25336388,0.50440785,1998.0,-4.509172,7.458702,-84.87175,0.5,-0.3,639.0
42.15,-128.253446935,0.5044147,1999.5,-4.5116745,7.621200999999999,-84.89173500000001,0.5,-0.35,639.0
42.2,-128.25352999,0.50442155,2001.0,-4.514177,7.7837,-84.91172,0.5,-0.4,639.0
42.25,-128.25359586000002,0.504426685,2002.0,-4.507068,7.969767,-84.934494,0.55,-0.45,639.0
42.3,-128.25366173,0.50443182,2003.0,-4.499959,8.155834,-84.957268,0.6,-0.5,639.0
42.35,-128.25373675999998,0.5044375249999999,2004.0,-4.495398,8.2752285,-84.971882,0.6,-0.4,639.0
42.4,-128.25381179,0.50444323,2005.0,-4.490837,8.394623,-84.986496,0.6,-0.3,639.0
42.45,-128.25389828,0.50445008,2006.5,-4.471912,8.556746,-85.012108,0.55,-0.0999999999999999,639.0
42.5,-128.25398477,0.50445693,2008.0,-4.452987,8.718869,-85.03772,0.5,0.1,639.0
42.55,-128.254050065,0.504462065,2009.0,-4.440022,8.8150635,-85.0537075,0.5,0.25,638.5
42.6,-128.25411536,0.5044672,2010.0,-4.427057,8.911258,-85.069695,0.5,0.4,638.0
42.65,-128.254200135,0.504473475,2011.5,-4.4141575,8.998922,-85.0853615,0.5,0.3,638.0
42.7,-128.25428491,0.50447975,2013.0,-4.401258,9.086586,-85.101028,0.5,0.2,638.0
42.75,-128.254364525,0.5044860250000001,2014.5,-4.373389,9.238731,-85.133747,0.5,0.1,638.0
42.8,-128.25444414,0.5044923,2016.0,-4.34552,9.390876,-85.166466,0.5,0.0,638.0
42.85,-128.254513445,0.504497435,2017.0,-4.3317235,9.466193,-85.18266700000001,0.5,-0.05,638.0
42.9,-128.25458275,0.50450257,2018.0,-4.317927,9.54151,-85.198868,0.5,-0.1,638.0
42.95,-128.254662365,0.50450827,2019.5,-4.2977415,9.6852315,-85.2302665,0.5,-0.2,638.0
43.0,-128.25474198,0.50451397,2021.0,-4.277556,9.828953,-85.261665,0.5,-0.3,638.0
43.05,-128.254821595,0.5045202449999999,2022.5,-4.2622315,9.9445025,-85.28698349999999,0.5,-0.35,637.5
43.1,-128.25490121,0.50452652,2024.0,-4.246907,10.060052,-85.312302,0.5,-0.4,637.0
43.15,-128.25497281000003,0.50453165,2025.5,-4.2356195,10.1561975,-85.332352,0.5,-0.45,637.0
43.2,-128.25504441,0.50453678,2027.0,-4.224332,10.252343,-85.352402,0.5,-0.5,637.0
43.25,-128.25511715,0.5045419099999999,2028.5,-4.2082565,10.407313,-85.38324349999999,0.5,-0.5,637.0
43.3,-128.25518989,0.50454704,2030.0,-4.192181,10.562283,-85.414085,0.5,-0.5,637.0
43.35,-128.255269505,0.504552745,2031.5,-4.1819425,10.6609905,-85.4337235,0.5,-0.5,636.5
43.4,-128.25534912,0.50455845,2033.0,-4.171704,10.759698,-85.453362,0.5,-0.5,636.0
43.45,-128.25542129000002,0.50456358,2034.5,-4.156535,10.919083,-85.4801445,0.5,-0.55,636.0
43.5,-128.25549346,0.50456871,2036.0,-4.141366,11.078468,-85.506927,0.5,-0.6,636.0
43.55,-128.25556964,0.504573835,2037.5,-4.128762,11.212639,-85.528877,0.55,-0.6499999999999999,636.0
43.6,-128.25564582,0.50457896,2039.0,-4.116158,11.34681,-85.550827,0.6,-0.7,636.0
43.65,-128.25570997,0.50458352,2040.5,-4.106434500000001,11.451616,-85.56709649999999,0.6,-0.6499999999999999,635.5
43.7,-128.25577412,0.50458808,2042.0,-4.096711,11.556422,-85.583366,0.6,-0.6,635.0
43.75,-128.255822805,0.5045915,2043.0,-4.0873425,11.659396999999998,-85.5980225,0.6,-0.6,635.0
43.8,-128.25587149,0.50459492,2044.0,-4.077974,11.762372,-85.612679,0.6,-0.6,635.0
43.85,-128.255974015,0.5046017549999999,2046.5,-4.066281,11.8908885,-85.6309665,0.55,-0.55,635.0
43.9,-128.25607654,0.50460859,2049.0,-4.054588,12.019405,-85.649254,0.5,-0.5,635.0
43.95,-128.25614012,0.504612575,2050.5,-4.048971,12.117331,-85.6617775,0.5,-0.55,634.5
44.0,-128.2562037,0.50461656,2052.0,-4.043354,12.215257,-85.674301,0.5,-0.6,634.0
44.05,-128.256307945,0.5046239699999999,2054.5,-4.0358485,12.3542485,-85.69188299999999,0.5,-0.6,634.0
44.1,-128.25641219,0.50463138,2057.0,-4.028343,12.49324,-85.709465,0.5,-0.6,634.0
44.15,-128.256482065,0.504635935,2059.0,-4.0253455,12.5776615,-85.72054299999999,0.5,-0.6,633.5
44.2,-128.25655194,0.50464049,2061.0,-4.022348,12.662083,-85.731621,0.5,-0.6,633.0
44.25,-128.25662067500002,0.50464447,2062.5,-4.020178,12.8411375,-85.75619900000001,0.5,-0.6,633.0
44.3,-128.25668941,0.50464845,2064.0,-4.018008,13.020192,-85.780777,0.5,-0.6,633.0
44.35,-128.25677246,0.50465415,2066.0,-4.016564499999999,13.139246,-85.79711900000001,0.55,-0.5,632.5
44.4,-128.25685551,0.50465985,2068.0,-4.015121,13.2583,-85.813461,0.6,-0.4,632.0
44.45,-128.256925385,0.504664405,2070.0,-4.031181,13.5781345,-85.851223,0.6499999999999999,-0.35,632.0
44.5,-128.25699526,0.50466896,2072.0,-4.047241,13.897969,-85.888985,0.7,-0.3,632.0
44.55,-128.257076595,0.504673505,2074.0,-4.064031999999999,14.2071565,-85.92511400000001,0.85,-0.2,631.5
44.6,-128.25715793,0.50467805,2076.0,-4.080823,14.516344,-85.961243,1.0,-0.1,631.0
44.65,-128.25722838000002,0.504682605,2078.5,-4.102168,14.729125,-85.985165,1.1,-0.15,631.0
44.7,-128.25729883,0.50468716,2081.0,-4.123513,14.941906,-86.009087,1.2,-0.2,631.0
44.75,-128.25737558,0.50469171,2083.0,-4.218718,15.436298,-86.0602265,1.25,-0.2,630.5
44.8,-128.25745233,0.50469626,2085.0,-4.313923,15.93069,-86.111366,1.3,-0.2,630.0
44.85,-128.257525645,0.5047008150000001,2087.0,-4.364718,16.194467,-86.138645,1.4,-0.3,629.5
44.9,-128.25759896,0.50470537,2089.0,-4.415513,16.458244,-86.165924,1.5,-0.4,629.0
44.95,-128.25766368,0.504708775,2091.0,-4.537702,16.696662,-86.195778,1.55,-0.5,628.5
45.0,-128.2577284,0.50471218,2093.0,-4.659891,16.93508,-86.225632,1.6,-0.6,628.0
45.05,-128.25780859,0.50471673,2095.5,-4.778437,17.138016,-86.252041,1.55,-0.7,628.0
45.1,-128.25788878,0.50472128,2098.0,-4.896983,17.340952,-86.27845,1.5,-0.8,628.0
45.15,-128.25795865499998,0.5047252550000001,2100.5,-4.963884999999999,17.4707335,-86.3003005,1.45,-0.75,627.5
45.2,-128.25802853,0.50472923,2103.0,-5.030787,17.600515,-86.322151,1.4,-0.7,627.0
45.25,-128.25810929,0.50473378,2105.5,-5.1157875,17.8164435,-86.3731915,1.35,-0.6499999999999999,626.5
45.3,-128.25819005,0.50473833,2108.0,-5.200788,18.032372,-86.424232,1.3,-0.6,626.0
45.35,-128.25825592,0.5047417350000001,2110.5,-5.241358,18.1354325,-86.448593,1.25,-0.6499999999999999,626.0
45.4,-128.25832179,0.50474514,2113.0,-5.281928,18.238493,-86.472954,1.2,-0.7,626.0
45.45,-128.25840083,0.50474911,2116.0,-5.323646999999999,18.5676545,-86.53587350000001,1.25,-0.8,625.5
45.5,-128.25847987,0.50475308,2119.0,-5.365366,18.896816,-86.598793,1.3,-0.9,625.0
45.55,-128.258545165,0.5047564849999999,2121.0,-5.387686,19.1067295,-86.638195,1.35,-1.0,624.5
45.6,-128.25861046,0.50475989,2123.0,-5.410006,19.316643,-86.677597,1.4,-1.1,624.0
45.65,-128.258675755,0.5047633,2125.5,-5.4228655,19.4613565,-86.7042505,1.45,-1.15,623.5
45.7,-128.25874105,0.50476671,2128.0,-5.435725,19.60607,-86.730904,1.5,-1.2,623.0
45.75,-128.25882181,0.50477068,2131.0,-5.442097,19.9946465,-86.7967645,1.55,-1.25,622.5
45.8,-128.25890257,0.50477465,2134.0,-5.448469,20.383223,-86.862625,1.6,-1.3,622.0
45.85,-128.25896957999998,0.504777475,2137.0,-5.4515405,20.570552,-86.894375,1.6,-1.15,621.5
45.9,-128.25903659,0.5047803,2140.0,-5.454612,20.757881,-86.926125,1.6,-1.0,621.0
45.95,-128.259112765,0.5047837,2143.0,-5.4838805,21.1268255,-86.98648850000001,1.6,-0.75,620.5
46.0,-128.25918894,0.5047871,2146.0,-5.513149,21.49577,-87.046852,1.6,-0.5,620.0
46.05,-128.25924679000002,0.504789935,2148.5,-5.5327615,21.7205105,-87.08344650000001,1.6,-0.3,619.5
46.1,-128.25930464,0.50479277,2151.0,-5.552374,21.945251,-87.120041,1.6,-0.1,619.0
46.15,-128.25938082,0.504796165,2154.0,-5.589589500000001,22.1367185,-87.151821,1.65,-0.3,618.5
46.2,-128.259457,0.50479956,2157.0,-5.626805,22.328186,-87.183601,1.7,-0.5,618.0
46.25,-128.259530885,0.5048023850000001,2160.0,-5.7535365,22.566241,-87.225483,1.7,-0.75,617.5
46.3,-128.25960477,0.50480521,2163.0,-5.880268,22.804296,-87.267365,1.7,-1.0,617.0
46.35,-128.25966891500002,0.5048074650000001,2166.0,-5.945834,22.927457500000003,-87.2890245,1.7,-1.1,616.5
46.4,-128.25973306,0.50480972,2169.0,-6.0114,23.050619,-87.310684,1.7,-1.2,616.0
46.45,-128.25980408499998,0.5048125400000001,2172.5,-6.152011,23.2827435,-87.3638535,1.7,-1.2,615.5
46.5,-128.25987511,0.50481536,2176.0,-6.292622,23.514868,-87.417023,1.7,-1.2,615.0
46.55,-128.259947275,0.504818185,2179.0,-6.407302,23.700762,-87.46110949999999,1.7,-1.15,614.5
46.6,-128.26001944,0.50482101,2182.0,-6.521982,23.886656,-87.505196,1.7,-1.1,614.0
46.65,-128.260061825,0.50482213,2184.0,-6.5724825,23.9685155,-87.52460099999999,1.65,-1.2000000000000002,613.5
46.7,-128.26010421,0.50482325,2186.0,-6.622983,24.050375,-87.544006,1.6,-1.3,613.0
46.75,-128.26013799999998,0.5048249499999999,2187.5,-6.7182195,24.251932,-87.5940435,1.65,-1.35,613.0
46.8,-128.26017179,0.50482665,2189.0,-6.813456,24.453489,-87.644081,1.7,-1.4,613.0
46.85,-128.260299515,0.504830585,2195.5,-6.93592,24.712672,-87.7084275,1.65,-1.5,612.0
46.9,-128.26042724,0.50483452,2202.0,-7.058384,24.971855,-87.772774,1.6,-1.6,611.0
46.95,-128.26049196000002,0.504836195,2205.5,-7.1600785,25.1775005,-87.83162300000001,1.6,-1.4500000000000002,610.5
47.0,-128.26055668,0.50483787,2209.0,-7.261773,25.383146,-87.890472,1.6,-1.3,610.0
47.05,-128.26063113499998,0.504840115,2212.5,-7.349136,25.558503,-87.9417645,1.55,-1.15,609.0
47.1,-128.26070559,0.50484236,2216.0,-7.436499,25.73386,-87.993057,1.5,-1.0,608.0
47.15,-128.26076516,0.50484404,2219.0,-7.506185500000001,25.82152,-88.0203435,1.45,-1.0,607.5
47.2,-128.26082473,0.50484572,2222.0,-7.575872,25.90918,-88.04763,1.4,-1.0,607.0
47.25,-128.260903195,0.504847965,2226.5,-7.759753,26.0043355,-88.0840795,1.2999999999999998,-0.95,606.0
47.3,-128.26098166,0.50485021,2231.0,-7.943634,26.099491,-88.120529,1.2,-0.9,605.0
47.35,-128.26104465999998,0.50485131,2234.5,-8.0241965,26.14118,-88.1364975,1.15,-1.0,604.5
47.4,-128.26110766,0.50485241,2238.0,-8.104759,26.182869,-88.152466,1.1,-1.1,604.0
47.45,-128.26117811,0.5048540850000001,2242.0,-8.331379,26.143134,-88.16746900000001,1.05,-1.4,603.5
47.5,-128.26124856,0.50485576,2246.0,-8.557999,26.103399,-88.182472,1.0,-1.7,603.0
47.55,-128.26131041500005,0.5048568600000001,2249.0,-8.7321225,26.059349,-88.19141400000001,0.9,-1.85,602.5
47.6,-128.26137227,0.50485796,2252.0,-8.906246,26.015299,-88.200356,0.8,-2.0,602.0
47.65,-128.26143298,0.504859065,2255.5,-9.01419,25.998607,-88.213627,0.7,-1.85,601.5
47.7,-128.26149369,0.50486017,2259.0,-9.122134,25.981915,-88.226898,0.6,-1.7,601.0
47.75,-128.261565855,0.50486184,2263.0,-9.263324,26.017941,-88.2863275,0.6,-1.5499999999999998,600.5
47.8,-128.26163802,0.50486351,2267.0,-9.404514,26.053967,-88.345757,0.6,-1.4,600.0
47.85,-128.261707325,0.504864605,2270.5,-9.481351,26.0735735,-88.378098,0.55,-1.4,599.5
47.9,-128.26177663,0.5048657,2274.0,-9.558188,26.09318,-88.410439,0.5,-1.4,599.0
47.95,-128.26183505,0.50486623,2277.5,-9.5900705,26.2893915,-88.48738499999999,0.6,-1.45,598.0
48.0,-128.26189347,0.50486676,2281.0,-9.621953,26.485603,-88.564331,0.7,-1.5,597.0
48.05,-128.26195188999998,0.504867865,2284.0,-9.6398745,26.6654965,-88.631088,0.8,-1.55,596.5
48.1,-128.26201031,0.50486897,2287.0,-9.657796,26.84539,-88.697845,0.9,-1.6,596.0
48.15,-128.26207961,0.5048694899999999,2291.0,-9.6496255,26.9818085,-88.750061,1.0,-1.85,595.5
48.2,-128.26214891,0.50487001,2295.0,-9.641455,27.118227,-88.802277,1.1,-2.1,595.0
48.25,-128.26221420000002,0.5048711100000001,2299.0,-9.5792855,27.256586,-88.859196,1.1,-2.3,594.5
48.3,-128.26227949,0.50487221,2303.0,-9.517116,27.394945,-88.916115,1.1,-2.5,594.0
48.35,-128.26234191999998,0.504872735,2306.5,-9.4826955,27.471549,-88.947632,1.1,-2.55,593.5
48.4,-128.26240435,0.50487326,2310.0,-9.448275,27.548153,-88.979149,1.1,-2.6,593.0
48.45,-128.26247308,0.50487378,2314.0,-9.275461,27.557432,-89.0198935,1.0,-2.45,592.0
48.5,-128.26254181,0.5048743,2318.0,-9.102647,27.566711,-89.060638,0.9,-2.3,591.0
48.55,-128.26258647999998,0.504874265,2320.5,-8.9507455,27.5544125,-89.09004949999999,0.8500000000000001,-2.2,590.5
48.6,-128.26263115,0.50487423,2323.0,-8.798844,27.542114,-89.119461,0.8,-2.1,590.0
48.65,-128.262706755,0.504874745,2327.5,-8.636521,27.53112,-89.146095,0.75,-2.25,589.5
48.7,-128.26278236,0.50487526,2332.0,-8.474198,27.520126,-89.172729,0.7,-2.4,589.0
48.75,-128.262856815,0.5048752000000001,2336.5,-8.0831885,27.4986935,-89.22564650000001,0.6499999999999999,-2.65,588.5
48.8,-128.26293127,0.50487514,2341.0,-7.692179,27.477261,-89.278564,0.6,-2.9,588.0
48.85,-128.26299025999998,0.5048756649999999,2344.5,-7.508353,27.4671835,-89.30344,0.55,-2.9,587.5
48.9,-128.26304925,0.50487619,2348.0,-7.324527,27.457106,-89.328316,0.5,-2.9,587.0
48.95,-128.26309908000002,0.50487615,2350.5,-7.046697,27.4582885,-89.3586005,0.5,-2.75,586.0
49.0,-128.26314891,0.50487611,2353.0,-6.768867,27.459471,-89.388885,0.5,-2.6,585.0
49.05,-128.263196445,0.504876075,2355.5,-6.505148,27.4636165,-89.41629,0.45,-2.55,584.5
49.1,-128.26324398,0.50487604,2358.0,-6.241429,27.467762,-89.443695,0.4,-2.5,584.0
49.15,-128.26332359,0.504875975,2363.5,-6.047083000000001,27.470817500000003,-89.46388999999999,0.2,-1.25,583.0
49.2,-128.2634032,0.50487591,2369.0,-5.852737,27.473873,-89.484085,0.0,0.0,582.0
49.25,-128.26347307499998,0.50487585,2373.0,-5.5648990000000005,27.5182295,-89.510044,-0.15,1.45,581.0
49.3,-128.26354295,0.50487579,2377.0,-5.277061,27.562586,-89.536003,-0.3,2.9,580.0
49.35,-128.26360194,0.50487574,2380.5,-5.115709,27.587452,-89.550556,-0.35,3.45,580.0
49.4,-128.26366093,0.50487569,2384.0,-4.954357,27.612318,-89.565109,-0.4,4.0,580.0
49.45,-128.26370617499998,0.504875655,2386.5,-4.8315145,27.6115005,-89.56769550000001,-0.35,3.85,579.5
49.5,-128.26375142,0.50487562,2389.0,-4.708672,27.610683,-89.570282,-0.3,3.7,579.0
49.55,-128.2638316,0.50487498,2394.0,-4.556706999999999,27.603642,-89.5708885,-0.3,3.45,578.0
49.6,-128.26391178,0.50487434,2399.0,-4.404742,27.596601,-89.571495,-0.3,3.2,577.0
49.65,-128.26397478,0.504874285,2403.0,-4.327581,27.54749,-89.5633165,-0.35,3.2,576.5
49.7,-128.26403778,0.50487423,2407.0,-4.25042,27.498379,-89.555138,-0.4,3.2,576.0
49.75,-128.26410364499998,0.5048736,2411.0,-4.154343,27.233619,-89.507019,-0.55,3.2,575.5
49.8,-128.26416951,0.50487297,2415.0,-4.058266,26.968859,-89.4589,-0.7,3.2,575.0
