Time,Longitude,Latitude,Altitude,Roll,Pitch,Yaw,AOA,AOS,TAS
0.11199927,-128.17821059,0.57422818,26.0,-10.935645,18.578638,63.504593,11.5,3.2,204.0
0.20400047,-128.17817166,0.57424897,26.0,-11.074564,18.289244,63.391861,11.0,3.2,205.0
0.31309009,-128.17812357,0.57427439,27.0,-11.454412,17.643723,63.266083,9.9,3.2,206.0
0.40609026,-128.17808234,0.57429749,28.0,-11.990579,16.833723,63.139633,9.1,3.2,206.0
0.51508904,-128.1780354,0.57432291,29.0,-12.75158,15.787931,62.961105,7.7,3.0,207.0
0.60693526,-128.17799417,0.57434486,29.0,-13.456793,14.860516,62.765732,6.9,2.9,208.0
0.71193576,-128.17794837,0.57437027,30.0,-14.385559,13.657716,62.480179,5.8,2.7,209.0
0.81693482,-128.17790142,0.57439569,31.0,-15.291817,12.568331,62.124512,5.0,2.4,210.0
0.90693569,-128.17786249,0.57441764,31.0,-16.197083,11.6373,61.753632,4.4,2.1,211.0
1.01500845,-128.1778144,0.57444421,32.0,-17.30687,10.722412,61.216583,3.9,1.7,212.0
1.10800862,-128.17777318,0.57446731,33.0,-18.295753,10.111355,60.685196,3.6,1.2,213.0
1.21700788,-128.17772394,0.57449503,33.0,-19.658375,9.533131,59.995865,3.6,0.8,214.0
1.30900812,-128.17768386,0.57451929,34.0,-20.718122,9.243633,59.378387,3.7,0.5,214.0
1.41601515,-128.17763463,0.57454701,35.0,-22.017567,9.044065,58.628052,4.1,0.1,216.0
1.50900841,-128.17759111,0.57457243,35.0,-23.134586,9.01009,57.972473,4.5,-0.0,217.0
1.61657691,-128.17754302,0.5746013,36.0,-24.220284,9.113564,57.253952,5.0,-0.2,218.0
1.71057701,-128.17750066,0.57462671,36.0,-25.018175,9.305178,56.663773,5.5,-0.2,219.0
1.81757712,-128.17745142,0.57465559,37.0,-25.561638,9.566835,56.066193,6.0,-0.2,220.0
1.91057777,-128.17740906,0.574681,37.0,-25.673702,9.826484,55.633102,6.4,-0.1,221.0
2.01677895,-128.17735982,0.57471219,37.0,-25.232887,10.091266,55.253448,6.7,-0.0,222.0
2.10678148,-128.17731975,0.5747376,38.0,-24.425383,10.266105,55.047012,6.9,0.1,222.0
2.21177936,-128.17727166,0.57476878,38.0,-22.745319,10.445018,54.909012,7.0,0.2,223.0
2.31756091,-128.17722472,0.57479881,39.0,-20.599894,10.540354,54.880692,7.0,0.3,224.0
2.40956044,-128.17718121,0.57482768,39.0,-18.013878,10.559293,54.933517,7.0,0.3,225.0
2.50356126,-128.17713884,0.5748554,39.0,-15.31383,10.528169,55.031876,6.9,0.3,226.0
2.61163688,-128.17708847,0.57488889,40.0,-11.603185,10.492989,55.1745,6.7,0.2,227.0
2.7166369,-128.17704038,0.57492123,40.0,-8.174196,10.569389,55.310059,6.7,0.1,228.0
2.80663753,-128.17700031,0.57494894,41.0,-5.505387,10.744604,55.436386,6.9,0.0,229.0
2.91163659,-128.17695107,0.57498243,41.0,-2.477196,11.126549,55.623474,7.1,-0.1,230.0
3.00176334,-128.176911,0.57501015,42.0,-0.20417,11.58699,55.830872,7.5,-0.1,231.0
3.10676122,-128.17686062,0.57504364,42.0,2.351461,12.269421,56.171646,8.0,-0.2,232.0
3.21176267,-128.17681483,0.57507598,43.0,4.676326,12.934095,56.602219,8.4,-0.2,232.0
3.31676126,-128.17676445,0.57510947,43.0,6.886454,13.441637,57.14798,8.7,-0.1,233.0
3.40676475,-128.17672094,0.57513834,44.0,9.086955,13.751295,57.70253,8.8,-0.1,234.0
3.51176238,-128.17667171,0.57517183,44.0,11.557014,13.902155,58.359711,8.7,0.0,235.0
3.61734509,-128.17662248,0.57520417,45.0,14.192605,13.892768,59.064346,8.5,0.1,235.0
3.71134567,-128.17657782,0.5752342,46.0,16.767916,13.777283,59.695312,8.3,0.2,236.0
3.80534625,-128.17653317,0.57526192,46.0,19.25338,13.610155,60.345169,8.1,0.3,237.0
3.91434622,-128.1764805,0.57529656,47.0,22.396883,13.367332,61.131622,7.8,0.3,238.0
4.0084672,-128.17643585,0.57532428,48.0,25.02099,13.160402,61.798141,7.6,0.3,238.0
4.11646724,-128.17637974,0.57535893,48.0,28.483273,12.885056,62.656204,7.4,0.4,239.0
4.20946741,-128.17633509,0.57538665,49.0,31.258884,12.652169,63.368484,7.3,0.4,240.0
4.30157137,-128.17629043,0.57541322,50.0,33.817677,12.422717,64.082611,7.2,0.4,240.0
4.41057014,-128.17623318,0.57544672,51.0,37.220806,12.096847,65.013168,7.1,0.3,241.0
4.50257015,-128.17618967,0.57547098,51.0,39.647717,11.861359,65.743225,7.1,0.3,242.0
4.6101613,-128.17613127,0.57550332,52.0,42.777496,11.580495,66.803787,7.1,0.3,243.0
4.71667576,-128.17607745,0.57553221,53.0,45.486732,11.364978,67.912521,7.3,0.3,243.0
4.80667615,-128.1760305,0.57555647,54.0,47.52216,11.206072,68.968277,7.5,0.4,244.0
4.91167641,-128.17597324,0.57558535,55.0,49.720085,11.019723,70.335632,7.8,0.4,245.0
5.01680684,-128.17591942,0.57561193,55.0,51.678349,10.824109,71.7686,8.2,0.6,246.0
5.10680604,-128.17586903,0.57563504,56.0,53.260925,10.628852,73.144608,8.5,0.7,246.0
5.21180582,-128.17581292,0.57565931,57.0,55.031551,10.358727,74.77446,8.9,1.0,247.0
5.30180693,-128.17576253,0.57568127,57.0,56.435455,10.096243,76.343933,9.3,1.2,247.0
5.40680742,-128.17570527,0.57570439,58.0,57.807926,9.771106,78.218658,9.7,1.5,248.0
5.51180601,-128.17564686,0.57572635,59.0,58.943752,9.395682,80.139191,10.2,1.9,249.0
5.61740303,-128.1755896,0.57574717,59.0,59.759991,8.999529,82.08075,10.7,2.4,249.0
5.7119205,-128.17553233,0.57576567,60.0,60.381828,8.528665,83.938751,11.0,3.0,250.0
5.8019197,-128.17547965,0.57578187,61.0,60.770901,8.008965,85.536163,11.2,3.4,250.0
5.90692186,-128.17542009,0.57579807,61.0,61.014225,7.36085,87.104736,11.1,4.0,251.0
6.01400971,-128.1753548,0.57581427,62.0,61.012875,6.547838,88.577057,10.8,4.6,252.0
6.1080091,-128.17530097,0.57582701,63.0,60.78233,5.914009,89.669403,10.4,5.1,252.0
6.21701264,-128.17523683,0.57583975,63.0,60.286793,5.19108,90.906372,10.0,5.6,253.0
6.30967116,-128.17517955,0.57585019,64.0,59.768539,4.715061,91.968079,9.7,6.0,253.0
6.41667557,-128.17511541,0.57586062,65.0,59.043861,4.279572,93.130157,9.4,6.3,254.0
6.50667143,-128.17506042,0.57586759,65.0,58.31712,4.003911,94.068878,9.2,6.4,254.0
6.61181831,-128.17499627,0.57587573,66.0,57.339542,3.799421,95.148651,8.9,6.5,255.0
6.71681762,-128.17492983,0.57588155,66.0,56.247261,3.719511,96.196594,8.7,6.6,256.0
6.80681849,-128.1748737,0.57588622,67.0,55.261749,3.753567,97.046783,8.6,6.5,256.0
6.91181827,-128.17481069,0.57588974,67.0,54.005745,3.902383,97.970612,8.5,6.4,257.0
7.01696253,-128.1747431,0.57589211,68.0,52.399029,4.217423,98.97226,8.4,6.2,258.0
7.10696244,-128.17468926,0.57589331,68.0,50.992531,4.58095,99.78125,8.5,6.0,258.0
7.2119627,-128.17462166,0.57589337,69.0,48.981571,5.183138,100.813538,8.6,5.8,259.0
7.31696224,-128.17455636,0.57589228,69.0,46.958305,5.841078,101.808197,8.8,5.6,260.0
7.40696192,-128.17449793,0.57589118,70.0,44.920856,6.534244,102.679047,9.0,5.5,260.0
7.51596212,-128.17443148,0.57588778,70.0,42.475952,7.390672,103.654297,9.3,5.4,261.0
7.60757852,-128.17437191,0.57588437,71.0,40.325119,8.158674,104.494965,9.4,5.3,261.0
7.7165792,-128.17430316,0.57587867,71.0,37.580521,9.15452,105.424316,9.7,5.3,262.0
7.8065784,-128.17424702,0.57587295,72.0,35.372959,9.966908,106.160706,9.9,5.3,263.0
7.91557956,-128.17417942,0.57586494,73.0,32.740135,10.949022,106.973236,10.0,5.4,263.0
8.00632906,-128.17412099,0.57585808,73.0,30.331547,11.859926,107.648407,10.1,5.5,263.0
8.11633015,-128.17405109,0.57584776,74.0,27.546951,12.920196,108.367981,10.3,5.6,264.0
8.21032929,-128.1739938,0.57583859,75.0,25.143007,13.837702,108.901184,10.3,5.8,264.0
8.30392528,-128.17393537,0.57582941,76.0,22.861946,14.715555,109.376221,10.4,6.0,264.0
8.41193676,-128.17386662,0.57581679,77.0,20.024836,15.822401,109.858582,10.4,6.2,265.0
8.51692486,-128.1738013,0.57580416,78.0,17.301788,16.906475,110.210449,10.4,6.4,265.0
8.60660458,-128.17374516,0.57579384,79.0,15.113611,17.798952,110.444641,10.4,6.5,265.0
8.71160555,-128.17368214,0.57578121,80.0,12.545578,18.867676,110.610077,10.3,6.6,265.0
8.81660414,-128.17361568,0.57576627,82.0,10.136334,19.887281,110.675385,10.3,6.7,265.0
8.90660405,-128.17355838,0.57575479,83.0,8.098531,20.779041,110.641815,10.2,6.8,265.0
9.01191807,-128.17349651,0.57574101,84.0,6.166383,21.633535,110.505646,10.1,6.8,265.0
9.10191774,-128.1734415,0.57572837,86.0,4.463169,22.316013,110.288483,9.9,6.7,265.0
9.206918,-128.17337619,0.57571344,88.0,2.135222,23.096916,109.900269,9.6,6.5,265.0
9.3119185,-128.17331546,0.57569966,89.0,0.102306,23.668949,109.419067,9.4,6.4,265.0
9.4169209,-128.17325014,0.57568472,92.0,-2.386538,24.280331,108.777771,9.0,6.1,265.0
9.50691795,-128.17319514,0.57567209,93.0,-4.571447,24.764221,108.172241,8.8,5.9,265.0
9.61199594,-128.17312982,0.57565716,95.0,-7.351381,25.345041,107.352722,8.6,5.7,264.0
9.70499635,-128.17307482,0.57564452,97.0,-9.783593,25.82103,106.590454,8.4,5.4,264.0
9.81299663,-128.17300951,0.57562959,100.0,-12.66991,26.332079,105.603363,8.2,5.1,264.0
9.90599656,-128.17295221,0.57561811,102.0,-15.483007,26.778961,104.694489,8.2,4.9,264.0
10.01499701,-128.17288804,0.57560432,104.0,-18.715687,27.242685,103.608978,8.1,4.7,264.0
10.10699677,-128.17283304,0.57559284,106.0,-21.629642,27.631033,102.63327,8.0,4.5,264.0
10.21699715,-128.17276888,0.57558021,109.0,-25.198854,28.088005,101.476471,8.0,4.4,263.0
10.30899811,-128.17271388,0.57556988,111.0,-28.049459,28.432573,100.451019,8.0,4.3,263.0
10.41799641,-128.172652,0.57555841,114.0,-31.232927,28.76712,99.304321,7.9,4.3,263.0
10.50899649,-128.17259356,0.57554924,116.0,-34.0228,28.995182,98.292633,7.8,4.3,263.0
10.61656642,-128.17253169,0.57553891,119.0,-36.709045,29.158974,97.238251,7.7,4.3,262.0
10.70956564,-128.17247555,0.57553089,121.0,-38.882759,29.25598,96.297638,7.6,4.3,262.0
10.80256772,-128.1724194,0.57552402,123.0,-40.834621,29.325085,95.36261,7.4,4.3,262.0
10.91056681,-128.17235868,0.57551716,126.0,-43.001915,29.395464,94.29895,7.3,4.3,262.0
11.01681423,-128.17229681,0.57551029,129.0,-45.317303,29.473297,93.153687,7.3,4.3,261.0
11.10681367,-128.17224296,0.57550573,132.0,-47.226452,29.543161,92.136047,7.3,4.4,261.0
11.21181417,-128.17218109,0.57550117,134.0,-49.598034,29.638666,90.888306,7.3,4.4,261.0
11.31681323,-128.17211693,0.57549662,137.0,-51.802994,29.731617,89.561005,7.4,4.5,260.0
11.40681314,-128.17206537,0.57549551,139.0,-53.511921,29.80184,88.453918,7.5,4.6,260.0
11.51181436,-128.17200351,0.57549326,142.0,-55.512558,29.881721,87.094482,7.6,4.7,260.0
11.61742759,-128.17194049,0.57549332,145.0,-57.483612,29.953426,85.679962,7.8,4.8,260.0
11.70942831,-128.17189009,0.57549337,148.0,-59.019432,29.999496,84.503937,7.9,4.9,259.0
11.8014276,-128.17183281,0.57549457,150.0,-60.555862,30.035503,83.173035,8.0,5.0,259.0
11.91042709,-128.17177209,0.57549809,153.0,-62.201836,30.0658,81.675903,8.2,5.1,259.0
12.01664042,-128.17170794,0.57550161,156.0,-63.825424,30.086504,80.069092,8.4,5.3,258.0
12.10664201,-128.17165753,0.57550627,158.0,-65.058144,30.091618,78.763702,8.5,5.4,258.0
12.21163845,-128.17159567,0.57551209,161.0,-66.53492,30.079887,77.117035,8.7,5.5,257.0
12.31674314,-128.17153725,0.57552022,164.0,-67.773651,30.046116,75.510254,8.9,5.6,257.0
12.40674448,-128.17148341,0.57552834,166.0,-68.893486,29.988678,74.046631,9.1,5.7,257.0
12.51174545,-128.17142499,0.57553877,168.0,-70.013428,29.897217,72.449844,9.3,5.8,256.0
12.61735773,-128.17136314,0.57555036,171.0,-71.132286,29.762085,70.745895,9.4,5.9,256.0
12.71035886,-128.17131274,0.57556194,174.0,-72.028076,29.613245,69.339432,9.5,6.0,256.0
12.80335975,-128.17125776,0.57557468,176.0,-72.854851,29.428644,67.852066,9.6,6.1,255.0
12.91235924,-128.17119591,0.57559203,179.0,-73.691422,29.170841,66.183716,9.7,6.1,255.0
13.00600743,-128.17114437,0.57560707,181.0,-74.31459,28.905474,64.825272,9.7,6.1,255.0
13.11300826,-128.17108367,0.57562674,183.0,-74.928734,28.549421,63.286301,9.7,6.1,254.0
13.20500803,-128.17103442,0.57564408,186.0,-75.379089,28.207912,62.075546,9.6,6.1,254.0
13.31400871,-128.17097487,0.57566605,188.0,-75.830383,27.777166,60.622253,9.5,6.0,254.0
13.40600753,-128.17092562,0.5756857,190.0,-76.200615,27.350502,59.430923,9.4,5.9,253.0
13.51600862,-128.17086722,0.57571113,193.0,-76.593567,26.816883,58.062729,9.2,5.8,253.0
13.60960627,-128.17081798,0.57573424,195.0,-76.887283,26.341957,56.967056,9.1,5.7,253.0
13.71724343,-128.17075957,0.57576197,197.0,-77.218475,25.675598,55.700745,8.9,5.6,253.0
13.80924249,-128.17071377,0.57578623,199.0,-77.431709,25.159403,54.732056,8.6,5.4,253.0
13.90324283,-128.17066568,0.57581165,201.0,-77.627426,24.569738,53.769608,8.4,5.3,252.0
14.01342034,-128.17060957,0.57584399,203.0,-77.798813,23.825863,52.695633,8.1,5.1,252.0
14.10741901,-128.17056148,0.57587287,205.0,-77.875565,23.183804,51.822891,7.8,4.9,252.0
14.21541977,-128.17050652,0.57590752,208.0,-77.873558,22.369638,50.876343,7.5,4.6,252.0
14.30897403,-128.17046186,0.57593639,210.0,-77.812027,21.732864,50.122604,7.2,4.4,252.0
14.41753936,-128.17041034,0.57597219,211.0,-77.692795,20.947506,49.282272,6.9,4.2,253.0
14.50953674,-128.17036454,0.57600453,213.0,-77.558517,20.215801,48.596359,6.6,4.0,253.0
14.60164261,-128.17031875,0.57603802,215.0,-77.423218,19.47678,47.934418,6.3,3.7,253.0
14.71016908,-128.17026952,0.57607612,217.0,-77.287849,18.636457,47.216049,6.0,3.5,253.0
14.80316949,-128.17022602,0.57611076,218.0,-77.188866,17.95882,46.58638,5.7,3.3,253.0
14.91316962,-128.17017221,0.57615348,220.0,-77.014252,17.084465,45.812897,5.4,3.0,254.0
15.00716996,-128.17012985,0.57618927,221.0,-76.780281,16.387745,45.167999,5.2,2.9,254.0
15.11516953,-128.17007948,0.57623314,223.0,-76.365486,15.591013,44.370972,5.1,2.7,255.0
15.20907283,-128.17003713,0.5762724,224.0,-75.909744,14.929325,43.680756,5.0,2.5,255.0
15.30207157,-128.16999478,0.57631049,225.0,-75.405319,14.326136,42.995575,4.9,2.3,255.0
15.41107392,-128.16994784,0.57635552,227.0,-74.743446,13.651037,42.2267,4.8,2.2,256.0
15.50507188,-128.16990549,0.57639592,228.0,-74.143806,13.099936,41.571335,4.7,2.1,257.0
15.61279011,-128.16985856,0.57644325,229.0,-73.440247,12.500061,40.827026,4.6,2.0,257.0
15.70678878,-128.16981736,0.57648596,230.0,-72.769341,11.97809,40.174377,4.6,2.0,258.0
15.81178951,-128.16977387,0.57653213,232.0,-72.095177,11.491051,39.475937,4.5,1.9,259.0
15.90179038,-128.1697361,0.57657253,232.0,-71.520592,11.086717,38.890289,4.5,1.9,259.0
16.01038051,-128.16968917,0.57662447,233.0,-70.784981,10.587391,38.160477,4.4,2.0,260.0
16.10538197,-128.1696514,0.57666834,234.0,-70.20433,10.222836,37.554474,4.4,2.0,261.0
16.21338058,-128.16960677,0.57672143,235.0,-69.479141,9.816339,36.828308,4.3,2.1,261.0
16.30544424,-128.16956901,0.57676644,236.0,-68.814056,9.498781,36.192093,4.4,2.2,262.0
16.41347528,-128.16952666,0.57681953,237.0,-68.0495,9.180012,35.438477,4.4,2.2,263.0
16.50547647,-128.1694889,0.57686801,237.0,-67.351669,8.901426,34.821808,4.4,2.3,264.0
16.61505055,-128.16944656,0.57692341,238.0,-66.557602,8.572801,34.154922,4.4,2.4,265.0
16.70956469,-128.16941109,0.57697188,238.0,-65.849968,8.27475,33.638687,4.3,2.5,265.0
16.81656361,-128.1693699,0.57702727,239.0,-65.035835,7.939389,33.086914,4.2,2.6,266.0
16.91056323,-128.16933557,0.5770769,239.0,-64.189629,7.599455,32.626175,4.1,2.7,267.0
17.00470233,-128.16929896,0.57712883,240.0,-63.323391,7.255746,32.138,4.0,2.7,268.0
17.11170363,-128.1692612,0.57718538,240.0,-62.356358,6.880389,31.597778,3.9,2.7,269.0
17.21670318,-128.16922345,0.57724308,241.0,-61.344463,6.503531,31.009079,3.8,2.7,270.0
17.30670261,-128.16919142,0.57729385,241.0,-60.528683,6.2083,30.441391,3.9,2.7,271.0
17.41170764,-128.16915367,0.57735386,241.0,-59.666584,5.908548,29.674698,4.0,2.6,272.0
17.50170279,-128.16912278,0.57740463,241.0,-59.068466,5.717532,28.970917,4.1,2.6,273.0
17.60733891,-128.16908846,0.57746233,241.0,-58.450722,5.55063,28.098953,4.4,2.5,274.0
17.71485543,-128.16905186,0.57752695,242.0,-57.843296,5.444396,27.069077,4.7,2.5,275.0
17.80685496,-128.16902212,0.57758003,242.0,-57.480049,5.437112,26.173584,5.0,2.5,276.0
17.9118557,-128.16898781,0.57764349,242.0,-57.126625,5.51615,25.029755,5.5,2.6,277.0
18.01685619,-128.16895464,0.5777058,242.0,-56.853588,5.678628,23.874023,5.9,2.6,278.0
18.10685611,-128.16892719,0.57775888,242.0,-56.667793,5.860152,22.902008,6.3,2.7,279.0
18.21185541,-128.16889632,0.57782234,242.0,-56.454819,6.144703,21.756775,6.7,2.9,280.0
18.31685615,-128.16886545,0.57788926,242.0,-56.260498,6.454198,20.582794,7.0,3.1,281.0
18.40685654,-128.16884029,0.5779458,242.0,-56.072388,6.782615,19.589615,7.3,3.2,282.0
18.51185417,-128.16881171,0.57801156,242.0,-55.859047,7.199833,18.460205,7.6,3.5,283.0
18.61743021,-128.16878428,0.57807963,242.0,-55.639095,7.640959,17.306305,7.9,3.7,283.0
18.71043062,-128.16876027,0.57814194,242.0,-55.417965,8.055109,16.274048,8.2,4.0,284.0
18.8034308,-128.16873856,0.57820077,242.0,-55.213188,8.451603,15.309357,8.4,4.2,285.0
18.91143036,-128.16871342,0.57827346,242.0,-55.014259,8.905025,14.156921,8.6,4.4,286.0
19.00456882,-128.16869286,0.57833691,242.0,-54.870823,9.258532,13.200607,8.6,4.6,287.0
19.11356902,-128.16867115,0.57840728,242.0,-54.720024,9.54181,12.246735,8.6,4.8,287.0
19.2075696,-128.16865403,0.57847073,242.0,-54.578121,9.684342,11.494934,8.4,5.0,288.0
19.31556845,-128.16863347,0.57854571,242.0,-54.4841,9.687561,10.714584,8.0,5.1,289.0
19.40656853,-128.16861978,0.5786057,242.0,-54.55389,9.584734,10.133667,7.7,5.1,289.0
19.51556921,-128.16860152,0.57868299,242.0,-54.968578,9.361229,9.346527,7.1,5.1,290.0
19.61015821,-128.16858898,0.57874758,243.0,-55.544548,9.133379,8.629349,6.8,5.0,291.0
19.70415688,-128.16857529,0.5788168,243.0,-56.450077,8.825806,7.803223,6.5,4.9,292.0
19.81315732,-128.16856276,0.57889062,243.0,-57.502495,8.505896,6.82756,6.3,4.8,292.0
19.90615678,-128.16855136,0.57895752,243.0,-58.619961,8.19131,5.858154,6.1,4.6,293.0
20.01615739,-128.16854112,0.57903596,243.0,-59.939594,7.839397,4.642441,6.0,4.4,294.0
20.1091578,-128.16853202,0.5791017,243.0,-60.989082,7.565207,3.571243,6.1,4.3,295.0
20.20215726,-128.1685252,0.57916745,243.0,-62.111794,7.267708,2.435989,6.1,4.1,295.0
20.31215692,-128.16851725,0.57924704,244.0,-63.277557,6.971071,1.044952,6.3,3.9,296.0
20.40415788,-128.16851273,0.57931509,244.0,-64.380753,6.717688,-0.169556,6.4,3.8,297.0
20.51215982,-128.16850822,0.57939236,244.0,-65.612366,6.458233,-1.564606,6.5,3.7,298.0
20.60486507,-128.16850484,0.57945695,244.0,-66.606049,6.260014,-2.762283,6.7,3.6,299.0
20.71186495,-128.16850262,0.57953768,244.0,-67.774368,6.038175,-4.24823,6.8,3.6,299.0
20.81686521,-128.16850269,0.57961496,244.0,-68.690712,5.871581,-5.66684,7.0,3.6,300.0
20.90686417,-128.1685039,0.57967954,244.0,-69.374298,5.747471,-6.869781,7.1,3.7,301.0
21.01186562,-128.16850741,0.57976027,244.0,-70.041321,5.621115,-8.336853,7.3,3.8,302.0
21.11686397,-128.16851092,0.57983754,244.0,-70.495239,5.528289,-9.760773,7.5,3.9,303.0
21.2068646,-128.1685167,0.57990212,243.0,-70.782784,5.463095,-10.911621,7.6,3.9,303.0
21.31186485,-128.1685248,0.57998169,243.0,-71.011711,5.403999,-12.35759,7.7,4.1,304.0
21.41686988,-128.16853288,0.58005434,243.0,-71.147018,5.36006,-13.694824,7.8,4.2,305.0
21.50686479,-128.16854325,0.58012353,243.0,-71.207741,5.326344,-14.926437,7.9,4.3,306.0
21.61152864,-128.16855593,0.58020079,243.0,-71.205185,5.290015,-16.315765,8.0,4.4,306.0
21.70452881,-128.16856974,0.58027113,243.0,-71.141129,5.251251,-17.591644,8.0,4.5,307.0
21.81452942,-128.16858585,0.58034724,242.0,-71.024178,5.206136,-18.964676,8.1,4.5,308.0
21.90652895,-128.1686031,0.58041988,242.0,-70.84874,5.150231,-20.266678,8.2,4.6,309.0
22.01452947,-128.16862265,0.58049713,242.0,-70.627243,5.086958,-21.667221,8.2,4.6,310.0
22.10852933,-128.16864333,0.58056747,241.0,-70.395096,5.022517,-22.960342,8.2,4.6,310.0
22.21652818,-128.16866746,0.58064356,241.0,-70.108307,4.941707,-24.401749,8.3,4.6,311.0
22.30852914,-128.16868929,0.58071043,241.0,-69.868004,4.865081,-25.642899,8.3,4.6,312.0
22.40408921,-128.16871455,0.58077961,240.0,-69.637695,4.764541,-26.935989,8.3,4.6,312.0
22.51308823,-128.16874326,0.58085455,240.0,-69.474518,4.645678,-28.320709,8.3,4.5,313.0
22.60573459,-128.16877082,0.58092026,240.0,-69.401711,4.523425,-29.564056,8.3,4.5,314.0
22.71173406,-128.16880641,0.58099981,239.0,-69.462303,4.356584,-31.055771,8.3,4.4,315.0
22.81673527,-128.1688397,0.58107013,239.0,-69.674095,4.200871,-32.433075,8.2,4.4,315.0
22.90673423,-128.16887068,0.58113123,238.0,-69.950706,4.062992,-33.64505,8.2,4.3,316.0
23.01183128,-128.16890856,0.5812027,238.0,-70.327126,3.906423,-35.116272,8.2,4.3,317.0
23.11683011,-128.16894872,0.58127417,237.0,-70.698685,3.750869,-36.614929,8.2,4.3,318.0
23.20683098,-128.16898314,0.58133295,237.0,-70.94075,3.628121,-37.878006,8.2,4.3,318.0
23.311831,-128.16902674,0.58140211,236.0,-71.112106,3.495567,-39.378342,8.3,4.3,319.0
23.41683531,-128.16906919,0.58146666,236.0,-71.222061,3.365216,-40.802292,8.3,4.3,320.0
23.50683188,-128.16911163,0.58152659,235.0,-71.329681,3.2396,-42.088135,8.3,4.2,321.0
23.61183071,-128.16915866,0.58159229,235.0,-71.443977,3.110537,-43.52565,8.3,4.2,321.0
23.71683073,-128.16921143,0.58166028,234.0,-71.585068,2.957053,-45.05043,8.2,4.2,322.0
23.80683136,-128.16925386,0.5817133,234.0,-71.703606,2.850494,-46.257599,8.2,4.2,323.0
23.9118309,-128.16930891,0.58177668,233.0,-71.894012,2.708494,-47.743454,8.2,4.2,324.0
24.01683044,-128.16936281,0.58183775,233.0,-72.135231,2.565968,-49.170654,8.2,4.3,325.0
24.10683036,-128.16941098,0.58188961,232.0,-72.378914,2.433586,-50.420151,8.1,4.3,325.0
24.21183252,-128.16946946,0.58194953,231.0,-72.696716,2.26424,-51.871277,8.1,4.3,326.0
24.31683064,-128.16952909,0.58200714,230.0,-73.00399,2.098906,-53.32457,8.0,4.3,327.0
24.40683055,-128.16958183,0.58205553,230.0,-73.294586,1.942743,-54.579811,8.0,4.3,328.0
24.51183271,-128.16964375,0.58210968,229.0,-73.650436,1.750703,-56.008484,7.9,4.4,328.0
24.61738038,-128.16970795,0.58216382,228.0,-74.015099,1.543712,-57.454353,7.9,4.4,329.0
24.71137929,-128.16976872,0.5822122,227.0,-74.348671,1.328569,-58.81266,7.8,4.4,330.0
24.80538034,-128.16982833,0.58225713,227.0,-74.618118,1.123582,-60.09124,7.8,4.4,331.0
24.9123795,-128.16989826,0.58230781,226.0,-74.899071,0.871257,-61.572685,7.7,4.4,332.0
25.00538015,-128.16996017,0.58234927,225.0,-75.100235,0.64216,-62.825378,7.7,4.3,333.0
25.11238194,-128.17003353,0.58239764,224.0,-75.320023,0.34087,-64.286476,7.6,4.3,333.0
25.20537972,-128.17009658,0.58243564,223.0,-75.493256,0.068023,-65.505608,7.5,4.2,334.0
25.31239605,-128.17017223,0.58248055,222.0,-75.656013,-0.230623,-66.963196,7.4,4.2,335.0
25.4053793,-128.17023986,0.5825174,221.0,-75.807587,-0.520622,-68.223183,7.4,4.1,336.0
25.51237988,-128.1703178,0.58255769,220.0,-75.987206,-0.845318,-69.700333,7.3,4.1,337.0
25.60502505,-128.17038428,0.58258992,219.0,-76.140793,-1.112065,-70.94574,7.3,4.0,338.0
25.71402335,-128.17046451,0.58262675,218.0,-76.345108,-1.436627,-72.40834,7.2,4.0,339.0
25.80802393,-128.17053442,0.58265667,217.0,-76.53109,-1.712544,-73.697304,7.2,3.9,340.0
25.90202332,-128.17060891,0.58268659,216.0,-76.708939,-1.993244,-75.031517,7.2,3.9,341.0
26.01059437,-128.17069028,0.58271766,214.0,-76.84478,-2.305693,-76.467323,7.1,3.9,342.0
26.11659646,-128.17077394,0.58274641,213.0,-76.902023,-2.607118,-77.834747,7.0,3.8,343.0
26.20659637,-128.1708427,0.58276826,212.0,-76.881187,-2.888961,-78.925957,6.9,3.8,344.0
26.3115952,-128.17092635,0.5827924,210.0,-76.752449,-3.189256,-80.194237,6.7,3.7,345.0
26.40174651,-128.17099969,0.58281194,209.0,-76.533966,-3.470763,-81.232841,6.6,3.7,346.0
26.50674653,-128.1710822,0.58283262,207.0,-76.104843,-3.781319,-82.380142,6.4,3.6,347.0
26.61181998,-128.17116699,0.582851,206.0,-75.279579,-4.097517,-83.501472,6.3,3.5,348.0
26.71681976,-128.17125523,0.58286937,204.0,-73.799118,-4.449361,-84.540947,6.1,3.3,349.0
26.80682158,-128.17132971,0.58288199,203.0,-72.198906,-4.745253,-85.284538,5.7,3.1,351.0
26.91181993,-128.17141679,0.58289575,201.0,-69.832428,-5.092464,-86.101074,5.5,2.8,352.0
27.01682019,-128.17150616,0.5829072,199.0,-66.894356,-5.378033,-86.999916,5.3,2.5,353.0
27.10682154,-128.17158063,0.5829152,198.0,-63.923885,-5.532978,-87.839409,5.3,2.2,354.0
27.21181965,-128.17166657,0.58292435,196.0,-59.880611,-5.581051,-88.885841,5.4,1.8,355.0
27.31682038,-128.17175937,0.58293118,194.0,-55.570377,-5.461338,-90.039024,5.6,1.4,356.0
27.40681982,-128.17183499,0.58293572,193.0,-51.689594,-5.216321,-90.956604,5.7,1.1,357.0
27.51182032,-128.1719255,0.58294025,191.0,-47.333561,-4.795789,-91.984497,5.9,0.8,358.0
27.61738253,-128.17201715,0.58294247,190.0,-42.789497,-4.202101,-92.896805,6.1,0.5,360.0
27.71138287,-128.1720962,0.58294355,188.0,-38.870941,-3.570663,-93.563766,6.3,0.3,361.0
27.80338454,-128.1721741,0.58294233,187.0,-35.230797,-2.89167,-94.091026,6.3,0.2,361.0
27.91138101,-128.17227034,0.58294109,185.0,-30.597017,-1.918593,-94.555412,6.5,0.1,363.0
28.00438213,-128.17235397,0.5829387,184.0,-26.676214,-1.030555,-94.788933,6.5,0.2,363.0
28.11338305,-128.17244562,0.58293516,183.0,-22.390709,-0.025666,-94.86451,6.6,0.3,364.0
28.20738363,-128.17253154,0.58293046,182.0,-18.289812,0.921947,-94.765388,6.6,0.4,365.0
28.31538177,-128.17262089,0.58292577,181.0,-14.241308,1.780883,-94.491234,6.6,0.6,366.0
28.40656185,-128.17270566,0.58291992,180.0,-10.152224,2.547621,-94.107635,6.5,0.7,366.0
28.5155623,-128.17280304,0.58291291,179.0,-5.333891,3.326401,-93.539795,6.4,1.0,367.0
28.60917115,-128.17288781,0.58290707,179.0,-1.077453,3.918509,-92.970078,6.3,1.1,368.0
28.70217013,-128.17296571,0.58290123,179.0,3.10457,4.423156,-92.397385,6.2,1.3,368.0
28.80917025,-128.17306537,0.58289422,178.0,7.804742,4.914599,-91.638756,6.0,1.4,369.0
28.90117073,-128.17314671,0.58288953,178.0,12.00963,5.297088,-90.986443,5.9,1.4,369.0
29.00981379,-128.17324179,0.58288252,178.0,16.997057,5.69309,-90.19458,5.8,1.5,369.0
29.11681223,-128.17334031,0.58287782,179.0,21.935459,6.037843,-89.368675,5.7,1.4,370.0
29.20681262,-128.17341936,0.58287428,179.0,25.913322,6.292759,-88.676117,5.6,1.4,370.0
29.31181407,-128.17351674,0.58287073,179.0,29.872452,6.558997,-87.804527,5.6,1.4,371.0
29.40181398,-128.17359808,0.58286835,180.0,32.919117,6.839108,-87.002785,5.6,1.3,371.0
29.50681353,-128.17369316,0.58286711,180.0,35.664513,7.222713,-85.966797,5.6,1.4,371.0
29.61244321,-128.17378825,0.58286702,181.0,37.831577,7.630865,-84.825729,5.8,1.5,372.0
29.70644188,-128.17386959,0.5828681,182.0,39.537876,7.970694,-83.785057,6.0,1.6,372.0
29.81444287,-128.17397041,0.58287031,183.0,41.307858,8.31774,-82.451248,6.1,1.8,372.0
29.9064424,-128.17405405,0.58287369,184.0,42.650322,8.621355,-81.278351,6.3,2.0,372.0
30.01663685,-128.17415029,0.58287937,185.0,43.859875,8.985359,-79.85611,6.5,2.2,372.0
30.10663748,-128.17423392,0.58288621,186.0,44.694561,9.318002,-78.563911,6.6,2.4,372.0
30.2116375,-128.17432673,0.58289535,187.0,45.424576,9.68184,-77.101387,6.8,2.7,372.0
30.31663704,-128.17442068,0.58290565,188.0,45.991497,10.028807,-75.603119,7.0,3.0,372.0
30.40826607,-128.1744963,0.58291596,189.0,46.402058,10.316091,-74.38903,7.1,3.2,372.0
30.5152657,-128.1745937,0.58293086,191.0,46.887135,10.677851,-72.897865,7.2,3.5,372.0
30.6078527,-128.17467276,0.58294463,192.0,47.271664,10.974875,-71.691879,7.3,3.6,372.0
30.71685314,-128.1747713,0.58296414,194.0,47.804287,11.409847,-70.236526,7.3,3.8,372.0
30.80685353,-128.17484693,0.58298022,195.0,48.132114,11.72556,-69.13726,7.3,3.8,372.0
30.91185284,-128.1749386,0.58300204,198.0,48.458057,12.175129,-67.846527,7.3,3.9,371.0
31.00258136,-128.17501538,0.58302158,199.0,48.633854,12.582827,-66.775986,7.3,3.9,371.0
31.11058187,-128.17510705,0.58304687,201.0,48.761539,13.142956,-65.481483,7.3,3.8,371.0
31.20358419,-128.17518727,0.58307216,203.0,48.820072,13.659781,-64.430435,7.4,3.8,370.0
31.3115809,-128.17527895,0.58310207,205.0,48.861061,14.239089,-63.195969,7.4,3.6,370.0
31.40458107,-128.17535344,0.58312737,207.0,48.903915,14.738095,-62.224594,7.3,3.5,369.0
31.51358271,-128.17544512,0.58316188,210.0,48.948483,15.319166,-61.086632,7.2,3.4,369.0
31.60720348,-128.17552191,0.58319295,212.0,48.903507,15.773365,-60.15609,7.1,3.2,369.0
31.71720314,-128.17561016,0.58322977,215.0,48.699799,16.346563,-59.096466,7.0,3.1,368.0
31.81120205,-128.17568351,0.583262,217.0,48.455788,16.773266,-58.21331,6.9,3.0,368.0
31.90520215,-128.1757603,0.58329768,220.0,48.094589,17.271776,-57.272705,6.8,2.9,367.0
32.01175976,-128.17584168,0.58333797,223.0,47.651859,17.7936,-56.221817,6.7,2.8,367.0
32.11675906,-128.17592306,0.58338057,225.0,47.154774,18.341572,-55.132568,6.7,2.7,366.0
32.20675874,-128.17598954,0.58341626,228.0,46.739628,18.788702,-54.197128,6.7,2.7,366.0
32.311759,-128.17606863,0.58346116,231.0,46.308876,19.273481,-53.110435,6.7,2.7,365.0
32.4033823,-128.17613855,0.58350262,234.0,46.011143,19.675232,-52.152489,6.6,2.7,365.0
32.51238203,-128.1762142,0.58354868,237.0,45.829487,20.035326,-51.164246,6.4,2.8,364.0
32.60409617,-128.17627725,0.58358899,239.0,45.755028,20.287645,-50.370316,6.3,2.8,363.0
32.71409655,-128.17635635,0.58364081,243.0,45.742744,20.524216,-49.487396,6.0,2.8,363.0
32.80609679,-128.17642169,0.58368688,246.0,45.91317,20.611824,-48.85173,5.6,2.7,362.0
32.91409969,-128.17649506,0.58373987,249.0,46.485111,20.646385,-48.264771,5.2,2.6,362.0
33.00671458,-128.17655467,0.58378364,252.0,47.144302,20.662302,-47.840195,4.8,2.5,361.0
33.1117146,-128.1766269,0.58383777,256.0,48.102989,20.689816,-47.328476,4.4,2.3,360.0
33.2167151,-128.17669569,0.58389191,260.0,49.094788,20.722603,-46.86084,4.1,2.1,360.0
33.30671453,-128.17675072,0.58393684,263.0,49.97963,20.7505,-46.482239,3.8,1.9,360.0
33.41171503,-128.17682065,0.58399444,266.0,51.179775,20.778133,-46.001007,3.6,1.6,359.0
33.51671457,-128.17688601,0.58405089,270.0,52.397575,20.784176,-45.548492,3.4,1.4,359.0
33.60636973,-128.1769376,0.58409582,272.0,53.31813,20.777481,-45.178131,3.2,1.2,358.0
33.71436954,-128.17700525,0.58415689,276.0,54.757195,20.739847,-44.621933,3.0,0.9,358.0
33.80736947,-128.17706029,0.58420758,279.0,55.797367,20.702168,-44.132339,2.9,0.8,357.0
33.91636944,-128.17712794,0.58427095,283.0,57.14212,20.626953,-43.39566,2.9,0.6,357.0
34.01005268,-128.17718183,0.58432395,286.0,58.180229,20.534985,-42.736862,2.9,0.6,356.0
34.10304904,-128.17723573,0.5843781,289.0,59.188862,20.418129,-42.037552,2.9,0.6,356.0
34.21156621,-128.1772988,0.58444148,292.0,60.537903,20.214344,-41.090286,3.0,0.6,356.0
34.30556583,-128.17735155,0.58449679,296.0,61.6012,20.023134,-40.251419,3.1,0.7,355.0
34.41379166,-128.17740889,0.58455901,299.0,62.968082,19.760656,-39.218002,3.2,0.8,355.0
34.5067904,-128.17746279,0.58461778,302.0,64.463196,19.476744,-38.150238,3.3,0.9,354.0
34.61243558,-128.17752013,0.58468346,306.0,66.207535,19.14695,-36.948486,3.6,1.1,354.0
34.70654416,-128.17756944,0.58474108,308.0,67.870651,18.811956,-35.774658,3.8,1.3,354.0
34.8135457,-128.17762564,0.58480908,312.0,69.745804,18.397091,-34.3703,4.1,1.5,353.0
34.90654421,-128.17766923,0.58486439,314.0,71.142159,18.05727,-33.196304,4.4,1.6,353.0
35.01431012,-128.17772199,0.58493354,318.0,72.968689,17.574919,-31.640198,4.9,1.9,352.0
35.10831141,-128.17776902,0.58499693,320.0,74.566032,17.121475,-30.219147,5.1,2.1,352.0
35.21630955,-128.17782064,0.58506954,324.0,76.545052,16.504259,-28.536453,5.5,2.3,352.0
35.30831099,-128.17786309,0.58513178,327.0,78.062622,15.985647,-27.117432,5.8,2.5,351.0
35.40231109,-128.17790553,0.58519632,329.0,79.702431,15.393382,-25.649979,6.1,2.6,351.0
35.50931025,-128.17795028,0.58527009,332.0,81.483673,14.716688,-24.063293,6.3,2.8,350.0
35.60143566,-128.17798929,0.58533695,335.0,83.067894,14.082539,-22.675064,6.5,3.0,350.0
35.7084651,-128.17803175,0.58541303,337.0,84.908241,13.316036,-21.170456,6.7,3.1,349.0
35.80246449,-128.17806733,0.58548104,340.0,86.598297,12.628383,-19.907562,6.7,3.1,349.0
35.91046381,-128.17810635,0.58556058,343.0,88.758469,11.810385,-18.526978,6.7,3.1,348.0
36.01710987,-128.17814424,0.58564358,345.0,91.148247,10.965967,-17.172226,6.7,3.1,348.0
36.11011052,-128.17817409,0.5857116,347.0,93.243095,10.247814,-16.087296,6.7,3.0,348.0
36.20411086,-128.17820279,0.58578308,349.0,95.60006,9.433105,-14.920792,6.8,2.9,347.0
36.31310964,-128.1782361,0.58586839,352.0,98.14077,8.508248,-13.467957,6.9,2.7,347.0
36.40611053,-128.17826022,0.58593987,354.0,100.404602,7.595058,-12.173904,7.1,2.6,347.0
36.51210999,-128.17828894,0.58602519,356.0,102.851601,6.45696,-10.562622,7.4,2.5,347.0
36.60428071,-128.17831077,0.58609782,357.0,104.711319,5.433444,-9.162567,7.6,2.4,347.0
36.71328092,-128.17833492,0.58619007,359.0,106.942627,3.856809,-7.326157,7.9,2.4,347.0
36.80728173,-128.17835331,0.58626386,360.0,108.243484,2.652733,-5.887253,8.3,2.4,346.0
36.9152801,-128.17837288,0.58635611,361.0,109.800026,0.8517,-3.954895,8.7,2.5,346.0
37.00688148,-128.17838784,0.58643106,362.0,110.816444,-0.65803,-2.41951,9.1,2.8,346.0
37.11188149,-128.17840167,0.58651985,363.0,111.786804,-2.485649,-0.617447,9.5,3.0,346.0
37.21688199,-128.1784132,0.58660749,363.0,112.625694,-4.413588,1.172501,9.8,3.4,347.0
37.30688286,-128.17842129,0.58668244,364.0,113.243744,-6.049843,2.687088,10.1,3.6,347.0
37.41188431,-128.17842825,0.58676893,364.0,113.867622,-7.959669,4.321381,10.4,4.0,347.0
37.5168817,-128.17843291,0.58686119,364.0,114.476028,-10.109847,6.114441,10.6,4.4,347.0
37.60752249,-128.17843413,0.58693616,363.0,114.9366,-11.806152,7.521423,10.7,4.7,347.0
37.71552086,-128.17843307,0.58702842,363.0,115.490273,-13.782471,9.237976,10.8,5.0,348.0
37.80751967,-128.1784297,0.58710685,362.0,115.950607,-15.372826,10.668686,10.8,5.2,348.0
37.91551995,-128.17842291,0.58719797,361.0,116.532852,-17.399549,12.505203,10.9,5.4,348.0
38.01006579,-128.17841497,0.58727755,359.0,116.992805,-19.027731,14.136337,11.0,5.4,349.0
38.1030674,-128.17840587,0.58735368,358.0,117.404404,-20.591478,15.780975,11.2,5.5,350.0
38.21206689,-128.17839106,0.58744595,356.0,117.802032,-22.490746,17.842361,11.3,5.4,350.0
38.30606532,-128.17837738,0.58751862,354.0,117.956635,-23.869194,19.50856,11.4,5.3,351.0
38.41563225,-128.17835913,0.58760399,351.0,117.929855,-25.547552,21.622391,11.6,5.2,352.0
38.50663424,-128.17833972,0.58767666,349.0,117.736885,-26.918459,23.504181,11.6,5.1,353.0
38.61223984,-128.17831574,0.58776088,346.0,117.210411,-28.62759,25.814667,11.7,5.0,354.0
38.70624042,-128.17829061,0.58783817,342.0,116.362534,-30.162064,28.045959,11.8,4.9,355.0
38.8162396,-128.17826204,0.58791777,339.0,115.072281,-31.612543,30.483459,11.9,4.8,356.0
38.9082396,-128.17823461,0.587987,335.0,113.33065,-32.867111,32.595718,11.8,4.8,357.0
39.01581693,-128.17820032,0.58806661,330.0,110.843155,-34.067547,34.968582,11.4,4.9,359.0
39.10681605,-128.17816944,0.58813007,327.0,108.457214,-34.933575,36.931152,11.2,5.0,360.0
39.2118156,-128.17813056,0.58820276,322.0,105.249176,-35.878784,39.452881,10.9,5.0,361.0
39.31681871,-128.17809053,0.5882743,317.0,101.972229,-36.694038,42.183167,10.8,5.1,363.0
39.40681624,-128.17805506,0.58833085,313.0,99.099823,-37.296143,44.655197,10.8,5.2,364.0
39.51181674,-128.1780093,0.58839894,307.0,95.619461,-37.907463,47.72081,10.9,5.2,366.0
39.61745787,-128.17796124,0.58846357,302.0,92.161606,-38.378155,50.960342,11.1,5.2,368.0
39.71045732,-128.17791662,0.58851897,296.0,89.173241,-38.675247,53.8302,11.2,5.2,370.0
39.80345821,-128.17786969,0.58857206,291.0,86.47361,-38.841187,56.705627,11.3,5.2,371.0
39.91245794,-128.17781476,0.58863093,284.0,83.327019,-38.899429,59.943665,11.5,5.2,373.0
40.00608015,-128.17776325,0.58867942,279.0,80.808701,-38.833065,62.787857,11.5,5.1,375.0
40.11508203,-128.17770258,0.58873253,273.0,77.884064,-38.622322,65.945129,11.6,5.0,376.0
40.2090795,-128.17764763,0.5887764,267.0,75.281502,-38.313419,68.63942,11.6,4.9,378.0
40.30308008,-128.17759153,0.58881682,262.0,73.041405,-37.949036,71.286011,11.6,4.9,380.0
40.41108203,-128.17752283,0.58886186,255.0,70.339661,-37.388321,74.29216,11.6,4.7,381.0
40.51671624,-128.17745528,0.58890114,249.0,67.920715,-36.771603,77.06842,11.6,4.6,383.0
40.60741162,-128.17739459,0.58893349,242.0,65.917908,-36.175743,79.443024,11.6,4.5,385.0
40.71641207,-128.17731786,0.58896931,236.0,63.43483,-35.322674,82.251862,11.6,4.4,387.0
40.81041145,-128.17725373,0.58899475,231.0,61.616119,-34.604626,84.467041,11.6,4.3,388.0
40.90341401,-128.17718158,0.58902019,224.0,59.789696,-33.787777,86.815674,11.6,4.2,390.0
41.01162505,-128.1771037,0.58904448,218.0,58.067886,-32.921383,89.135223,11.5,4.1,391.0
41.11662483,-128.17702352,0.58906531,211.0,56.429192,-32.008827,91.439606,11.4,4.0,393.0
41.20662498,-128.17695136,0.58908037,205.0,54.985535,-31.132729,93.384125,11.3,4.0,395.0
41.31162643,-128.17687003,0.58909314,199.0,53.530861,-30.187057,95.567505,11.2,3.9,396.0
41.41663218,-128.17678641,0.58910359,192.0,52.047062,-29.156271,97.776978,11.2,3.9,398.0
41.50662374,-128.17670966,0.58911059,188.0,50.786732,-28.216263,99.656006,11.2,3.9,399.0
41.61179066,-128.17662488,0.58911413,182.0,49.38237,-27.100386,101.761749,11.2,3.9,401.0
41.71679115,-128.17653552,0.58911421,176.0,47.928371,-25.863085,103.886322,11.2,3.9,402.0
41.80679083,-128.17646106,0.58911197,171.0,46.857037,-24.881044,105.676056,11.2,4.0,403.0
41.91179085,-128.17636825,0.58910514,166.0,45.663475,-23.66136,107.681763,11.3,4.0,405.0
42.01679134,-128.17627888,0.58909484,160.0,44.643616,-22.413034,109.599182,11.3,4.0,406.0
42.10679054,-128.17620212,0.58908454,155.0,43.929756,-21.35533,111.221771,11.3,4.1,407.0
42.21179128,-128.1761093,0.58906732,150.0,43.178951,-19.985495,113.121704,11.3,4.1,408.0
42.3167901,-128.17601534,0.58904781,145.0,42.664253,-18.72168,114.985321,11.3,4.1,409.0
42.4067924,-128.17593398,0.58902712,141.0,42.337219,-17.54921,116.601349,11.3,4.0,410.0
42.51444864,-128.17584001,0.58899953,137.0,42.136013,-16.214634,118.403076,11.4,4.0,411.0
42.60709095,-128.17575865,0.58897308,132.0,42.128929,-15.040694,119.998383,11.4,3.9,411.0
42.71509242,-128.17566238,0.58893857,128.0,42.310856,-13.586648,121.863403,11.4,3.7,412.0
42.80709267,-128.17557872,0.58890521,125.0,42.561268,-12.38141,123.505615,11.5,3.6,413.0
42.91509032,-128.17548589,0.58886493,121.0,42.788795,-11.039968,125.351135,11.5,3.5,413.0
43.00667953,-128.17540451,0.58882694,118.0,42.714596,-9.896669,126.948761,11.6,3.5,414.0
43.11167049,-128.17531625,0.58878205,115.0,42.2089,-8.565018,128.684753,11.5,3.5,414.0
43.2016716,-128.17523831,0.58873945,113.0,41.396782,-7.275311,130.191742,11.5,3.6,414.0
43.3066709,-128.1751489,0.58868648,110.0,40.307068,-5.961476,131.92514,11.5,3.8,414.0
43.41167355,-128.17505834,0.5886289,108.0,38.835049,-4.444696,133.673187,11.4,4.1,414.0
43.51667094,-128.1749758,0.58857362,106.0,37.181885,-2.919733,135.248779,11.5,4.3,414.0
43.60692716,-128.17490014,0.58851948,104.0,35.488869,-1.341425,136.721741,11.6,4.6,414.0
43.71192694,-128.17481416,0.58845498,103.0,33.504154,0.707608,138.469238,11.9,4.9,414.0
43.81692672,-128.17473161,0.58838932,101.0,31.581146,2.911936,140.118469,12.2,5.2,413.0
43.90692639,-128.17466397,0.58833287,101.0,30.081966,4.78512,141.400757,12.4,5.4,413.0
44.01192737,-128.17458371,0.58826259,100.0,28.341541,7.063151,142.803741,12.7,5.6,412.0
44.1019392,-128.17451606,0.58820153,100.0,26.797606,9.129464,143.870209,12.9,5.8,411.0
44.20693946,-128.17443923,0.58812779,100.0,24.977715,11.613557,144.947845,13.0,5.9,410.0
44.31193829,-128.17436584,0.58805405,101.0,23.206663,13.983471,145.81488,13.1,5.9,409.0
44.41694379,-128.17429704,0.58798492,102.0,21.328859,16.23908,146.452087,13.1,5.9,407.0
44.51050115,-128.17423053,0.58791347,103.0,19.011925,18.465908,146.823273,12.9,5.8,406.0
44.60250163,-128.17417089,0.58784894,105.0,16.509279,20.360909,146.932098,12.6,5.7,405.0
44.71050143,-128.17410094,0.58777058,107.0,12.912174,22.649529,146.800751,12.2,5.6,403.0
44.80350208,-128.17404245,0.58770375,109.0,9.598581,24.562801,146.493256,11.9,5.6,402.0
44.91050267,-128.17397707,0.58762654,113.0,5.378031,26.918922,145.937408,11.7,5.5,400.0
45.00364399,-128.17391973,0.58756085,116.0,1.557896,28.973925,145.2742,11.7,5.5,398.0
45.11164403,-128.17385436,0.5874848,119.0,-3.389829,31.49765,144.252106,11.7,5.5,396.0
45.21664381,-128.17379243,0.5874122,123.0,-8.415151,33.958733,142.975189,11.8,5.6,394.0
45.30664515,-128.17373967,0.58735227,128.0,-12.581264,35.937016,141.689697,12.0,5.7,392.0
45.41164875,-128.17368233,0.58728774,131.0,-17.482349,38.159508,139.978729,12.2,5.9,391.0
45.50164461,-128.17363072,0.58723012,136.0,-22.119467,40.111458,138.172119,12.4,6.1,388.0
45.60723639,-128.17356765,0.58716329,141.0,-27.795624,42.25655,135.622131,12.5,6.3,386.0
45.7172358,-128.17350458,0.58709992,147.0,-34.033714,44.284451,132.69519,12.6,6.6,383.0
45.81123567,-128.17344954,0.58704692,152.0,-39.281723,45.71769,129.774628,12.7,6.8,381.0
45.90323615,-128.1733945,0.58699622,157.0,-44.956135,46.982918,126.558167,12.7,6.9,378.0
46.01184058,-128.17333488,0.58694553,163.0,-51.188248,48.022938,122.802155,12.7,7.1,376.0
46.10184169,-128.17328329,0.58690406,169.0,-56.643143,48.61982,119.381531,12.6,7.2,373.0
46.20684195,-128.17322024,0.58685799,176.0,-63.599972,48.939014,115.279175,12.5,7.2,370.0
46.31184077,-128.17315833,0.58681537,182.0,-70.080055,48.797207,111.274139,12.2,7.2,367.0
46.41684484,-128.17309758,0.58677853,188.0,-76.637115,48.27869,107.545868,11.8,7.1,364.0
46.50684237,-128.17304142,0.58674744,194.0,-82.35302,47.566685,104.206757,11.6,7.1,362.0
46.6118412,-128.17297838,0.5867152,200.0,-89.035919,46.444042,100.445343,11.5,7.0,360.0
46.7168417,-128.1729119,0.58668643,207.0,-96.175339,44.896812,96.731995,11.5,6.8,357.0
46.8068409,-128.17285231,0.58666342,212.0,-101.98703,43.348778,93.641113,11.6,6.8,355.0
46.91184092,-128.17278698,0.58664042,218.0,-108.368416,41.343761,90.550903,11.6,6.7,352.0
47.01684237,-128.17271708,0.58662088,224.0,-114.434921,39.12468,87.728638,11.6,6.7,350.0
47.10684061,-128.17265749,0.58660709,230.0,-119.471298,37.035652,85.631287,11.7,6.8,347.0
47.21184134,-128.17258874,0.58659332,236.0,-124.981201,34.490223,83.588745,11.6,6.8,345.0
47.30184245,-128.17252687,0.586583,240.0,-129.151398,32.388187,82.06485,11.5,6.9,343.0
47.4068408,-128.17245354,0.58657384,245.0,-134.145996,29.666769,80.592316,11.4,6.9,341.0
47.51184058,-128.17238021,0.58656814,250.0,-138.903992,26.863121,79.381714,11.2,7.0,339.0
47.61740518,-128.17230001,0.5865636,255.0,-143.957687,23.653334,78.342865,11.1,7.0,337.0
47.71040559,-128.17223356,0.58656136,259.0,-147.955658,20.946672,77.658997,11.1,7.0,335.0
47.80340648,-128.17216711,0.58656142,263.0,-151.5952,18.363926,77.140656,11.0,7.1,334.0
47.91240883,-128.17208577,0.58656265,267.0,-155.996872,15.109571,76.702606,11.0,7.1,333.0
48.00540662,-128.17201475,0.58656502,270.0,-159.694626,12.245319,76.469055,11.0,7.1,331.0
48.11340547,-128.17192997,0.58656971,273.0,-163.980774,8.78648,76.361694,11.1,7.1,330.0
48.20540667,-128.17186124,0.58657439,276.0,-167.745102,5.714355,76.422119,11.2,7.2,329.0
48.31340551,-128.17177647,0.58658024,278.0,-171.757645,2.454576,76.6828,11.3,7.2,328.0
48.40440607,-128.17170659,0.58658607,279.0,-175.28154,-0.416797,77.042633,11.4,7.3,328.0
48.51404214,-128.17162067,0.58659307,281.0,-55.709274,-3.850056,77.666748,11.4,7.3,327.0
48.60669231,-128.17154735,0.58660006,282.0,175.313477,-6.755571,78.362915,11.5,7.4,327.0
48.7116909,-128.17146602,0.58660705,282.0,172.45636,-10.039388,79.328278,11.6,7.4,326.0
48.81669259,-128.17138125,0.58661405,283.0,168.199524,-13.086647,80.521149,11.7,7.5,326.0
48.90669203,-128.17131366,0.58661988,282.0,164.520828,-15.596567,81.660583,11.7,7.6,326.0
49.01169157,-128.17122889,0.58662573,282.0,159.905243,-18.575247,83.266663,11.7,7.6,326.0
49.11669183,-128.17114526,0.58663042,281.0,155.043381,-21.457329,85.087128,11.7,7.6,327.0
49.20669174,-128.17107423,0.58663394,279.0,150.811615,-23.719397,86.782104,11.7,7.6,327.0
49.31169152,-128.1709906,0.58663633,277.0,145.944183,-26.030155,89.015564,11.6,7.6,328.0
49.4166975,-128.1709127,0.58663755,275.0,140.967316,-28.081999,91.350494,11.5,7.5,329.0
49.50669289,-128.17084167,0.58663762,273.0,136.451614,-29.689171,93.603668,11.4,7.4,329.0
49.61169147,-128.17075689,0.58663539,270.0,130.521744,-31.440817,96.507416,11.2,7.3,330.0
49.71669245,-128.17067554,0.58663086,267.0,124.339966,-32.871666,99.55957,11.1,7.1,332.0
49.80669355,-128.17060909,0.58662515,264.0,119.401993,-33.751144,102.137451,11.0,7.0,333.0
49.91169143,-128.17053347,0.58661715,260.0,113.58168,-34.521812,105.154724,10.9,6.8,334.0
50.01669192,-128.17045441,0.58660569,256.0,107.108109,-35.09428,108.506409,10.8,6.7,336.0
50.10669208,-128.17039368,0.58659421,252.0,101.882477,-35.349243,111.227509,10.9,6.6,337.0
50.2116909,-128.1703192,0.58657929,248.0,95.343323,-35.411976,114.571228,11.0,6.5,339.0
50.30169272,-128.17025732,0.58656435,244.0,89.860466,-35.247227,117.391632,11.0,6.4,340.0
50.40669203,-128.17018283,0.58654251,240.0,83.508949,-34.813309,120.694824,11.1,6.4,342.0
50.51431036,-128.17010834,0.58651836,235.0,76.787827,-34.066719,123.896454,11.3,6.4,343.0
50.60891271,-128.17004302,0.5864942,230.0,71.342957,-33.238628,126.555084,11.3,6.5,345.0
50.71691322,-128.16997081,0.58646428,225.0,64.93074,-31.989176,129.326233,11.4,6.6,347.0
50.80691385,-128.16991121,0.5864355,220.0,60.093277,-30.833246,131.471954,11.5,6.7,348.0
50.91191268,-128.16984359,0.58640097,216.0,54.854546,-29.361767,133.673706,11.5,6.7,350.0
51.01691246,-128.1697771,0.58636412,211.0,49.868553,-27.720888,135.650452,11.5,6.8,351.0
51.10691404,-128.16971864,0.58632843,206.0,45.756481,-26.18022,137.150482,11.6,6.8,353.0
51.21191311,-128.16965101,0.58628466,201.0,41.076202,-24.220829,138.629913,11.5,6.8,354.0
51.31691432,-128.16958452,0.58623744,196.0,36.949272,-22.315054,139.865295,11.5,6.8,356.0
51.40691447,-128.16952949,0.58619597,193.0,33.41526,-20.554123,140.7146,11.5,6.7,357.0
51.51191354,-128.16946414,0.58614413,188.0,29.262609,-18.345709,141.511871,11.5,6.6,358.0
51.61748052,-128.16939993,0.58609114,184.0,25.367731,-16.152506,142.092957,11.6,6.5,359.0
51.71148157,-128.16934261,0.5860416,180.0,21.830549,-14.073114,142.454956,11.6,6.4,360.0
51.80347967,-128.16928642,0.58599091,177.0,18.72031,-12.192795,142.658112,11.7,6.3,361.0
51.91247988,-128.16921992,0.58592984,173.0,14.6609,-9.686569,142.717224,11.8,6.3,362.0
52.00448155,-128.16916259,0.58587569,170.0,11.522483,-7.691956,142.619293,11.8,6.2,363.0
52.11148047,-128.16909952,0.58581347,167.0,8.244827,-5.445087,142.378906,11.9,6.1,363.0
52.20348072,-128.16904677,0.58576162,165.0,5.966875,-3.52608,142.110321,12.0,6.0,364.0
52.31148243,-128.16897797,0.58569249,162.0,4.297615,-1.453361,141.727234,12.0,5.7,365.0
52.40548134,-128.16891948,0.58563372,160.0,3.573007,0.162313,141.382416,11.9,5.3,365.0
52.51608014,-128.16885297,0.58556574,158.0,3.29642,1.8981,140.981506,11.7,4.7,365.0
52.608742,-128.16879564,0.58550697,157.0,3.336153,3.163657,140.634491,11.5,4.3,366.0
52.70174122,-128.16873715,0.5854459,155.0,3.375533,4.55513,140.284607,11.2,3.8,366.0
52.80674458,-128.16867179,0.58537792,154.0,3.295902,5.757585,139.904114,10.8,3.3,366.0
52.91619945,-128.16860642,0.58530993,153.0,3.184371,6.784863,139.557953,10.3,2.8,366.0
53.01176524,-128.16854908,0.58524886,153.0,3.036368,7.584726,139.294678,9.8,2.5,367.0
53.10176635,-128.16849175,0.58518894,153.0,2.784843,8.439129,139.08728,9.3,2.2,367.0
53.20665312,-128.16842867,0.58512211,153.0,2.451753,9.475857,138.934875,9.0,2.0,367.0
53.31628585,-128.16835987,0.58504951,153.0,2.126993,10.599588,138.879578,8.8,1.9,367.0
53.41028547,-128.16830138,0.58498729,154.0,1.883983,11.750566,138.932343,8.8,1.9,367.0
53.50228477,-128.16824519,0.58492737,154.0,1.81641,12.909496,139.074768,8.8,2.0,368.0
53.6098938,-128.16818212,0.58485938,155.0,1.964375,14.445835,139.358307,9.1,2.1,367.0
53.70189357,-128.16812592,0.58479946,156.0,2.405767,16.109465,139.718262,9.5,2.4,367.0
53.80689335,-128.16806056,0.58472917,158.0,3.244413,17.851168,140.275879,10.0,2.6,367.0
53.91189313,-128.16799978,0.58466349,159.0,4.61288,19.614126,140.941406,10.4,2.9,366.0
54.00453353,-128.16794358,0.58460241,161.0,6.256171,21.059601,141.676971,10.6,3.0,366.0
54.1135695,-128.16787822,0.58453097,163.0,9.00563,22.740461,142.648651,10.8,3.2,365.0
54.20556831,-128.16782202,0.58446874,165.0,11.749494,23.977612,143.602325,10.9,3.3,364.0
54.3150022,-128.16776239,0.5844019,168.0,14.967455,25.185303,144.662872,10.9,3.3,363.0
54.40900064,-128.16770734,0.58433852,171.0,18.372768,26.322636,145.757751,10.9,3.2,362.0
54.50162649,-128.16765917,0.58428205,173.0,21.413338,27.285957,146.806488,11.0,3.1,361.0
54.6073029,-128.16760297,0.58421521,177.0,25.139067,28.440891,148.174194,11.1,2.9,360.0
54.71630502,-128.16754677,0.58414491,180.0,29.320988,29.650246,149.760284,11.2,2.7,358.0
54.80830359,-128.16750089,0.58408729,184.0,32.767529,30.498144,151.168335,11.3,2.5,357.0
54.90230489,-128.16745501,0.58402621,187.0,36.405262,31.236946,152.70929,11.3,2.4,356.0
55.01187086,-128.16740568,0.58395705,191.0,40.779449,31.947975,154.603912,11.2,2.2,354.0
55.11687064,-128.16735635,0.58388559,197.0,45.508728,32.513615,156.717407,11.2,2.0,352.0
55.20687175,-128.16731849,0.58382796,200.0,49.437904,32.819862,158.478638,11.1,1.9,351.0
55.31187177,-128.16727833,0.58376111,205.0,53.875576,32.985126,160.586395,11.1,1.8,350.0
55.40187097,-128.16724506,0.58370347,209.0,57.824974,32.984093,162.358246,11.0,1.7,348.0
55.50687099,-128.16720719,0.58363431,213.0,62.677773,32.794048,164.633698,10.9,1.7,347.0
55.61249328,-128.16717275,0.58356514,218.0,67.756088,32.374397,166.932007,10.9,1.7,345.0
55.70549107,-128.16714405,0.58350058,223.0,72.2995,31.808548,169.080383,10.8,1.7,343.0
55.81349206,-128.16711535,0.58343141,228.0,76.999397,31.031963,171.224701,10.8,1.7,341.0
55.90649247,-128.16709238,0.58336915,232.0,81.57943,30.098112,173.131805,10.8,1.8,340.0
56.01512527,-128.16706825,0.58329536,237.0,86.571327,28.886242,175.233795,10.7,1.9,338.0
56.10612631,-128.16704872,0.58323079,242.0,91.057076,27.628258,176.961609,10.7,2.0,337.0
56.2151258,-128.16703147,0.58315931,246.0,95.997139,26.065355,178.7435,10.6,2.1,335.0
56.30912519,-128.16701651,0.58309127,251.0,100.516251,24.493097,-179.750699,10.6,2.2,334.0
56.4171319,-128.16700269,0.58301632,255.0,105.469376,22.637367,-178.240168,10.5,2.3,332.0
56.50976944,-128.16699347,0.58295059,259.0,109.728981,20.949053,-177.162926,10.5,2.4,331.0
56.61734843,-128.16698538,0.58287102,263.0,115.195984,18.682951,-176.056789,10.3,2.5,330.0
56.71034741,-128.16697959,0.58280413,267.0,119.723785,16.731373,-175.29581,10.2,2.6,329.0
56.80434847,-128.16697608,0.58273263,270.0,124.132095,14.764917,-174.615728,10.2,2.7,328.0
56.91334724,-128.16697487,0.58265305,274.0,129.285141,12.375186,-174.00374,10.1,2.9,326.0
57.00497365,-128.1669748,0.58258501,277.0,133.388229,10.372433,-173.579385,10.1,3.0,326.0
57.11497426,-128.16697702,0.58250196,280.0,138.463409,7.732786,-173.173425,10.2,3.1,325.0
57.20897508,-128.16698039,0.58243046,282.0,142.742905,5.37675,-172.939873,10.3,3.3,324.0
57.31797433,-128.16698605,0.58234856,285.0,147.246262,2.822806,-172.824173,10.4,3.4,323.0
57.41097951,-128.16699171,0.58227705,286.0,151.352463,0.482584,-172.87296,10.5,3.5,323.0
57.50297475,-128.16699852,0.58220554,288.0,155.32222,-1.753241,-173.058063,10.6,3.7,323.0
57.6111269,-128.16700761,0.58212134,289.0,160.0513,-4.347345,-173.450549,10.7,3.9,322.0
57.70512843,-128.1670167,0.58204867,290.0,164.679413,-6.772733,-173.936429,10.7,4.0,322.0
57.81312776,-128.16702694,0.58196332,291.0,169.53009,-9.156234,-174.678227,10.8,4.2,322.0
57.90712833,-128.16703718,0.5818895,291.0,174.059692,-11.212193,-175.476514,10.8,4.2,323.0
58.00170684,-128.16704742,0.58181567,291.0,178.916626,-13.224886,-176.40763,10.8,4.3,323.0
58.10670662,-128.16705766,0.58173263,290.0,-174.265594,-15.365305,-177.613157,10.8,4.4,323.0
58.21170664,-128.16706904,0.58165073,289.0,-169.108475,-17.324741,-178.974315,10.8,4.4,324.0
58.31670761,-128.16707928,0.58156999,287.0,-162.998383,-19.04151,179.548828,10.8,4.3,325.0
58.40670681,-128.16708723,0.58149963,286.0,-157.196976,-20.497444,178.158295,10.8,4.3,325.0
58.51170564,-128.16709633,0.58141889,284.0,-150.574463,-21.964422,176.416473,10.8,4.2,326.0
58.61726928,-128.16710312,0.58133354,281.0,-143.134064,-23.399982,174.39444,10.9,4.0,328.0
58.71027017,-128.16710879,0.58126433,278.0,-137.026123,-24.410032,172.656464,10.9,3.9,329.0
58.80227137,-128.16711216,0.58119398,276.0,-131.074249,-25.246841,170.859955,11.0,3.8,330.0
58.91226959,-128.16711437,0.58110978,272.0,-123.70961,-26.075989,168.487335,11.0,3.6,332.0
59.00526953,-128.16711431,0.58104404,269.0,-118.265358,-26.541677,166.689209,11.1,3.5,333.0
59.11326933,-128.16711195,0.58096216,265.0,-110.737427,-26.967577,164.200714,11.2,3.3,335.0
59.20626974,-128.1671073,0.58089412,260.0,-104.920982,-27.111076,162.243225,11.3,3.2,336.0
59.31526899,-128.16709921,0.5808157,256.0,-98.358353,-27.059542,159.870728,11.3,3.1,338.0
59.40927005,-128.16708998,0.58074536,251.0,-92.292244,-26.804583,157.839935,11.4,3.0,340.0
59.50127125,-128.16707847,0.58068193,247.0,-86.867935,-26.408731,156.058502,11.5,2.9,341.0
59.60887933,-128.16706236,0.58060583,242.0,-80.570259,-25.74851,153.98764,11.6,2.8,343.0
59.71618795,-128.16704281,0.58052742,237.0,-73.752289,-24.795359,152.016418,11.6,2.7,345.0
59.8091886,-128.16702213,0.58046286,232.0,-68.345757,-23.8664,150.446198,11.7,2.6,347.0
59.90326309,-128.16700145,0.58039944,228.0,-63.298508,-22.861162,149.152618,11.7,2.6,348.0
60.01084352,-128.16697274,0.58032566,223.0,-57.405914,-21.523796,147.771454,11.8,2.5,350.0
60.11689806,-128.1669406,0.58025072,217.0,-51.453941,-19.994926,146.530914,11.8,2.4,352.0
60.20689917,-128.16691076,0.58018962,213.0,-46.940773,-18.70912,145.7034,11.8,2.3,353.0
60.31545782,-128.16687288,0.58011584,209.0,-41.883007,-17.115761,144.906799,11.8,2.3,355.0
60.40845633,-128.1668396,0.5800536,204.0,-37.90136,-15.734975,144.364319,11.8,2.3,357.0
60.51707363,-128.16679715,0.57998098,200.0,-33.488266,-14.079746,143.890656,11.7,2.3,358.0
60.60939431,-128.16675928,0.57991988,196.0,-30.2384,-12.794118,143.619263,11.6,2.4,359.0
60.70239401,-128.16671798,0.57985649,192.0,-26.452829,-11.254821,143.454346,11.6,2.4,361.0
60.81139541,-128.1666698,0.57978388,188.0,-22.743542,-9.713868,143.396057,11.5,2.5,362.0
60.90539432,-128.16662506,0.57971933,185.0,-19.4014,-8.333785,143.454681,11.4,2.6,363.0
61.01297569,-128.16657458,0.57964672,182.0,-15.409409,-6.749365,143.646179,11.3,2.6,364.0
61.10597658,-128.1665287,0.57958333,179.0,-12.132265,-5.479487,143.907623,11.2,2.6,365.0
61.21497703,-128.1664725,0.57950841,176.0,-8.265753,-3.943703,144.305359,11.1,2.6,366.0
61.30897689,-128.16642432,0.57944272,174.0,-5.378497,-2.7251,144.707611,11.0,2.6,366.0
61.41698575,-128.16637041,0.57937242,171.0,-3.03211,-1.605096,145.15918,10.7,2.7,367.0
61.50797725,-128.16632109,0.57930672,169.0,-1.476632,-0.714114,145.554321,10.2,2.8,368.0
61.60297632,-128.16626947,0.57923757,167.0,-0.281222,0.09435,145.949249,9.7,3.0,369.0
61.71197677,-128.16621212,0.5791615,166.0,0.695987,0.827986,146.342224,9.1,3.2,369.0
61.8049767,-128.1661605,0.57909351,164.0,1.347811,1.348318,146.644806,8.5,3.3,370.0
61.9139781,-128.16610315,0.57901513,163.0,1.961895,1.88802,146.918488,7.8,3.5,371.0
62.00656009,-128.16605497,0.57895059,162.0,2.399091,2.321411,147.088013,7.4,3.5,371.0
62.10107803,-128.16600106,0.57887914,161.0,2.849678,2.79843,147.212708,6.9,3.5,372.0
62.20907736,-128.16594485,0.57880191,161.0,3.285401,3.219814,147.27536,6.4,3.4,373.0
62.30307651,-128.16589438,0.57873392,160.0,3.598342,3.480601,147.264069,5.9,3.3,373.0
62.41208196,-128.16583703,0.57865439,160.0,3.931847,3.762222,147.178192,5.4,3.1,374.0
62.50472665,-128.16578655,0.57858639,160.0,4.132402,3.989392,147.058136,5.0,2.9,374.0
62.61243677,-128.16572805,0.57850456,160.0,4.253781,4.256967,146.872742,4.5,2.6,375.0
62.70543671,-128.16567873,0.57843656,160.0,4.240421,4.455659,146.693726,4.2,2.4,375.0
62.81343794,-128.16561908,0.57835473,160.0,4.081824,4.587544,146.461395,3.7,2.0,376.0
62.9074378,-128.1655709,0.57828672,160.0,3.761115,4.664754,146.269745,3.4,1.8,377.0
63.01700807,-128.16551354,0.57820604,161.0,3.027623,4.765133,146.055664,3.0,1.6,377.0
63.11000824,-128.16546078,0.57813228,161.0,2.225334,4.861874,145.893463,2.8,1.4,378.0
63.20300889,-128.1654126,0.57806428,161.0,1.218482,4.967146,145.771484,2.6,1.3,378.0
63.31200838,-128.16535295,0.57798014,162.0,-0.038165,5.062644,145.668823,2.3,1.2,379.0
63.40500784,-128.16530591,0.57791329,162.0,-1.17647,5.140041,145.624603,2.2,1.2,380.0
63.51200843,-128.16524626,0.57782915,163.0,-2.883757,5.299268,145.612732,2.0,1.2,380.0
63.60365081,-128.16519579,0.57776,164.0,-4.319006,5.485512,145.634583,2.0,1.3,381.0
63.71165133,-128.16513843,0.57767932,164.0,-6.285204,5.796351,145.68866,2.0,1.5,381.0
63.81664896,-128.16508223,0.57759979,165.0,-8.461739,6.202786,145.757874,2.1,1.7,382.0
63.90665007,-128.1650329,0.57753064,166.0,-10.778052,6.69226,145.815399,2.3,2.0,382.0
64.01429558,-128.1649744,0.57744996,167.0,-13.797614,7.388564,145.855957,2.6,2.4,383.0
64.10829592,-128.16492393,0.57737965,167.0,-16.40947,8.05071,145.849121,2.8,2.7,383.0
64.21629643,-128.16486428,0.57729782,168.0,-19.33293,8.893981,145.777618,3.0,3.2,383.0
64.31029654,-128.16481151,0.57722636,169.0,-21.302032,9.535567,145.668304,3.1,3.6,383.0
64.40430236,-128.16479431,0.57720216,169.0,-21.803457,9.706569,145.630676,3.2,3.6,384.0
