Time,Longitude,Latitude,Altitude,Roll,Pitch,Yaw,AOA,AOS,TAS
0.11200023,-128.16470254,0.57707999,171.0,-23.343748,10.104046,145.430206,2.8,4.0,384.0
0.20599961,-128.16464748,0.57700738,172.0,-23.640167,9.93569,145.307648,2.3,4.0,384.0
0.31399941,-128.16458784,0.57692901,174.0,-23.632627,9.505925,145.090363,1.7,3.8,384.0
0.40799928,-128.16453393,0.57685986,175.0,-23.502073,9.051425,144.792053,1.3,3.6,385.0
0.51699853,-128.16447429,0.5767838,176.0,-23.299013,8.563755,144.310791,0.9,3.1,385.0
0.6100018,-128.16441808,0.57671119,177.0,-22.875492,8.224746,143.710083,0.7,2.6,385.0
0.71799946,-128.16435844,0.57663513,178.0,-21.847202,8.105177,142.907654,0.8,2.0,386.0
0.81200027,-128.16430224,0.57656482,180.0,-20.090147,8.196014,142.093994,1.2,1.3,386.0
0.90399933,-128.16424719,0.57649683,181.0,-18.053379,8.416799,141.295807,1.5,0.8,386.0
1.01219058,-128.16418411,0.57641846,182.0,-15.19172,8.786509,140.47403,1.9,0.2,387.0
1.10619855,-128.16412791,0.57634931,183.0,-12.46998,9.126446,139.885498,2.2,-0.3,387.0
1.21519828,-128.16406368,0.57627095,185.0,-9.086379,9.464716,139.417877,2.3,-0.7,387.0
1.30919814,-128.16400862,0.57620295,186.0,-6.04362,9.651413,139.192932,2.3,-1.0,387.0
1.40219808,-128.16395243,0.57613495,188.0,-3.165218,9.717329,139.117615,2.1,-1.1,387.0
1.51019883,-128.1638882,0.57605659,189.0,0.237095,9.688364,139.195007,1.8,-1.1,387.0
1.60419798,-128.163832,0.57598859,191.0,3.348188,9.594974,139.377838,1.5,-1.0,388.0
1.71077204,-128.16377007,0.57591368,192.0,6.722314,9.430568,139.680664,1.2,-0.8,388.0
1.81577325,-128.16370928,0.57583993,194.0,10.034928,9.189974,140.048981,0.9,-0.5,388.0
1.90577173,-128.16365193,0.57576963,195.0,12.903327,8.903002,140.426788,0.6,-0.3,388.0
2.01077127,-128.16359,0.57569472,197.0,15.855221,8.540463,140.850891,0.4,0.1,388.0
2.11577439,-128.16352807,0.57561981,198.0,18.750418,8.154073,141.264893,0.2,0.4,389.0
2.20577097,-128.16347416,0.57555296,200.0,21.232506,7.825824,141.605286,0.0,0.7,389.0
2.31077218,-128.16341452,0.57547805,201.0,24.185438,7.454498,141.949677,-0.1,1.0,389.0
2.41577125,-128.16335144,0.57539968,203.0,26.929161,7.126176,142.263306,-0.1,1.2,389.0
2.50577211,-128.16329868,0.57533399,204.0,29.070749,6.869229,142.485504,-0.2,1.3,390.0
2.61077428,-128.16323789,0.57525677,206.0,31.348932,6.588836,142.721863,-0.2,1.3,390.0
2.7033639,-128.16318398,0.57518878,207.0,32.838699,6.39991,142.928619,-0.2,1.4,390.0
2.81087899,-128.16312089,0.57510695,209.0,34.222454,6.217844,143.180481,-0.1,1.3,391.0
2.91587949,-128.1630601,0.57502858,210.0,35.069473,6.084544,143.425354,-0.1,1.3,391.0
3.00588036,-128.16300849,0.57496058,211.0,35.5681,5.976805,143.633911,-0.0,1.3,391.0
3.11088085,-128.16294769,0.5748799,212.0,35.950771,5.852691,143.879669,-0.0,1.2,392.0
3.21587968,-128.16288805,0.57480038,214.0,36.16217,5.725399,144.121582,0.0,1.1,392.0
3.30587935,-128.16283643,0.57473122,215.0,36.208714,5.62052,144.341309,0.0,1.1,393.0
3.41088104,-128.16278022,0.574654,216.0,36.102913,5.513247,144.60257,0.1,1.0,393.0
3.51588035,-128.16272057,0.57457217,217.0,35.809853,5.394416,144.896912,0.1,1.0,393.0
3.60587955,-128.16267125,0.57450417,218.0,35.416855,5.284326,145.151733,0.1,1.0,394.0
3.71088004,-128.1626116,0.57442003,219.0,34.78904,5.135442,145.476105,0.1,1.0,394.0
3.80392385,-128.16255883,0.57434627,220.0,34.06332,4.966534,145.763519,0.1,1.1,395.0
3.91392374,-128.16249803,0.57425867,221.0,33.249321,4.770765,146.095612,0.0,1.1,395.0
4.00692344,-128.16244871,0.57418605,222.0,32.541054,4.58934,146.366302,0.0,1.2,395.0
4.11592388,-128.1623902,0.57410192,223.0,31.811104,4.368171,146.667023,-0.0,1.2,396.0
4.20692372,-128.16233858,0.57402584,224.0,31.421957,4.18982,146.924164,-0.1,1.3,396.0
4.31592393,-128.16228236,0.5739417,225.0,31.430277,4.047518,147.206696,-0.0,1.3,397.0
4.40992498,-128.16222959,0.57386332,226.0,31.813597,3.975742,147.475403,0.0,1.3,397.0
4.50392413,-128.1621837,0.57379186,227.0,32.330406,3.955216,147.728149,0.1,1.3,398.0
4.61292267,-128.16212175,0.5736985,228.0,33.2477,3.971707,148.075165,0.3,1.2,398.0
4.70592308,-128.16207471,0.57362473,229.0,34.054699,4.010454,148.368164,0.5,1.1,399.0
4.814924,-128.16201735,0.57353597,230.0,35.130375,4.068561,148.734375,0.6,1.1,399.0
4.9079237,-128.16196916,0.5734599,230.0,36.119755,4.117683,149.064575,0.8,1.0,400.0
5.01592326,-128.16191295,0.57336999,231.0,37.295822,4.19132,149.498871,0.9,1.0,400.0
5.10992479,-128.1618659,0.57329276,232.0,38.230797,4.327036,149.971436,1.1,0.9,400.0
5.2029314,-128.16181886,0.57321437,233.0,38.971161,4.569264,150.584076,1.5,0.9,401.0
5.31092334,-128.16176379,0.57312331,233.0,39.554897,4.914942,151.455292,1.9,1.0,401.0
5.40492392,-128.16171904,0.57304608,234.0,39.926056,5.19986,152.261292,2.3,1.1,402.0
5.51392317,-128.16166511,0.57295155,235.0,40.396164,5.485286,153.260498,2.7,1.3,402.0
5.60592413,-128.1616215,0.57287317,236.0,40.893059,5.645947,154.073822,2.9,1.5,402.0
5.71495342,-128.16157101,0.57278095,237.0,41.650356,5.790235,155.029816,3.0,1.7,403.0
5.80795431,-128.16152855,0.57270025,238.0,42.379616,5.894773,155.860291,3.2,1.9,403.0
5.91695309,-128.1614792,0.57260457,239.0,43.206757,5.987887,156.811096,3.3,2.0,403.0
6.00895357,-128.16143788,0.57252157,240.0,44.049625,6.076995,157.613525,3.3,2.2,403.0
6.11695361,-128.16139197,0.57242589,241.0,45.109131,6.200974,158.531128,3.4,2.3,404.0
6.21095586,-128.16135524,0.57234749,242.0,46.064583,6.34003,159.32251,3.5,2.3,404.0
6.30295396,-128.16131736,0.57226564,243.0,47.298378,6.542876,160.155762,3.7,2.3,404.0
6.41295314,-128.16127373,0.57216649,244.0,48.635334,6.785103,161.196045,3.9,2.3,404.0
6.50595379,-128.16123814,0.57208118,245.0,49.855648,7.036378,162.14447,4.1,2.3,404.0
6.61495399,-128.16119795,0.57198203,246.0,51.316521,7.373522,163.29184,4.3,2.2,404.0
6.70895386,-128.16116465,0.57189325,248.0,52.546062,7.658423,164.365753,4.6,2.1,404.0
6.81695366,-128.16112905,0.57179871,249.0,53.890694,7.941863,165.54422,4.8,2.1,404.0
6.91095376,-128.16109918,0.57171224,250.0,55.044884,8.14952,166.618042,4.9,2.0,404.0
7.00595474,-128.16106931,0.57162115,252.0,56.270916,8.336638,167.755798,5.0,2.0,404.0
7.11295295,-128.16103944,0.57152084,253.0,57.554893,8.517407,169.085144,5.2,2.0,404.0
7.20495296,-128.16101415,0.57143321,255.0,58.556587,8.649199,170.283875,5.4,2.0,404.0
7.31395388,-128.16098771,0.57133405,256.0,59.686916,8.772184,171.697083,5.5,2.1,404.0
7.40795422,-128.16096587,0.57124411,257.0,60.600876,8.839761,173.000488,5.6,2.1,404.0
7.51695538,-128.16094286,0.57113918,259.0,61.56588,8.870425,174.539734,5.8,2.3,404.0
7.60895371,-128.1609256,0.57105154,261.0,62.317551,8.860136,175.804749,5.8,2.4,404.0
7.71795392,-128.16090717,0.57094776,262.0,63.131668,8.800143,177.269714,5.9,2.5,403.0
7.80960202,-128.16089335,0.57085896,264.0,63.753334,8.713635,178.464935,5.8,2.6,403.0
7.91560173,-128.1608795,0.57074941,266.0,64.34314,8.602569,179.897003,5.8,2.8,403.0
8.00560212,-128.16087141,0.57066984,267.0,64.736519,8.514468,-179.081633,5.7,2.9,403.0
8.11060214,-128.16086215,0.57056951,269.0,65.158936,8.410248,-177.822746,5.6,3.0,403.0
8.21560192,-128.16085633,0.57046686,271.0,65.543381,8.316827,-176.599255,5.5,3.0,403.0
8.30560255,-128.16085167,0.57037691,272.0,65.863716,8.245646,-175.564406,5.3,3.0,402.0
8.41060185,-128.16085044,0.57027657,274.0,66.074554,8.199437,-174.448496,5.2,3.0,402.0
8.51560235,-128.16085035,0.57017623,276.0,65.986603,8.162579,-173.399726,5.1,3.0,402.0
8.60560346,-128.16085141,0.57008512,277.0,65.381729,8.115414,-172.586839,4.8,3.0,402.0
8.71060157,-128.1608559,0.56998593,279.0,63.967815,8.043554,-171.89055,4.3,3.0,402.0
8.81560206,-128.16086154,0.56988212,281.0,61.451523,7.947908,-171.348431,3.8,2.9,402.0
8.90560126,-128.16086834,0.56979446,282.0,58.603863,7.855114,-171.030098,3.3,2.9,401.0
9.010602,-128.16087741,0.56969642,284.0,54.742271,7.7272,-170.817164,2.5,2.9,401.0
9.11660218,-128.16088763,0.56959377,286.0,49.685696,7.558943,-170.718634,1.8,2.8,401.0
9.20560288,-128.16089786,0.5695038,288.0,44.702293,7.410357,-170.677311,1.1,2.7,401.0
9.31060266,-128.16090923,0.56940575,289.0,38.383064,7.261181,-170.630578,0.6,2.5,401.0
9.41560268,-128.16092175,0.5693054,291.0,32.052761,7.156203,-170.558575,0.2,2.3,402.0
9.50560188,-128.16093198,0.5692212,292.0,26.700216,7.087057,-170.479046,-0.0,2.2,402.0
9.61060262,-128.16094678,0.56911508,294.0,18.987295,6.999311,-170.357701,-0.2,2.0,402.0
9.71626258,-128.16096044,0.56901358,296.0,11.855652,6.930243,-170.213909,-0.4,2.0,402.0
9.80982447,-128.16097296,0.5689236,297.0,5.089387,6.881395,-170.062794,-0.5,2.0,402.0
9.91582417,-128.16098662,0.5688221,299.0,-1.828602,6.856336,-169.873709,-0.6,2.0,402.0
10.0058248,-128.16099914,0.56873559,300.0,-7.697554,6.873563,-169.714368,-0.6,2.1,402.0
10.11082506,-128.1610128,0.56863524,301.0,-14.604461,6.990545,-169.560656,-0.6,2.3,403.0
10.21582532,-128.1610276,0.56853142,303.0,-20.922623,7.22306,-169.478308,-0.6,2.5,403.0
10.30582476,-128.16104013,0.56844261,304.0,-26.120424,7.508411,-169.485486,-0.4,2.7,403.0
10.41082621,-128.16105378,0.56833995,305.0,-31.112803,7.867174,-169.604658,-0.2,2.9,403.0
10.51582646,-128.16106744,0.56824075,307.0,-35.234718,8.254422,-169.861779,0.0,3.2,404.0
10.60582495,-128.16107768,0.56815424,308.0,-38.363754,8.656165,-170.230736,0.3,3.3,404.0
10.7108264,-128.16109133,0.56804812,309.0,-41.392605,9.222018,-170.895662,0.8,3.5,404.0
10.81582451,-128.16110384,0.56794546,310.0,-43.72805,9.825414,-171.732162,1.4,3.6,404.0
10.90582538,-128.16111407,0.56785549,311.0,-45.310043,10.329742,-172.588556,1.8,3.7,405.0
11.01082492,-128.16112429,0.56775053,313.0,-46.877052,10.97723,-173.729059,2.6,3.8,405.0
11.1158247,-128.16113337,0.56765249,314.0,-47.996895,11.623908,-174.959472,3.3,3.8,405.0
11.20582414,-128.16114016,0.56756483,315.0,-48.813145,12.24182,-176.202047,3.9,3.8,405.0
11.31082511,-128.16114809,0.56745872,317.0,-49.620831,13.035142,-177.780587,4.7,3.8,405.0
11.41582537,-128.16115258,0.56735376,318.0,-50.307819,13.840095,-179.443195,5.3,3.7,405.0
11.50582504,-128.16115594,0.56727072,319.0,-50.748932,14.376602,179.321198,5.8,3.7,405.0
11.61082482,-128.16115699,0.5671623,321.0,-51.368439,15.141154,177.623474,6.3,3.6,404.0
11.7174933,-128.1611569,0.56706197,323.0,-51.906773,15.743332,176.175018,6.6,3.6,404.0
11.81112909,-128.16115453,0.56696624,324.0,-52.534519,16.310268,174.73465,6.8,3.6,404.0
11.90312958,-128.16115101,0.56688205,326.0,-53.093727,16.731226,173.550659,6.9,3.6,403.0
12.01183057,-128.16114404,0.56677364,328.0,-53.932152,17.291937,171.947662,7.0,3.6,403.0
12.10483074,-128.16113595,0.56668715,330.0,-54.577106,17.681238,170.729889,7.0,3.6,402.0
12.21083093,-128.16112555,0.56658567,332.0,-55.389557,18.159422,169.264679,7.0,3.6,402.0
12.31583023,-128.16111286,0.56648649,335.0,-56.234985,18.612043,167.811646,7.1,3.6,401.0
12.40583181,-128.16109903,0.5663977,337.0,-57.009136,18.997589,166.442841,7.1,3.6,401.0
12.51083112,-128.16108176,0.5663043,339.0,-57.838196,19.370371,165.070496,7.1,3.6,400.0
12.61583018,-128.16106335,0.56620974,342.0,-58.754852,19.749105,163.603088,7.1,3.6,399.0
12.70750332,-128.1610438,0.56612556,344.0,-59.593437,20.054646,162.288696,7.1,3.7,399.0
12.81650329,-128.1610185,0.56602179,347.0,-60.845478,20.408129,160.656921,7.1,3.7,398.0
12.90950441,-128.16099551,0.56593877,349.0,-61.930805,20.617964,159.373352,7.0,3.8,397.0
13.00307727,-128.16096909,0.56585345,352.0,-63.293407,20.783405,158.057037,6.9,3.8,397.0
13.11107659,-128.16093807,0.56575775,355.0,-65.124863,20.88187,156.613403,6.7,3.9,396.0
13.20507598,-128.1609105,0.56567704,358.0,-66.922157,20.875523,155.43454,6.4,4.0,395.0
13.3150773,-128.16087261,0.56557904,361.0,-69.357666,20.759508,154.039246,6.1,4.0,395.0
13.40907574,-128.16084046,0.56549834,363.0,-71.500427,20.583052,152.863281,5.8,4.1,394.0
13.50207663,-128.16080602,0.56541994,366.0,-73.439835,20.373775,151.698425,5.6,4.1,393.0
13.61007643,-128.16076355,0.56532656,369.0,-76.110405,20.017586,150.263641,5.4,4.1,393.0
13.70372343,-128.16072796,0.56525162,372.0,-78.287643,19.673285,149.075256,5.2,4.0,392.0
13.81332469,-128.16067976,0.56515825,374.0,-80.991203,19.17704,147.584747,5.1,4.0,392.0
13.9053247,-128.16064075,0.56508447,377.0,-83.215767,18.712727,146.446564,5.0,4.0,391.0
14.01295996,-128.16059026,0.56499686,380.0,-86.164841,18.077858,145.25412,4.6,3.9,391.0
14.10573053,-128.16054666,0.56492309,382.0,-89.180695,17.472351,144.445251,4.2,3.9,390.0
14.21072769,-128.16049503,0.56484009,385.0,-93.484154,16.692169,143.725952,3.6,3.9,390.0
14.31572843,-128.1604434,0.56475825,387.0,-98.808632,15.833591,143.203918,2.9,3.8,389.0
14.40572858,-128.16039637,0.5646891,389.0,-104.137833,15.085418,142.903687,2.2,3.8,389.0
14.51072717,-128.16034245,0.56460956,391.0,-111.200203,14.219081,142.696259,1.4,3.7,389.0
14.61572957,-128.1602851,0.56452658,394.0,-119.637344,13.28744,142.56546,0.5,3.4,389.0
14.70834088,-128.16023577,0.56445742,395.0,-126.947411,12.524055,142.467499,-0.1,3.2,389.0
14.80134177,-128.16018415,0.56438596,397.0,-135.721985,11.630013,142.356842,-0.5,3.0,389.0
14.91134143,-128.16012451,0.56430297,399.0,-145.323318,10.674851,142.215637,-0.9,2.6,389.0
15.00396585,-128.16007289,0.56423382,400.0,-153.765823,9.844304,142.081055,-1.0,2.3,389.0
15.11296654,-128.1600121,0.56415083,402.0,-164.931992,8.707524,141.895874,-1.1,2.1,389.0
15.20596671,-128.15996048,0.56407937,403.0,-174.016663,7.716244,141.737183,-1.1,1.9,389.0
15.31599498,-128.15989739,0.56399524,404.0,171.209335,6.426823,141.574829,-1.0,1.8,389.0
15.40895462,-128.15984577,0.56392493,405.0,166.235443,5.321877,141.473938,-0.9,1.8,390.0
15.51795292,-128.15978383,0.56384079,406.0,156.134125,3.951847,141.441132,-0.7,1.9,390.0
15.61095309,-128.15972992,0.56376703,407.0,146.956024,2.557659,141.532959,-0.6,2.1,391.0
15.70461392,-128.15967716,0.56369557,407.0,139.505325,1.280162,141.774109,-0.4,2.3,391.0
15.81235027,-128.15961636,0.56361143,408.0,130.748505,-0.428534,142.292358,-0.0,2.6,392.0
15.9063499,-128.15956475,0.56354112,408.0,124.164963,-1.838463,142.929352,0.4,2.9,392.0
16.01496315,-128.1595028,0.56345468,408.0,117.173294,-3.426791,143.925201,0.8,3.3,393.0
16.10896373,-128.15945118,0.56338091,408.0,111.542694,-4.806822,144.96637,1.2,3.7,393.0
16.21596289,-128.15939268,0.56329562,408.0,106.29512,-6.190876,146.398834,1.8,4.1,394.0
16.30996466,-128.1593422,0.56322069,407.0,102.129959,-7.319881,147.823456,2.3,4.4,395.0
16.40296221,-128.15929402,0.56314692,407.0,98.689842,-8.229377,149.271667,2.8,4.7,395.0
16.51196289,-128.15923895,0.56305817,406.0,95.153442,-9.10843,151.017456,3.3,5.0,396.0
16.60496449,-128.15919191,0.56298209,405.0,92.4468,-9.721647,152.530182,3.6,5.1,397.0
16.71364737,-128.15913913,0.56289218,404.0,89.914848,-10.23285,154.304749,4.0,5.1,397.0
16.80564761,-128.15909438,0.56281379,403.0,88.143082,-10.526616,155.90686,4.5,5.0,398.0
16.91064811,-128.15904963,0.56272848,402.0,86.588951,-10.707008,157.546539,4.9,4.8,399.0
17.01725769,-128.15900372,0.56263856,401.0,85.211975,-10.788145,159.303497,5.2,4.5,400.0
17.11125851,-128.15896125,0.56255095,400.0,84.195213,-10.78279,160.985229,5.5,4.2,400.0
17.20525837,-128.15892337,0.56246794,398.0,83.483292,-10.730754,162.566742,5.8,3.8,401.0
17.31325865,-128.15888319,0.5623711,397.0,82.839401,-10.650522,164.284851,6.1,3.4,402.0
17.40725946,-128.15885104,0.56229155,395.0,82.32621,-10.587332,165.721497,6.3,3.0,403.0
17.516258,-128.15881429,0.56219124,393.0,81.684189,-10.542127,167.440155,6.4,2.7,403.0
17.60925746,-128.15878672,0.56210938,392.0,81.162201,-10.542542,168.756989,6.4,2.5,404.0
17.71582985,-128.15875455,0.56200791,390.0,80.413383,-10.604635,170.293732,6.3,2.2,405.0
17.80849123,-128.15873157,0.56192374,388.0,79.744728,-10.712135,171.525452,6.2,2.1,406.0
17.91649175,-128.15870513,0.56182112,386.0,79.00383,-10.887982,173.010803,6.1,2.0,407.0
18.00906134,-128.15868443,0.56173233,384.0,78.340805,-11.097111,174.256165,6.1,2.1,407.0
18.11606169,-128.15866371,0.56162624,382.0,77.592453,-11.40065,175.76532,5.9,2.1,409.0
18.20906162,-128.15864874,0.56154091,380.0,77.066025,-11.656232,176.978607,5.9,2.2,409.0
18.30306101,-128.15863377,0.56144865,378.0,76.466682,-11.991238,178.282898,5.8,2.4,410.0
18.41106153,-128.15862107,0.56134256,375.0,75.922142,-12.332788,179.795197,5.7,2.6,411.0
18.50406146,-128.15861183,0.56125491,374.0,75.517738,-12.612474,-178.95561,5.7,2.7,412.0
18.61406255,-128.15860257,0.56114305,371.0,75.046547,-12.982035,-177.368958,5.7,2.9,413.0
18.70580149,-128.1585979,0.56105194,369.0,74.740288,-13.256428,-176.061212,5.6,3.0,414.0
18.81080222,-128.15859438,0.5609493,366.0,74.463524,-13.534092,-174.607507,5.6,3.1,415.0
18.91580319,-128.15859314,0.56084204,364.0,74.244133,-13.764775,-173.065156,5.6,3.2,416.0
19.00543189,-128.15859535,0.56075438,362.0,74.082726,-13.911001,-171.775974,5.7,3.2,417.0
19.11543274,-128.15859984,0.56064712,359.0,73.859962,-14.032108,-170.084539,5.8,3.2,418.0
19.20943213,-128.15860549,0.56055369,356.0,73.611931,-14.075353,-168.488642,6.1,3.2,419.0
19.31543159,-128.15861456,0.56045104,354.0,73.241356,-14.067271,-166.623221,6.4,3.2,420.0
19.40943146,-128.15862708,0.56035299,352.0,72.833244,-14.026987,-164.782317,6.7,3.2,421.0
19.51643157,-128.15864188,0.56024572,348.0,72.337784,-13.963326,-162.716686,7.0,3.2,422.0
19.6094327,-128.15865784,0.56015344,346.0,71.833725,-13.89562,-160.940975,7.2,3.2,423.0
19.71608663,-128.15868065,0.56004616,343.0,71.169594,-13.809285,-158.889441,7.5,3.2,424.0
19.80923223,-128.1587012,0.55995964,341.0,70.453865,-13.716054,-157.198326,7.6,3.3,425.0
19.91574311,-128.15872975,0.5598512,338.0,69.544258,-13.588688,-155.139067,7.7,3.4,425.0
20.00574255,-128.15875488,0.55976699,336.0,68.748581,-13.463163,-153.512384,7.8,3.4,426.0
20.11074328,-128.15878916,0.55966431,333.0,67.586945,-13.256733,-151.555708,7.9,3.5,427.0
20.21574283,-128.15882688,0.55956394,330.0,66.368233,-13.018326,-149.67782,7.9,3.6,427.0
20.30574393,-128.15886117,0.55947971,327.0,65.106514,-12.751911,-148.121859,7.9,3.7,428.0
20.41074371,-128.15890348,0.55938164,325.0,63.494347,-12.445217,-146.454918,7.7,3.8,429.0
20.51574421,-128.15894922,0.55928472,322.0,61.239799,-12.151772,-145.11235,7.3,3.9,429.0
20.60574818,-128.15898925,0.5592051,320.0,58.755238,-11.900637,-144.249084,6.8,4.0,430.0
20.71074462,-128.15904072,0.55910933,318.0,55.196312,-11.547386,-143.398987,6.1,4.1,430.0
20.81574416,-128.15909563,0.55901356,315.0,50.833179,-11.084096,-142.697247,5.4,4.1,431.0
20.90574336,-128.15914139,0.55893624,313.0,47.180153,-10.679491,-142.241322,4.9,4.0,432.0
21.01074433,-128.15919744,0.55884508,311.0,42.257069,-10.118892,-141.819427,4.3,3.9,433.0
21.11574388,-128.15925694,0.55875276,309.0,37.150505,-9.520166,-141.512882,3.8,3.7,433.0
21.20574307,-128.15930957,0.55867313,307.0,32.480202,-8.936084,-141.306984,3.4,3.5,434.0
21.31074429,-128.15936907,0.55858312,304.0,26.958584,-8.108107,-141.079865,3.2,3.3,435.0
21.41574454,-128.15943314,0.5584908,302.0,21.984188,-7.153709,-140.823345,3.3,3.2,436.0
21.5057435,-128.15948578,0.55841463,301.0,17.807827,-6.147792,-140.59864,3.6,3.1,437.0
21.61074471,-128.159551,0.55832346,299.0,13.288406,-4.790521,-140.32605,4.0,3.1,438.0
21.71551371,-128.15961622,0.55823114,297.0,9.064267,-3.261582,-140.078579,4.5,3.2,438.0
21.80707049,-128.15967229,0.55815381,296.0,5.683537,-1.869908,-139.908569,4.8,3.3,439.0
21.91607094,-128.15973866,0.55806264,295.0,2.590861,-0.396396,-139.767147,5.3,3.6,439.0
22.00973082,-128.1598016,0.55797724,294.0,0.164769,1.108025,-139.695793,5.6,3.7,440.0
22.11573172,-128.15986911,0.55788607,293.0,-1.39256,2.558044,-139.6838,5.9,3.9,440.0
22.20573068,-128.15992633,0.55780874,292.0,-2.040047,3.646842,-139.725548,6.0,3.9,440.0
22.31073141,-128.15999155,0.55771988,292.0,-2.201254,4.749767,-139.836758,6.0,3.9,440.0
22.41573095,-128.16005907,0.55762755,292.0,-1.966283,5.683522,-140.023167,5.8,3.7,441.0
22.50573111,-128.16011514,0.55755138,292.0,-1.635701,6.371305,-140.228065,5.7,3.4,441.0
22.61073136,-128.1601838,0.55745675,292.0,-1.130809,7.107617,-140.52404,5.4,3.1,441.0
22.70232248,-128.16024101,0.55737942,293.0,-0.760639,7.452538,-140.796593,4.8,2.7,441.0
22.81032205,-128.16030738,0.55728941,293.0,-0.431916,7.538092,-141.138157,4.1,2.3,441.0
22.9033227,-128.16036803,0.55720747,294.0,-0.282514,7.358704,-141.464905,3.4,2.0,441.0
23.01232123,-128.16043898,0.55711052,295.0,-0.288997,6.878521,-141.860374,2.4,1.6,441.0
23.10532236,-128.16049734,0.55703205,296.0,-0.465605,6.399811,-142.179905,1.4,1.3,441.0
23.21332097,-128.16056371,0.55694087,297.0,-0.841648,5.755452,-142.515415,0.6,0.9,442.0
23.30732203,-128.16062207,0.5568624,298.0,-1.340757,5.065926,-142.771542,-0.1,0.7,442.0
23.41632175,-128.1606953,0.55676314,299.0,-2.024827,4.323431,-143.01992,-0.9,0.4,442.0
23.50932169,-128.16075366,0.55668467,300.0,-2.688619,3.655557,-143.152,-1.4,0.2,443.0
23.61732125,-128.16082118,0.55659234,302.0,-3.513076,2.753266,-143.220783,-1.9,0.1,443.0
23.71102619,-128.16088297,0.55650925,303.0,-4.255449,1.793334,-143.211288,-2.6,0.0,443.0
23.80410194,-128.16094247,0.55642731,303.0,-4.956454,0.687459,-143.148956,-3.1,0.0,444.0
23.91061425,-128.16101113,0.55633498,304.0,-5.603842,-0.516472,-143.032696,-3.9,0.0,444.0
24.01717496,-128.16107636,0.55624496,305.0,-6.174637,-1.696859,-142.889668,-4.3,0.1,445.0
24.11068749,-128.16113815,0.55616072,305.0,-6.621579,-2.757059,-142.74707,-4.7,0.1,445.0
24.21568704,-128.1612091,0.55606493,306.0,-6.931207,-3.987569,-142.594772,-4.9,0.1,446.0
24.30568862,-128.16126174,0.55599337,306.0,-6.885497,-4.808498,-142.500481,-5.1,0.2,446.0
24.41068745,-128.16133268,0.55589759,306.0,-6.381177,-5.789311,-142.424995,-5.1,0.3,447.0
24.51568818,-128.1614002,0.55580641,305.0,-5.218273,-6.644313,-142.440651,-5.1,0.3,447.0
24.60568714,-128.16145627,0.5557314,305.0,-3.493051,-7.207955,-142.556858,-4.8,0.4,448.0
24.71068716,-128.16152722,0.55563561,304.0,0.064072,-7.640267,-142.855015,-4.4,0.3,449.0
24.81568837,-128.16159473,0.55554444,303.0,5.059073,-7.840934,-143.277843,-3.8,0.3,449.0
24.90568757,-128.16165309,0.55546596,303.0,10.1663,-7.939452,-143.703648,-3.3,0.1,450.0
25.01068759,-128.16172175,0.55537363,301.0,16.824512,-8.048388,-144.241867,-3.0,-0.1,451.0
25.11568785,-128.16179041,0.5552813,300.0,24.216995,-8.182465,-144.800598,-2.8,-0.3,452.0
25.20568681,-128.16184992,0.55520052,299.0,30.335381,-8.308305,-145.279625,-2.7,-0.6,453.0
25.31068707,-128.16191629,0.55511165,297.0,37.788483,-8.465271,-145.779358,-2.8,-0.8,453.0
25.41568661,-128.16198495,0.55501817,296.0,44.401207,-8.603191,-146.205936,-2.9,-1.0,454.0
25.50568652,-128.16204102,0.55494085,294.0,49.209366,-8.755852,-146.474987,-2.9,-1.0,455.0
25.61068797,-128.16211425,0.55484045,292.0,54.5504,-9.22628,-146.817684,-3.1,-1.0,456.0
25.71831274,-128.16218405,0.55474581,291.0,57.411797,-10.023636,-147.293495,-3.6,-0.8,457.0
25.8114264,-128.16224356,0.55466387,288.0,58.580341,-11.005175,-147.909321,-4.2,-0.5,459.0
25.90642476,-128.16230535,0.55457732,287.0,58.892307,-12.205309,-148.755182,-4.9,-0.3,460.0
26.01503754,-128.162374,0.55448038,284.0,58.566319,-13.676615,-149.809702,-5.9,0.1,461.0
26.10803843,-128.1624335,0.55439498,282.0,57.673576,-14.906734,-150.64893,-6.4,0.2,462.0
26.21603823,-128.16250101,0.55429574,279.0,55.250278,-16.360394,-151.314608,-6.7,0.4,463.0
26.30903888,-128.16255707,0.55421149,276.0,51.49815,-17.583639,-151.508196,-6.7,0.5,464.0
26.4030385,-128.16261428,0.55412379,274.0,46.423771,-18.712152,-151.326561,-6.4,0.6,465.0
26.51103783,-128.16267606,0.5540257,270.0,38.995125,-19.933809,-150.672348,-6.0,0.8,467.0
26.60503769,-128.16273098,0.55393916,267.0,30.301548,-21.006111,-149.712351,-5.5,1.1,468.0
26.71403623,-128.16279276,0.55383876,263.0,19.344402,-21.961832,-148.240595,-5.0,1.5,469.0
26.80403852,-128.16284538,0.55375337,260.0,8.261053,-22.545364,-146.767879,-4.7,2.0,470.0
26.91203737,-128.16290945,0.55364952,255.0,-3.888258,-22.789547,-144.911812,-4.5,2.7,472.0
27.00603747,-128.16296093,0.55356412,251.0,-14.008337,-22.666948,-143.469734,-4.3,3.3,473.0
27.11403871,-128.16302157,0.55346604,247.0,-25.531681,-21.993525,-142.242496,-4.0,3.9,475.0
27.20703864,-128.16307534,0.55338064,242.0,-32.951,-21.02409,-141.801525,-3.3,4.4,476.0
27.31603718,-128.16313941,0.55328025,237.0,-38.550983,-19.458342,-142.218525,-2.0,4.9,478.0
27.41003752,-128.16319318,0.5531937,233.0,-41.16116,-17.903952,-143.249207,-0.6,5.3,479.0
27.51703835,-128.16325496,0.55309562,228.0,-42.462711,-16.159664,-144.901894,1.3,5.5,481.0
27.61003757,-128.16330644,0.55301022,223.0,-42.538399,-14.581621,-146.590782,3.1,5.6,482.0
27.71565652,-128.16336936,0.55290406,218.0,-41.570843,-12.716939,-148.801218,4.7,5.4,483.0
27.80570507,-128.16341855,0.55281867,214.0,-40.289307,-11.29468,-150.624037,5.8,5.1,484.0
27.91422391,-128.16347917,0.55271021,209.0,-38.568085,-9.684104,-152.91795,7.2,4.4,485.0
28.00783587,-128.16352607,0.55261905,205.0,-37.116734,-8.285906,-154.801718,7.9,3.9,486.0
28.11583591,-128.16358211,0.55250598,202.0,-35.611496,-6.518811,-157.02599,8.7,3.3,486.0
28.20583677,-128.16362327,0.55241714,198.0,-34.73193,-5.096888,-158.68317,9.3,2.7,486.0
28.31083608,-128.1636713,0.55230753,195.0,-33.931911,-3.124424,-160.5576,9.8,2.3,486.0
28.41583538,-128.16371931,0.55218985,192.0,-33.500042,-1.212543,-162.319765,10.2,2.2,486.0
28.50583744,-128.16375703,0.55209178,190.0,-33.29879,0.412405,-163.622972,10.4,2.1,486.0
28.61083651,-128.16379703,0.55197641,188.0,-33.137424,2.499017,-164.961087,10.5,2.3,486.0
28.70240426,-128.16383017,0.55187489,187.0,-33.001812,4.309287,-166.000689,10.5,2.5,485.0
28.81040382,-128.16386787,0.55174915,185.0,-32.755489,6.557254,-167.167083,10.5,2.9,484.0
28.90340471,-128.16389756,0.55164186,185.0,-32.44313,8.404468,-168.117214,10.6,3.2,484.0
29.01212239,-128.16392839,0.55151728,184.0,-31.930082,10.588617,-169.184157,10.6,3.6,483.0
29.10612035,-128.16395235,0.55141,184.0,-31.400427,12.336375,-170.110071,10.6,3.8,482.0
29.21612048,-128.16397859,0.55128195,185.0,-30.572859,14.600981,-171.25573,10.6,4.0,480.0
29.3091197,-128.16399683,0.55117814,186.0,-29.844839,16.393408,-172.229507,10.7,4.1,479.0
29.41612005,-128.1640162,0.55105356,187.0,-29.048073,18.372242,-173.444801,10.7,4.0,478.0
29.50911951,-128.16402986,0.55094975,189.0,-28.468706,20.017252,-174.526237,10.8,4.0,476.0
29.61712003,-128.1640435,0.55082518,191.0,-27.925825,22.082092,-175.847223,10.8,3.8,475.0
29.70783424,-128.16405258,0.55072483,194.0,-27.724228,23.58511,-176.922361,10.7,3.7,473.0
29.81583619,-128.16406164,0.55060488,197.0,-27.940474,25.15456,-178.125065,10.3,3.6,471.0
29.90942168,-128.16406728,0.55049992,200.0,-28.673336,26.275284,-179.149601,9.9,3.5,470.0
30.00297689,-128.16407063,0.55039958,204.0,-30.073338,27.115795,179.909424,9.2,3.5,468.0
30.11349201,-128.16407282,0.55028079,208.0,-32.909042,27.69014,178.871704,8.1,3.6,466.0
30.20649171,-128.16407159,0.5501816,213.0,-36.619884,27.866528,178.070038,6.9,3.6,464.0
30.31549072,-128.16406919,0.55006512,218.0,-41.946163,27.76186,177.18515,5.6,3.7,463.0
30.40850353,-128.16406567,0.54996824,222.0,-47.133282,27.446936,176.546936,4.6,3.7,462.0
30.51750422,-128.1640587,0.54985638,227.0,-54.83416,26.827244,175.986206,3.2,3.7,460.0
30.61050272,-128.16405174,0.54975604,232.0,-63.124493,26.130756,175.623383,1.8,3.5,459.0
30.70227242,-128.16404364,0.54966032,236.0,-71.978333,25.440493,175.319092,0.9,3.3,458.0
30.81127286,-128.16403324,0.54955077,242.0,-83.510361,24.654318,174.95575,-0.1,2.8,457.0
30.90427351,-128.16402399,0.5494539,246.0,-93.565559,24.087368,174.620422,-0.6,2.5,456.0
31.01294374,-128.16401243,0.54934319,250.0,-105.969284,23.524647,174.192139,-1.0,2.2,455.0
31.10694408,-128.16400204,0.54924978,255.0,-117.322021,23.117926,173.83194,-1.3,2.0,454.0
31.21494508,-128.16398819,0.54913215,260.0,-131.402283,22.746004,173.446411,-1.7,1.9,453.0
31.3089447,-128.1639778,0.54903874,263.0,-143.825363,22.52422,173.177765,-2.0,1.8,452.0
31.40294433,-128.16396626,0.54894302,268.0,-153.910645,22.358212,172.889496,-2.5,1.6,451.0
31.51094413,-128.16395356,0.54883001,272.0,-166.125549,22.059071,172.470276,-2.8,1.5,451.0
31.60494447,-128.16394088,0.54872968,276.0,-176.595749,21.625229,172.02182,-2.9,1.3,450.0
31.71294379,-128.16392818,0.54861782,280.0,170.130219,20.911438,171.470856,-2.8,1.3,449.0
31.80594468,-128.16391664,0.5485221,283.0,162.29068,20.011871,171.013428,-2.6,1.3,449.0
31.91553497,-128.16390279,0.54840794,288.0,151.978806,18.877369,170.554382,-2.4,1.5,448.0
32.00553513,-128.1638924,0.54831799,291.0,144.302216,17.855774,170.329712,-2.2,1.7,447.0
32.11053586,-128.16387856,0.54820497,295.0,134.806427,16.182911,170.40155,-1.7,2.1,447.0
32.2155354,-128.16386587,0.54809888,299.0,127.870674,14.553798,170.906281,-1.0,2.5,446.0
32.30553508,-128.16385548,0.54800547,301.0,122.027901,12.834431,171.659637,-0.4,2.9,446.0
32.41053557,-128.16384278,0.54789707,305.0,117.42942,11.216286,172.803223,0.4,3.4,445.0
32.51553535,-128.16383123,0.54778636,308.0,113.249763,9.498394,174.219452,1.3,4.0,445.0
32.60553527,-128.16382313,0.5476941,311.0,110.386429,8.180332,175.517578,2.0,4.4,445.0
32.71053505,-128.16381386,0.54757762,314.0,107.635422,6.759033,177.291138,2.7,4.8,444.0
32.81553507,-128.1638069,0.54746691,316.0,105.628052,5.504347,179.20813,3.5,5.0,444.0
32.90553498,-128.16380223,0.54737349,318.0,104.50531,4.607922,-178.968942,4.2,5.1,443.0
33.01053619,-128.16379985,0.54726162,320.0,103.474121,3.613281,-176.640102,5.1,5.1,443.0
33.11553741,-128.16379975,0.54714744,322.0,102.654488,2.733558,-174.120882,6.0,4.9,442.0
33.20553493,-128.16380196,0.54705402,324.0,102.049149,2.048433,-171.981095,6.8,4.7,441.0
33.31053448,-128.16380759,0.54693984,326.0,101.38121,1.276436,-169.312524,7.6,4.5,441.0
33.41553521,-128.16381666,0.54683027,327.0,100.805328,0.610774,-166.648443,8.3,4.2,440.0
33.50553608,-128.16382803,0.54673338,328.0,100.24791,0.030511,-164.228886,8.8,4.0,439.0
33.61053491,-128.16384512,0.54662149,329.0,99.423538,-0.696142,-161.433069,9.4,3.8,439.0
33.71710134,-128.16386679,0.54650729,330.0,98.452126,-1.437351,-158.538492,9.9,3.7,438.0
33.8111012,-128.16388848,0.54641501,331.0,97.534111,-2.093759,-156.198656,10.2,3.7,437.0
33.90227103,-128.1639136,0.54631926,332.0,96.761307,-2.663749,-153.766661,10.5,3.7,436.0
34.01042342,-128.16394788,0.54621082,332.0,95.826004,-3.475858,-150.853563,10.8,3.7,436.0
34.10442257,-128.16398102,0.54611621,332.0,95.189888,-4.189534,-148.216331,11.2,3.8,435.0
34.21342325,-128.16402447,0.54600776,332.0,94.681076,-5.025112,-145.05674,11.6,3.9,434.0
34.30742264,-128.16406563,0.54591777,332.0,94.484039,-5.86751,-142.465008,11.9,4.0,434.0
34.41442418,-128.1641171,0.54581739,332.0,94.657166,-6.753834,-139.490593,12.2,4.0,433.0
34.50742364,-128.16416286,0.54573431,331.0,95.051254,-7.511205,-137.021111,12.4,4.0,432.0
34.61642575,-128.16423036,0.54562814,331.0,95.838196,-8.654829,-133.765354,12.6,3.9,431.0
34.71202755,-128.16428414,0.54555082,330.0,96.463776,-9.509814,-131.266483,12.7,3.9,430.0
34.8055439,-128.16434365,0.5454735,329.0,97.143959,-10.500634,-128.669857,12.9,3.8,430.0
34.91054726,-128.16441575,0.54538809,328.0,97.75119,-11.564173,-125.642853,13.1,3.7,429.0
35.01713395,-128.164489,0.54530845,326.0,98.173767,-12.679163,-122.647343,13.3,3.6,428.0
35.11064625,-128.16455769,0.5452415,325.0,98.365524,-13.666262,-119.971771,13.4,3.6,428.0
35.21564603,-128.16464011,0.54516761,323.0,98.44503,-14.913315,-116.791924,13.6,3.6,427.0
35.3056457,-128.16471109,0.54511104,322.0,98.414703,-16.003387,-114.162827,13.7,3.7,427.0
35.41064668,-128.16479582,0.54504753,319.0,98.275963,-17.157343,-111.074409,13.9,3.8,427.0
35.51564598,-128.16488398,0.54499094,317.0,97.915649,-18.326624,-107.983665,13.9,3.9,426.0
35.60564518,-128.16496414,0.54494359,314.0,97.283165,-19.356461,-105.227463,14.0,4.0,426.0
35.71064639,-128.16505689,0.54489391,311.0,96.296577,-20.417826,-102.131516,14.0,4.2,425.0
35.81564593,-128.16515538,0.54484885,308.0,95.136032,-21.459623,-98.887436,13.9,4.4,425.0
35.90564585,-128.16523441,0.54481764,306.0,94.210487,-22.16,-96.225922,13.9,4.5,425.0
36.01064515,-128.16533061,0.54478411,302.0,92.960579,-22.933668,-92.951897,13.9,4.6,425.0
36.11564636,-128.16543484,0.54475403,298.0,91.318726,-23.670219,-89.483116,14.0,4.7,424.0
36.20564604,-128.16551617,0.54473551,295.0,90.037483,-24.090961,-86.687752,14.0,4.8,424.0
36.31064582,-128.16561926,0.54471697,290.0,88.231773,-24.525776,-83.163353,14.1,4.8,424.0
36.41564655,-128.16572007,0.5447042,286.0,86.589561,-24.780182,-79.56562,14.3,4.7,424.0
36.50564647,-128.16580828,0.54469835,283.0,85.102417,-24.907463,-76.355957,14.5,4.7,424.0
36.61064625,-128.16590451,0.54469712,278.0,83.387558,-24.946268,-72.721863,14.7,4.6,424.0
36.70222664,-128.16599502,0.5447005,275.0,81.798714,-24.885923,-69.306023,14.9,4.6,424.0
36.81074023,-128.16609585,0.54471079,270.0,80.005577,-24.714714,-65.462219,15.2,4.5,424.0
36.91573906,-128.16619782,0.54472685,265.0,78.482155,-24.480574,-61.626801,15.4,4.4,423.0
37.00573897,-128.16628032,0.54474523,261.0,77.337212,-24.243687,-58.467743,15.5,4.3,423.0
37.11073947,-128.16637658,0.54477283,256.0,76.11142,-23.922443,-54.860847,15.6,4.2,423.0
37.21573877,-128.16647514,0.54480734,252.0,74.957077,-23.552513,-51.117538,15.6,4.1,423.0
37.30573964,-128.16654963,0.54483842,248.0,74.033401,-23.213913,-48.284912,15.7,4.1,423.0
37.41073895,-128.16664132,0.54488216,243.0,73.061104,-22.822615,-44.732864,15.6,4.0,423.0
37.51573873,-128.16672729,0.54493053,239.0,72.079865,-22.390244,-41.327454,15.6,4.0,422.0
37.60573936,-128.16679606,0.54497545,234.0,71.260941,-21.998577,-38.478622,15.6,4.0,422.0
37.71074009,-128.1668786,0.54503535,229.0,70.318428,-21.502939,-35.01001,15.6,4.0,422.0
37.81573915,-128.16695541,0.54509756,225.0,69.407028,-20.96418,-31.666718,15.6,4.0,422.0
37.90574002,-128.16701962,0.54515748,221.0,68.718445,-20.501451,-28.705521,15.6,4.0,422.0
38.01074076,-128.16708957,0.54522892,217.0,67.983856,-19.931061,-25.379517,15.6,4.0,421.0
38.11573911,-128.16715608,0.54530614,212.0,67.353378,-19.337542,-22.017136,15.6,4.1,421.0
38.20573974,-128.16720884,0.54537529,208.0,66.88723,-18.796484,-19.174286,15.6,4.1,421.0
38.31074142,-128.16726505,0.54545597,204.0,66.432716,-18.139486,-15.96048,15.6,4.1,421.0
38.41573906,-128.16731667,0.54554128,201.0,66.118149,-17.558279,-12.764191,15.6,4.1,420.0
38.50573897,-128.16735798,0.54561621,197.0,65.882225,-17.013144,-10.022705,15.6,4.1,420.0
38.61073923,-128.16740274,0.54571189,193.0,65.632729,-16.285988,-6.72731,15.6,4.1,420.0
38.71737123,-128.16744178,0.54580874,189.0,65.447823,-15.58655,-3.453903,15.6,4.1,419.0
38.8103714,-128.16747279,0.54589982,186.0,65.274605,-14.877895,-0.48262,15.6,4.0,419.0
38.91737008,-128.16749922,0.54599668,182.0,65.065109,-14.195678,2.605759,15.6,4.0,418.0
39.00960088,-128.16751877,0.54608316,179.0,64.784775,-13.604721,5.317368,15.6,4.1,418.0
39.11560035,-128.16753719,0.54618694,176.0,64.1707,-12.751068,8.457352,15.6,4.1,417.0
39.20560002,-128.16754758,0.54627574,173.0,63.504913,-12.000056,11.095337,15.6,4.2,417.0
39.310601,-128.16755454,0.54637492,171.0,62.501575,-11.048943,14.026505,15.6,4.3,416.0
39.41559935,-128.16755577,0.54647987,168.0,61.218098,-10.102467,16.930939,15.5,4.5,416.0
39.50560021,-128.16755355,0.54656522,165.0,59.773838,-9.304742,18.99324,15.1,4.7,415.0
39.61060047,-128.16754448,0.54667364,163.0,57.221565,-8.297122,20.976639,14.2,5.0,414.0
39.71716738,-128.16753082,0.54677975,161.0,54.021561,-7.384737,22.29895,13.0,5.2,413.0
39.81016898,-128.16751601,0.54687088,159.0,50.236118,-6.478047,23.061234,11.9,5.4,413.0
39.90316749,-128.16749776,0.54696201,157.0,46.394585,-5.627311,23.568527,10.5,5.4,413.0
40.01278043,-128.16747493,0.54706467,155.0,41.234524,-4.521465,23.896347,9.2,5.4,413.0
40.10578108,-128.16745095,0.54715696,154.0,35.774609,-3.348889,24.021439,8.1,5.2,413.0
40.21078062,-128.1674224,0.54726078,153.0,29.591249,-1.978271,24.012054,7.3,4.9,413.0
40.31578016,-128.16739384,0.54735768,151.0,23.335392,-0.607151,23.841568,6.7,4.6,414.0
40.40578151,-128.16736528,0.54744882,151.0,18.045185,0.455637,23.524139,6.3,4.4,414.0
40.51078033,-128.16733443,0.54754457,150.0,12.502706,1.468535,23.048569,5.7,4.0,414.0
40.61578226,-128.16730129,0.54764955,149.0,6.370783,2.517218,22.442719,5.3,3.7,414.0
40.70745063,-128.16727273,0.54773492,149.0,2.219568,3.208406,21.899963,5.0,3.4,415.0
40.8164506,-128.1672373,0.54784221,149.0,-2.503648,3.949988,21.211945,4.5,3.0,415.0
40.90945053,-128.16720645,0.54793566,149.0,-5.572615,4.298028,20.626755,4.2,2.7,415.0
41.01803374,-128.16717446,0.54803257,149.0,-8.21445,4.500721,20.04567,3.6,2.3,416.0
41.11203361,-128.16714361,0.54812832,149.0,-10.138288,4.720038,19.502991,3.3,1.9,416.0
41.20503378,-128.1671139,0.5482183,149.0,-11.436778,5.149292,18.994507,3.2,1.7,417.0
41.31103325,-128.16708076,0.54832328,150.0,-12.578504,6.060513,18.408768,3.6,1.4,417.0
41.40303397,-128.1670522,0.54841211,150.0,-13.263879,6.9838,17.949554,4.0,1.3,418.0
41.51103401,-128.16702021,0.54851133,151.0,-13.909596,8.29577,17.508408,4.7,1.3,418.0
41.60503387,-128.16699164,0.54860477,152.0,-14.369534,9.947905,17.157135,5.5,1.5,418.0
41.71303415,-128.16695966,0.54871206,153.0,-14.636239,11.996283,16.813675,6.5,1.8,418.0
41.80603313,-128.16693339,0.54880204,154.0,-14.736466,14.209695,16.585007,7.3,2.1,418.0
41.91369963,-128.16690369,0.54890471,155.0,-14.617174,16.57239,16.405304,8.4,2.6,417.0
42.00569963,-128.1668797,0.54899238,157.0,-14.277863,18.710745,16.32103,9.3,3.2,417.0
42.11069989,-128.16685115,0.54909851,159.0,-13.556938,21.261103,16.299271,10.0,3.7,416.0
42.21569896,-128.16682489,0.54919888,161.0,-12.43469,23.455383,16.385315,10.5,4.2,414.0
42.30569792,-128.1668032,0.5492877,164.0,-10.613449,25.113365,16.577759,10.4,4.4,413.0
42.41069841,-128.16678037,0.54938114,167.0,-8.253843,25.989967,16.878998,9.9,4.5,412.0
42.51570058,-128.16675525,0.54948265,170.0,-4.503872,26.435268,17.200699,8.9,4.3,410.0
42.60569906,-128.16673585,0.54956802,174.0,-0.583699,26.41651,17.376007,7.8,3.9,409.0
42.71069884,-128.16671302,0.54966145,178.0,4.072017,26.096493,17.404373,6.5,3.3,408.0
42.81570125,-128.16669019,0.54975951,182.0,10.192951,25.585917,17.239059,5.4,2.6,407.0
42.90569878,-128.16667078,0.54984256,185.0,15.463398,25.182701,16.95871,4.5,2.0,406.0
43.01069999,-128.16664681,0.54993716,190.0,22.558207,24.643974,16.495117,3.4,1.2,405.0
43.1156981,-128.16662397,0.55002944,194.0,29.101719,24.090759,15.911942,2.3,0.4,404.0
43.20569777,-128.16660113,0.5501125,199.0,34.33601,23.605633,15.321594,1.2,-0.2,403.0
43.31069851,-128.16657829,0.55020132,203.0,39.224037,23.120935,14.799759,0.3,-0.7,403.0
43.41569901,-128.16655317,0.55029015,207.0,43.135349,22.68088,14.332214,-0.5,-1.0,402.0
43.50569987,-128.16653147,0.5503709,211.0,46.344398,22.256832,13.943588,-1.1,-1.2,401.0
43.61069822,-128.1665052,0.55046435,215.0,50.289322,21.653088,13.467911,-1.7,-1.2,401.0
43.70326662,-128.16648235,0.55054279,219.0,53.785728,21.06686,13.016373,-2.3,-1.2,400.0
43.81226826,-128.16645494,0.550642,224.0,58.19725,20.270048,12.343338,-3.1,-1.1,399.0
43.90536714,-128.1664321,0.55072275,227.0,61.521694,19.609718,11.677094,-3.7,-1.0,399.0
44.01399708,-128.16640583,0.5508185,232.0,65.554344,18.737572,10.702225,-4.6,-0.8,398.0
44.10699916,-128.16638413,0.55089579,235.0,68.4496,18.116686,9.78656,-5.2,-0.6,398.0
44.21499777,-128.16635901,0.55099269,239.0,72.435936,17.407089,8.623566,-5.8,-0.4,397.0
44.30699801,-128.16633846,0.55107575,241.0,76.308289,16.932352,7.64888,-6.2,-0.2,397.0
44.41499996,-128.16631449,0.55117265,246.0,80.374435,16.600906,6.55397,-6.6,-0.1,396.0
44.50799847,-128.16629508,0.55125571,248.0,83.712059,16.401718,5.564606,-6.9,-0.0,396.0
44.61599755,-128.1662734,0.55135491,252.0,87.588356,16.266472,4.328049,-7.3,0.0,396.0
44.70919704,-128.16625515,0.55144719,255.0,90.976273,16.280045,3.205917,-7.6,0.0,395.0
44.81719732,-128.1662369,0.55154293,258.0,94.599808,16.445278,2.113007,-7.9,-0.1,395.0
44.90919685,-128.16622208,0.55162714,261.0,97.867355,16.710224,1.195877,-8.1,-0.2,395.0
45.00278354,-128.16620841,0.55171596,263.0,101.222588,17.080128,0.243927,-8.3,-0.3,394.0
45.1107831,-128.16619475,0.55181285,266.0,104.59211,17.539333,-0.721283,-8.5,-0.5,394.0
45.21578407,-128.16618223,0.55190974,269.0,107.765602,17.988678,-1.464951,-8.6,-0.7,394.0
45.30578399,-128.16617313,0.55199048,271.0,110.621002,18.324966,-1.805847,-8.5,-0.9,393.0
45.41078401,-128.16616405,0.55208967,275.0,114.023087,18.591211,-1.890228,-7.9,-1.1,393.0
45.51578522,-128.16615612,0.55218656,278.0,117.710022,18.681562,-1.638382,-7.3,-1.2,393.0
45.60578275,-128.16615046,0.5522696,280.0,121.011627,18.532532,-1.133194,-6.5,-1.3,392.0
45.710783,-128.16614367,0.55236764,283.0,125.046494,18.061998,-0.342163,-5.5,-1.4,392.0
45.81578422,-128.16613918,0.55246914,285.0,129.278198,17.28347,0.466705,-4.5,-1.3,392.0
45.90578365,-128.16613467,0.55254987,287.0,132.457581,16.498665,1.058533,-3.7,-1.2,392.0
46.01147628,-128.16613017,0.55264906,290.0,136.328156,15.30693,1.693695,-2.6,-0.9,392.0
46.10447621,-128.16612566,0.55273902,292.0,139.655045,14.133889,2.107544,-2.0,-0.7,392.0
46.21248674,-128.16612002,0.55283591,295.0,142.965256,12.909933,2.337296,-1.4,-0.3,392.0
46.30478764,-128.16611666,0.55292241,297.0,146.357361,11.637231,2.422287,-1.0,0.2,392.0
46.41350555,-128.16611102,0.55302275,299.0,149.857483,10.310336,2.428482,-0.5,0.7,392.0
46.50650501,-128.16610536,0.55310926,301.0,153.024094,9.071373,2.392563,-0.1,1.1,392.0
46.61550474,-128.16609972,0.55321191,302.0,157.079422,7.374474,2.330841,0.5,1.5,392.0
46.70920515,-128.16609407,0.55329726,304.0,160.465134,5.874497,2.243408,1.1,2.0,392.0
46.80220509,-128.16608842,0.55338722,305.0,163.980072,4.332018,2.091446,1.5,2.3,393.0
46.91120481,-128.1660805,0.5534991,306.0,168.633621,2.648525,1.802795,2.0,2.7,393.0
47.00375414,-128.16607484,0.55358099,307.0,172.479797,1.744758,1.538071,2.0,2.9,393.0
47.11075377,-128.16606691,0.55368365,308.0,178.568344,0.969491,1.225418,1.8,3.0,393.0
47.21575451,-128.16606012,0.55378514,308.0,-172.919769,0.592193,1.036087,1.3,2.9,394.0
47.30575442,-128.16605447,0.55387049,308.0,-166.483307,0.4579,1.024414,0.9,2.9,394.0
47.41075349,-128.16604768,0.55397199,308.0,-158.041641,0.380563,1.205765,0.3,2.8,395.0
47.51575327,-128.1660409,0.55407349,308.0,-148.490341,0.239894,1.572662,-0.2,2.6,395.0
47.60575414,-128.16603525,0.5541623,308.0,-139.630569,-0.010903,1.994034,-0.6,2.4,396.0
47.71075392,-128.16603075,0.55426034,307.0,-129.823212,-0.475449,2.489578,-0.8,2.2,397.0
47.81575465,-128.16602511,0.55436183,307.0,-119.445206,-1.213239,2.903061,-1.0,2.0,398.0
47.90733814,-128.1660206,0.55445064,306.0,-111.082626,-2.006925,3.033844,-0.9,1.7,398.0
48.0164547,-128.16601497,0.55455906,305.0,-100.713127,-3.18394,2.708191,-0.5,1.3,399.0
48.11196971,-128.16601161,0.55465018,304.0,-93.021248,-4.111552,1.938736,0.1,1.0,400.0
48.20496964,-128.16600825,0.55473898,303.0,-85.914566,-4.905941,0.787399,0.8,0.6,401.0
48.31396842,-128.16600605,0.55484625,302.0,-78.736656,-5.498413,-1.030045,2.0,0.1,402.0
48.40596867,-128.16600499,0.55493505,301.0,-74.565384,-5.60493,-2.823364,3.0,-0.1,403.0
48.51596928,-128.16600508,0.55504,300.0,-70.634941,-5.311568,-5.122345,4.3,-0.2,404.0
48.6099689,-128.16600745,0.55513457,298.0,-68.032013,-4.629483,-7.240829,5.5,-0.1,405.0
48.71556473,-128.16601212,0.55523837,297.0,-66.329544,-3.567727,-9.511703,6.7,0.3,405.0
48.80907941,-128.16601908,0.55533178,296.0,-65.274887,-2.266277,-11.459061,7.6,0.8,406.0
48.91607881,-128.16602834,0.55543788,294.0,-64.50032,-0.763523,-13.573349,8.6,1.8,407.0
49.00771427,-128.16603987,0.55552898,293.0,-63.894314,0.64647,-15.315842,9.3,2.6,407.0
49.11522818,-128.166056,0.55562815,292.0,-63.118668,2.345269,-17.199448,9.9,3.6,407.0
49.21022797,-128.16607441,0.55572617,291.0,-62.121544,4.068733,-19.001999,10.5,4.5,407.0
49.30522704,-128.16609512,0.55582072,290.0,-60.776398,5.771154,-20.719681,10.9,5.1,407.0
49.41222787,-128.16612155,0.55592104,290.0,-59.126026,7.291015,-22.542465,11.3,5.6,406.0
49.50622773,-128.16614798,0.55600867,289.0,-57.284313,8.53792,-24.074966,11.7,5.9,406.0
49.61322784,-128.16618244,0.55611128,288.0,-54.041916,10.00523,-25.74556,11.9,5.9,405.0
49.70537996,-128.16621459,0.55619775,288.0,-50.513885,10.97687,-26.916504,11.9,5.5,405.0
49.81338143,-128.16625363,0.5562946,288.0,-44.916607,11.824381,-27.832657,11.5,4.8,404.0
49.90638041,-128.16629151,0.55637991,288.0,-39.563084,12.136602,-28.261108,10.8,4.1,403.0
50.01500726,-128.16633513,0.55647444,289.0,-33.126003,12.070539,-28.43782,9.6,3.0,403.0
50.10952353,-128.16637644,0.55655745,289.0,-26.702528,11.673823,-28.451767,8.1,2.0,402.0
50.21552372,-128.1664235,0.55665198,290.0,-19.116148,10.926198,-28.398407,6.4,1.1,402.0
50.30552268,-128.16646366,0.55672921,291.0,-11.758941,10.029313,-28.360321,5.0,0.4,402.0
50.41052604,-128.16650957,0.55681798,292.0,-4.05493,9.009935,-28.391266,3.3,-0.3,402.0
50.51552272,-128.16655891,0.5569102,294.0,4.663496,7.88061,-28.539734,1.8,-0.8,402.0
50.60552287,-128.16659793,0.55698513,295.0,12.004251,7.042065,-28.72847,0.6,-1.0,402.0
50.71052313,-128.16664727,0.55707851,296.0,20.784397,6.253198,-28.983017,-0.3,-1.2,402.0
50.81552243,-128.16669433,0.55716958,297.0,29.897951,5.700972,-29.183472,-0.9,-1.2,403.0
50.9055233,-128.16673564,0.55725027,298.0,37.159607,5.440589,-29.249649,-1.2,-1.2,403.0
51.01052284,-128.16678384,0.55734134,299.0,45.446224,5.339755,-29.076675,-1.2,-1.2,403.0
51.11552215,-128.16682974,0.55743126,300.0,52.993298,5.483747,-28.431732,-0.7,-1.1,403.0
51.20552301,-128.16687105,0.5575108,301.0,58.512806,5.754444,-27.278244,0.3,-1.0,404.0
51.31052303,-128.16691581,0.55760187,302.0,63.488663,6.077141,-25.353455,1.4,-0.9,404.0
51.41552162,-128.16696287,0.55769525,303.0,66.849571,6.249714,-22.760483,3.4,-0.6,404.0
51.50552487,-128.1669996,0.5577748,304.0,68.777206,6.225662,-20.316437,4.7,-0.2,405.0
51.61052203,-128.16704322,0.55787164,305.0,70.255524,5.952202,-17.159149,6.3,0.5,405.0
51.7030859,-128.16707766,0.55795349,305.0,70.96199,5.531583,-14.433777,7.4,1.2,405.0
51.81060147,-128.16711784,0.55805495,307.0,71.586395,4.868553,-11.002655,8.9,2.4,405.0
51.91560221,-128.16715115,0.5581518,307.0,72.216217,4.225706,-7.64505,10.0,3.5,404.0
52.00560117,-128.16717758,0.55823597,308.0,73.043869,3.599285,-4.788773,10.7,4.3,404.0
52.1106019,-128.16720516,0.55833398,309.0,74.442169,2.83169,-1.551422,11.5,5.1,403.0
52.21560144,-128.16722931,0.5584366,310.0,76.364571,2.032468,1.604263,12.2,5.8,402.0
52.3056035,-128.16724542,0.55852078,311.0,78.487778,1.337584,4.063629,12.6,6.1,401.0
52.41060185,-128.16726041,0.55862572,312.0,80.953888,0.673048,6.91983,13.0,6.1,400.0
52.51560259,-128.16726966,0.55872259,313.0,83.540253,0.088761,9.518127,13.1,6.0,399.0
52.60560322,-128.16727546,0.55881139,314.0,85.843948,-0.366438,11.54306,13.2,5.6,398.0
52.71060228,-128.1672767,0.55891864,314.0,89.01368,-0.936668,14.037704,13.1,5.0,396.0
52.81560206,-128.16727335,0.55901437,315.0,91.905685,-1.45107,15.954285,12.9,4.3,395.0
52.90560246,-128.16726655,0.55910549,316.0,94.540375,-1.979174,17.842682,12.7,3.7,395.0
53.01060319,-128.16725519,0.55920584,316.0,96.930443,-2.612733,19.926712,12.4,3.0,394.0
53.11560225,-128.16724038,0.55930042,316.0,98.576019,-3.279067,21.820984,12.0,2.5,394.0
53.20560265,-128.16722212,0.5593904,316.0,99.540627,-3.93555,23.238358,11.2,2.1,393.0
53.310601,-128.16719815,0.5594873,316.0,99.844238,-4.623093,24.266495,10.1,2.0,393.0
53.41560149,-128.16717074,0.55958651,316.0,99.133736,-5.200123,24.831268,8.6,2.0,393.0
53.50560308,-128.16714561,0.55966842,316.0,97.610252,-5.602657,25.004761,7.3,2.1,393.0
53.61060119,-128.16711247,0.55976417,315.0,94.27034,-6.016335,24.889404,5.6,2.3,394.0
53.7031796,-128.16708275,0.55984378,314.0,90.269363,-6.295767,24.582016,3.9,2.4,394.0
53.81069565,-128.16704618,0.55994184,313.0,83.746376,-6.620558,24.105515,2.2,2.5,395.0
53.91569567,-128.16700845,0.56003529,313.0,76.289551,-6.933206,23.707092,0.9,2.3,396.0
54.0057714,-128.16697415,0.56011606,312.0,68.82402,-7.217126,23.519974,0.1,2.2,397.0
54.11528397,-128.166933,0.56021643,310.0,58.181301,-7.540982,23.584061,-0.6,1.8,398.0
54.20928335,-128.1668987,0.56029604,309.0,50.232727,-7.656332,23.933502,-0.6,1.6,399.0
54.30228424,-128.16686211,0.56038027,308.0,41.148506,-7.599478,24.547882,-0.4,1.5,399.0
54.41028547,-128.16682095,0.56047488,307.0,31.894497,-7.314267,25.456055,0.1,1.7,400.0
54.50428462,-128.16678551,0.56055795,306.0,23.965616,-6.8392,26.352661,0.7,2.0,401.0
54.61328411,-128.16673977,0.56065948,304.0,14.757061,-5.891668,27.500793,1.4,2.6,402.0
54.70691228,-128.16670318,0.56073909,303.0,8.236699,-4.920646,28.362717,2.1,3.4,403.0
54.81491303,-128.16665973,0.56083601,302.0,1.062093,-3.543498,29.235855,2.7,4.3,404.0
54.90891242,-128.16662085,0.56092139,301.0,-4.43401,-2.253653,29.812683,3.1,5.1,405.0
55.01752996,-128.16657512,0.56102061,299.0,-10.438364,-0.602566,30.175079,3.7,6.1,406.0
55.11052918,-128.16653853,0.56110253,299.0,-14.790649,0.728587,30.204041,3.9,6.7,406.0
55.2155304,-128.16649279,0.56120176,298.0,-19.685909,2.210794,29.921921,4.1,7.2,406.0
55.30553102,-128.16645963,0.56127675,297.0,-22.72654,2.970372,29.545731,4.1,7.5,407.0
55.410532,-128.16641733,0.56137367,296.0,-26.081181,3.509893,28.845215,3.8,7.5,407.0
55.51553011,-128.16637502,0.56147059,296.0,-29.389641,3.664729,27.957214,3.3,7.1,407.0
55.60552979,-128.16634072,0.56155135,295.0,-31.952023,3.55055,27.070694,2.9,6.6,408.0
55.71130013,-128.16629957,0.56165057,295.0,-35.120853,3.217808,25.822968,2.5,5.8,408.0
55.80430031,-128.16626527,0.5617348,295.0,-37.919254,2.848713,24.613007,2.3,5.0,408.0
55.91234469,-128.16622412,0.56183517,294.0,-40.866364,2.470204,23.023514,2.3,3.8,409.0
56.00647855,-128.16618982,0.56192285,294.0,-43.286934,2.207916,21.59375,2.4,3.0,410.0
56.11547852,-128.16615096,0.56202553,294.0,-46.399529,1.994366,19.862152,2.8,2.1,410.0
56.20847869,-128.16611782,0.56211668,293.0,-49.129997,1.936414,18.313141,3.2,1.4,411.0
56.31647944,-128.16608353,0.56221359,293.0,-51.957832,1.959427,16.86644,3.6,1.0,411.0
56.40947914,-128.16605154,0.56230703,293.0,-54.990196,2.042683,15.615768,3.9,0.8,412.0
56.50347853,-128.16602526,0.5623924,293.0,-57.76173,2.160408,14.619751,4.0,0.9,412.0
56.61047888,-128.16599328,0.56249623,293.0,-61.404247,2.353635,13.566772,4.0,1.2,413.0
56.71556711,-128.16596358,0.5625989,292.0,-65.124001,2.567084,12.727875,3.9,1.6,413.0
56.80556703,-128.16594189,0.56268427,292.0,-68.058395,2.737864,12.142975,3.7,2.1,414.0
56.91056728,-128.16591449,0.56279386,292.0,-71.056702,2.909646,11.458939,3.2,2.7,414.0
57.01534343,-128.16589166,0.56289076,292.0,-73.465408,3.042603,10.806168,3.0,3.2,415.0
57.1083436,-128.16587112,0.56298419,292.0,-75.416756,3.125357,10.095184,2.8,3.6,415.0
57.21534348,-128.16585059,0.56308801,292.0,-77.63089,3.152263,9.19632,2.7,3.9,416.0
57.30834389,-128.16583349,0.56318144,291.0,-79.736549,3.087208,8.28891,2.7,4.2,416.0
57.40234375,-128.16581639,0.56327719,291.0,-81.408127,2.957223,7.20668,2.8,4.3,417.0
57.51134348,-128.1657993,0.56339023,290.0,-83.304771,2.688662,5.65007,3.2,4.5,417.0
57.60534358,-128.16578678,0.5634802,290.0,-84.389832,2.420885,4.189377,3.6,4.5,418.0
57.71492147,-128.16577428,0.56359208,290.0,-85.307068,2.023018,2.220825,4.2,4.4,418.0
57.80792093,-128.16576405,0.56368666,289.0,-85.928001,1.603091,0.404236,4.9,4.3,419.0
57.91704583,-128.16575614,0.56380431,288.0,-86.689163,1.094375,-2.046402,5.7,4.2,419.0
58.00912118,-128.16575049,0.56389773,288.0,-87.420769,0.674748,-3.953522,6.2,4.2,419.0
58.11712146,-128.16574829,0.5640073,287.0,-88.140343,0.161284,-6.285461,6.8,4.1,420.0
58.21012068,-128.16574838,0.56410187,286.0,-88.413368,-0.26099,-8.340225,7.3,4.0,420.0
58.30263543,-128.1657519,0.56419413,285.0,-88.331451,-0.670004,-10.387665,7.8,4.0,420.0
58.41063499,-128.16575887,0.56431061,284.0,-87.806717,-1.114334,-13.118622,8.4,3.9,421.0
58.5174067,-128.16576927,0.5644121,283.0,-87.102524,-1.414136,-15.522156,9.0,3.8,421.0
58.60940695,-128.16578082,0.56450781,282.0,-86.278404,-1.625137,-17.920029,9.5,3.8,421.0
58.702986,-128.16579809,0.56460583,280.0,-85.259155,-1.762136,-20.450348,10.1,3.7,421.0
58.81198764,-128.1658188,0.56470961,279.0,-84.067322,-1.801072,-23.156052,10.6,3.7,421.0
58.90498686,-128.16584294,0.564803,278.0,-83.012085,-1.759096,-25.517654,10.8,3.7,421.0
59.01262856,-128.16587053,0.56490217,276.0,-81.789246,-1.653348,-27.888687,11.0,3.7,421.0
59.10362768,-128.16590154,0.56499556,275.0,-80.562294,-1.516612,-29.906448,10.9,3.8,420.0
59.2105391,-128.16594058,0.56509817,273.0,-78.954704,-1.31799,-32.043304,10.8,3.8,420.0
59.3175056,-128.16598306,0.56519616,272.0,-77.059082,-1.057601,-34.072723,10.7,3.8,420.0
59.40950465,-128.16602553,0.56528608,270.0,-75.064232,-0.744509,-35.984329,10.6,3.7,420.0
59.50150537,-128.16606684,0.56536447,269.0,-73.24749,-0.423709,-37.636322,10.5,3.6,420.0
59.60950446,-128.16612077,0.5654613,268.0,-70.87545,0.023555,-39.596069,10.4,3.5,420.0
59.70307803,-128.16617011,0.56554199,267.0,-68.480759,0.46883,-41.160095,10.3,3.3,420.0
59.81107593,-128.16623206,0.56563305,265.0,-64.784538,1.110745,-42.842499,10.1,3.1,420.0
59.90407658,-128.16628712,0.56571142,264.0,-61.019447,1.727618,-44.162674,10.0,2.8,420.0
60.01289272,-128.16635364,0.56579671,263.0,-55.940174,2.538922,-45.460327,9.8,2.4,420.0
60.10640931,-128.16641328,0.56587047,262.0,-50.905014,3.324397,-46.361832,9.5,1.9,420.0
60.2154088,-128.16649012,0.5659592,261.0,-44.557594,4.262422,-47.155563,9.1,1.5,420.0
60.30840921,-128.1665509,0.56602604,261.0,-39.00124,5.009804,-47.53038,8.5,1.1,419.0
60.4024086,-128.16662085,0.56609979,261.0,-33.033657,5.703039,-47.70755,8.0,0.9,419.0
60.51040936,-128.16669653,0.56617699,260.0,-25.537216,6.39671,-47.626648,7.3,0.5,419.0
60.60240841,-128.16676189,0.56624268,260.0,-18.74538,6.8719,-47.366684,6.6,0.3,419.0
60.71150184,-128.16683986,0.56631872,261.0,-10.332549,7.271367,-46.880859,5.9,0.1,419.0
60.80450177,-128.16690981,0.56638555,261.0,-2.204278,7.422282,-46.343689,5.2,0.0,419.0
60.91450167,-128.16699122,0.56646506,262.0,6.431599,7.315269,-45.647232,4.2,0.0,419.0
61.00711513,-128.16705887,0.56653074,262.0,13.419083,7.088754,-45.087784,3.6,0.0,419.0
61.11562896,-128.16713684,0.56660679,263.0,22.090443,6.736633,-44.454651,3.0,0.1,419.0
61.20563054,-128.16720105,0.56667016,264.0,29.44659,6.426454,-43.95842,2.5,0.2,420.0
61.31062937,-128.16728132,0.56675082,265.0,38.352535,6.076001,-43.324829,2.1,0.3,420.0
61.41562939,-128.167357,0.56682687,266.0,46.224075,5.811099,-42.662857,2.0,0.4,420.0
61.50563025,-128.16741892,0.5668914,267.0,52.341537,5.627831,-42.010117,2.0,0.4,420.0
61.61062837,-128.16749346,0.56696976,268.0,58.81546,5.488423,-40.915329,2.2,0.5,420.0
61.70318389,-128.16755539,0.5670366,269.0,62.676773,5.44102,-39.732025,2.8,0.6,421.0
61.81118464,-128.16762534,0.56711496,270.0,65.671127,5.338737,-38.03511,3.4,0.8,421.0
61.90418482,-128.16768956,0.56718871,271.0,67.118217,5.154878,-36.377579,4.0,1.1,421.0
62.0140183,-128.16776411,0.56727745,272.0,68.001694,4.793803,-34.433167,4.6,1.5,421.0
62.10702062,-128.16782031,0.5673466,272.0,68.313683,4.457239,-32.908905,5.0,2.1,421.0
62.21501994,-128.16788913,0.56743765,273.0,68.554329,3.995021,-31.010773,5.3,2.6,421.0
62.3090198,-128.16794648,0.56751487,274.0,68.774559,3.594505,-29.398285,5.6,3.1,421.0
62.40302277,-128.16799925,0.56758979,275.0,69.035995,3.321063,-27.782272,5.8,3.5,421.0
62.51202035,-128.16806234,0.5676843,276.0,69.524521,3.059915,-25.695892,6.2,3.9,421.0
62.60602021,-128.16811282,0.56776499,277.0,70.062576,2.88843,-24.00238,6.6,4.1,421.0
62.71558166,-128.16817019,0.56786066,278.0,70.794533,2.765653,-22.038574,6.8,4.3,421.0
62.80558205,-128.16821609,0.56794251,279.0,71.558624,2.765346,-20.296265,7.1,4.3,420.0
62.9105823,-128.16826773,0.56804165,280.0,72.562012,2.89032,-18.026489,7.8,4.2,420.0
63.01715231,-128.16831135,0.56813387,281.0,73.44001,3.05385,-15.821747,8.2,4.1,420.0
63.11115265,-128.16835038,0.56822034,282.0,74.295815,3.227767,-13.714951,8.7,3.9,419.0
63.20315218,-128.16838597,0.5683068,282.0,75.151787,3.405405,-11.604507,9.1,3.7,419.0
63.31215239,-128.16842387,0.56840826,283.0,76.164742,3.616362,-8.957367,9.7,3.5,418.0
63.40515256,-128.16845603,0.56850165,284.0,76.940392,3.754607,-6.384567,10.4,3.3,418.0
63.51415229,-128.16848591,0.56860657,285.0,77.76619,3.843206,-3.372726,11.0,3.2,417.0
63.6061523,-128.1685089,0.56869882,286.0,78.541992,3.832989,-0.725662,11.5,3.2,416.0
63.71470904,-128.16853077,0.56880721,287.0,79.396652,3.68539,2.366867,12.1,3.2,415.0
63.80570841,-128.16854575,0.56890177,288.0,80.214378,3.430959,4.944092,12.3,3.3,414.0
63.91070771,-128.16855844,0.56900671,289.0,81.107574,3.058463,7.685791,12.5,3.4,413.0
64.00439882,-128.1685654,0.56909666,290.0,81.892876,2.668843,9.840134,12.4,3.5,412.0
64.11339998,-128.16856893,0.56920968,291.0,82.948708,2.097652,12.373108,12.2,3.6,411.0
64.20740175,-128.16856673,0.56930195,291.0,83.854156,1.597828,14.356308,12.0,3.7,411.0
64.31740093,-128.1685611,0.56941383,292.0,84.962624,0.956251,16.78183,11.7,3.8,410.0
64.41040063,-128.16855201,0.56950495,293.0,85.781197,0.454845,18.869614,11.7,3.8,409.0
64.50340104,-128.16853949,0.56959722,294.0,86.596771,-0.072099,21.155884,11.8,3.8,408.0
64.61140037,-128.16852011,0.56970219,294.0,87.512085,-0.718393,24.072388,12.1,3.8,407.0
64.70409346,-128.16849957,0.56979448,295.0,88.334625,-1.341959,26.822006,12.5,3.9,407.0
64.81309366,-128.16847217,0.56989484,295.0,89.276535,-2.119908,29.940872,13.0,3.9,406.0
64.90409446,-128.1684436,0.56998482,295.0,89.948479,-2.783585,32.683533,13.4,3.9,405.0
65.01385665,-128.16840474,0.57008751,295.0,90.37973,-3.655585,35.568176,13.4,4.0,404.0
65.10585666,-128.16837045,0.57016942,296.0,90.073959,-4.258496,37.553101,13.1,4.2,403.0
65.21085572,-128.16832585,0.57026288,295.0,88.857544,-4.793962,39.342117,12.2,4.4,402.0
65.31585693,-128.16827781,0.57035173,295.0,86.442596,-5.131596,40.582047,10.9,4.6,402.0
65.40585613,-128.1682332,0.57042904,295.0,83.64994,-5.228426,41.284348,9.6,4.8,401.0
65.51085567,-128.16817714,0.5705179,295.0,78.986229,-5.171735,41.66745,7.9,4.9,401.0
65.61585641,-128.16811879,0.57060445,294.0,73.322571,-4.968714,41.648804,6.0,4.8,401.0
65.70554924,-128.16806845,0.570676,294.0,68.251266,-4.740896,41.417603,4.2,4.4,402.0
65.81055284,-128.1680078,0.57075909,293.0,61.094723,-4.405616,41.004501,2.7,3.8,402.0
65.91555071,-128.16794716,0.57083873,293.0,54.037033,-4.099437,40.54541,1.5,3.0,403.0
66.00786924,-128.16789108,0.57091144,293.0,47.047653,-3.835745,40.146362,0.9,2.4,403.0
66.11638403,-128.16782471,0.57099684,292.0,37.376507,-3.560005,39.759827,0.3,1.6,404.0
66.2103827,-128.16777093,0.57106494,291.0,29.185913,-3.417796,39.531509,0.1,1.0,405.0
66.30374861,-128.16771142,0.57113881,291.0,19.786535,-3.352015,39.390991,0.0,0.6,406.0
66.41076159,-128.16764505,0.57122306,290.0,8.764588,-3.399232,39.388977,-0.0,0.4,406.0
66.51565027,-128.16758439,0.57129808,289.0,-0.301501,-3.497554,39.53186,-0.1,0.5,407.0
66.60564971,-128.16752603,0.57137079,289.0,-9.143723,-3.612384,39.779144,-0.2,0.7,408.0
66.71064687,-128.16746309,0.57145043,288.0,-18.091291,-3.718625,40.153137,-0.4,1.0,409.0
66.81564736,-128.16739557,0.57153353,287.0,-27.983181,-3.760798,40.619019,-0.7,1.6,410.0
66.90827346,-128.16734064,0.57160393,287.0,-34.555061,-3.674549,40.955154,-0.9,2.0,410.0
67.01788878,-128.16726969,0.5716928,286.0,-42.225479,-3.151495,40.969879,-0.8,2.5,411.0
67.11088943,-128.16721476,0.57176205,285.0,-46.570259,-2.46297,40.555984,-0.2,3.0,412.0
67.20288825,-128.1671564,0.57183591,284.0,-50.739128,-1.53324,39.837173,0.5,3.5,413.0
67.31188869,-128.16709003,0.57192247,283.0,-55.160957,-0.335008,38.703827,1.4,4.1,414.0
67.40588832,-128.16702938,0.57200211,282.0,-57.927017,0.667577,37.27356,2.5,4.7,415.0
67.51288795,-128.16696645,0.57208751,281.0,-60.185486,1.967987,35.211334,3.9,5.2,415.0
67.60588932,-128.16691153,0.57216483,280.0,-61.40984,3.235933,32.939331,5.6,5.7,416.0
67.71321106,-128.16684974,0.57225485,279.0,-62.055328,4.643916,30.128189,7.2,6.0,416.0
67.80720973,-128.16679826,0.57233332,279.0,-62.183441,5.775669,27.651474,8.4,6.2,416.0
67.91520882,-128.16674106,0.57242794,278.0,-61.955929,6.99776,24.69899,9.8,6.2,416.0
68.00840402,-128.16669531,0.57250872,277.0,-61.563446,7.885184,22.253754,10.6,6.1,416.0
68.10340381,-128.1666507,0.5725941,277.0,-61.036858,8.737464,19.715637,11.3,5.9,415.0
68.21140456,-128.16660267,0.57269333,276.0,-60.448528,9.563007,16.929398,11.9,5.5,414.0
68.3044045,-128.16656495,0.57278102,276.0,-60.058037,10.171768,14.584167,12.2,5.1,414.0
