Time,Longitude,Latitude,Altitude,Roll,Pitch,Yaw,AOA,AOS,TAS
5.01680684,-128.17591942,0.57561193,55.0,32.05732204509713,12.353183096715473,71.7686,8.2,0.6,246.0
5.10680604,-128.17586903,0.57563504,56.0,36.754853869752274,12.108674246267007,73.144608,8.5,0.7,246.0
5.21180582,-128.17581292,0.57565931,57.0,39.791314450328336,12.030765000660436,74.77446,8.9,1.0,247.0
5.30180693,-128.17576253,0.57568127,57.0,41.413736562096595,11.281983071286422,76.343933,9.3,1.2,247.0
5.40680742,-128.17570527,0.57570439,58.0,40.762999541336775,9.304430021309217,78.218658,9.7,1.5,248.0
5.51180601,-128.17564686,0.57572635,59.0,39.67399579845627,6.72621414606267,80.139191,10.2,1.9,249.0
5.61740303,-128.1755896,0.57574717,59.0,39.27642530244947,4.202721503931387,82.08075,10.7,2.4,249.0
5.7119205,-128.17553233,0.57576567,60.0,38.69159195424319,4.1947992096638504,83.938751,11.0,3.0,250.0
5.8019197,-128.17547965,0.57578187,61.0,37.923384945785536,5.559276165528057,85.536163,11.2,3.4,250.0
5.90692186,-128.17542009,0.57579807,61.0,36.39024106972165,7.685420328897866,87.104736,11.1,4.0,251.0
6.01400971,-128.1753548,0.57581427,62.0,34.165857612337994,11.228465440195784,88.577057,10.8,4.6,252.0
6.1080091,-128.17530097,0.57582701,63.0,34.71302494487685,13.61526185252703,89.669403,10.4,5.1,252.0
6.21701264,-128.17523683,0.57583975,63.0,37.809940430021484,13.58070892167365,90.906372,10.0,5.6,253.0
6.30967116,-128.17517955,0.57585019,64.0,41.68914883263995,12.368060775623372,91.968079,9.7,6.0,253.0
6.41667557,-128.17511541,0.57586062,65.0,45.62690150474511,10.412769144374618,93.130157,9.4,6.3,254.0
6.50667143,-128.17506042,0.57586759,65.0,48.83644762434786,7.785019402397899,94.068878,9.2,6.4,254.0
6.61181831,-128.17499627,0.57587573,66.0,50.72961230584048,5.214028582593266,95.148651,8.9,6.5,255.0
6.71681762,-128.17492983,0.57588155,66.0,51.06851133291492,2.9324347124566272,96.196594,8.7,6.6,256.0
6.80681849,-128.1748737,0.57588622,67.0,50.299137913351366,1.0851458394305122,97.046783,8.6,6.5,256.0
6.91181827,-128.17481069,0.57588974,67.0,48.71564398602337,-0.21969003952523625,97.970612,8.5,6.4,257.0
7.01696253,-128.1747431,0.57589211,68.0,46.56565890779383,-0.9030835522720221,98.97226,8.4,6.2,258.0
7.10696244,-128.17468926,0.57589331,68.0,44.24998450977913,-0.9645158526568389,99.78125,8.5,6.0,258.0
7.2119627,-128.17462166,0.57589337,69.0,41.99294729762857,-0.6653240870979256,100.813538,8.6,5.8,259.0
7.31696224,-128.17455636,0.57589228,69.0,40.13976141795815,0.08509485209642098,101.808197,8.8,5.6,260.0
7.40696192,-128.17449793,0.57589118,70.0,38.41403770924404,1.1830531789783554,102.679047,9.0,5.5,260.0
7.51596212,-128.17443148,0.57588778,70.0,36.8897237498796,2.706676276264018,103.654297,9.3,5.4,261.0
7.60757852,-128.17437191,0.57588437,71.0,35.55459545214795,4.558322776904085,104.494965,9.4,5.3,261.0
7.7165792,-128.17430316,0.57587867,71.0,34.57178548816791,6.567818988970752,105.424316,9.7,5.3,262.0
7.8065784,-128.17424702,0.57587295,72.0,33.896293185798015,8.609031170591946,106.160706,9.9,5.3,263.0
7.91557956,-128.17417942,0.57586494,73.0,33.58645155111582,10.601395743049837,106.973236,10.0,5.4,263.0
8.00632906,-128.17412099,0.57585808,73.0,33.48441534414803,12.719001831954689,107.648407,10.1,5.5,263.0
8.11633015,-128.17405109,0.57584776,74.0,33.428422138745205,14.778158843223169,108.367981,10.3,5.6,264.0
8.21032929,-128.1739938,0.57583859,75.0,33.39367053267262,16.404790053776733,108.901184,10.3,5.8,264.0
8.30392528,-128.17393537,0.57582941,76.0,33.249262441589956,17.41819182756866,109.376221,10.4,6.0,264.0
8.41193676,-128.17386662,0.57581679,77.0,33.55749636205756,17.653465990438796,109.858582,10.4,6.2,265.0
8.51692486,-128.1738013,0.57580416,78.0,33.73074476466252,17.240669625455897,110.210449,10.4,6.4,265.0
8.60660458,-128.17374516,0.57579384,79.0,33.58221225980955,16.31137079227481,110.444641,10.4,6.5,265.0
8.71160555,-128.17368214,0.57578121,80.0,32.89609248027447,15.071110201770729,110.610077,10.3,6.6,265.0
8.81660414,-128.17361568,0.57576627,82.0,31.26190879046205,13.863365658307098,110.675385,10.3,6.7,265.0
8.90660405,-128.17355838,0.57575479,83.0,28.539398918404924,12.941920666161064,110.641815,10.2,6.8,265.0
9.01191807,-128.17349651,0.57574101,84.0,24.603256014782744,12.417279650159891,110.505646,10.1,6.8,265.0
9.10191774,-128.1734415,0.57572837,86.0,19.766088658206698,12.259067366380098,110.288483,9.9,6.7,265.0
9.206918,-128.17337619,0.57571344,88.0,14.134984133945473,12.361310328749616,109.900269,9.6,6.5,265.0
9.3119185,-128.17331546,0.57569966,89.0,8.128231461202594,12.777916481978897,109.419067,9.4,6.4,265.0
9.4169209,-128.17325014,0.57568472,92.0,2.2870782073170655,13.595797067216676,108.777771,9.0,6.1,265.0
9.50691795,-128.17319514,0.57567209,93.0,-2.3587611142093743,15.00317217043898,108.172241,8.8,5.9,265.0
9.61199594,-128.17312982,0.57565716,95.0,-4.361624507130772,15.186932484835252,107.352722,8.6,5.7,264.0
9.70499635,-128.17307482,0.57564452,97.0,-4.630036844148353,15.261027946594535,106.590454,8.4,5.4,264.0
9.81299663,-128.17300951,0.57562959,100.0,-4.622868442247412,15.80822800435135,105.603363,8.2,5.1,264.0
9.90599656,-128.17295221,0.57561811,102.0,-5.268365845477934,17.083324572177336,104.694489,8.2,4.9,264.0
10.01499701,-128.17288804,0.57560432,104.0,-6.363337608922915,18.990051647887693,103.608978,8.1,4.7,264.0
10.10699677,-128.17283304,0.57559284,106.0,-7.010711653784776,21.16900063411141,102.63327,8.0,4.5,264.0
10.21699715,-128.17276888,0.57558021,109.0,-6.888439142810436,23.22357404933336,101.476471,8.0,4.4,263.0
10.30899811,-128.17271388,0.57556988,111.0,-6.451281608600326,24.865481930011242,100.451019,8.0,4.3,263.0
10.41799641,-128.172652,0.57555841,114.0,-6.0180675596371564,26.07556507390348,99.304321,7.9,4.3,263.0
10.50899649,-128.17259356,0.57554924,116.0,-6.3607706204978545,27.053853182789,98.292633,7.8,4.3,263.0
10.61656642,-128.17253169,0.57553891,119.0,-7.518164637044149,27.67076765550521,97.238251,7.7,4.3,262.0
10.70956564,-128.17247555,0.57553089,121.0,-9.058857434497945,28.177106939759565,96.297638,7.6,4.3,262.0
10.80256772,-128.1724194,0.57552402,123.0,-10.927688649361768,28.82837827117014,95.36261,7.4,4.3,262.0
10.91056681,-128.17235868,0.57551716,126.0,-12.690240364386327,29.50503977188036,94.29895,7.3,4.3,262.0
11.01681423,-128.17229681,0.57551029,129.0,-14.114012493413286,30.027238492154133,93.153687,7.3,4.3,261.0
11.10681367,-128.17224296,0.57550573,132.0,-15.110810194339193,30.409071722736865,92.136047,7.3,4.4,261.0
11.21181417,-128.17218109,0.57550117,134.0,-15.55539757243397,30.596875123338826,90.888306,7.3,4.4,261.0
11.31681323,-128.17211693,0.57549662,137.0,-15.677743240816053,30.57623006079028,89.561005,7.4,4.5,260.0
11.40681314,-128.17206537,0.57549551,139.0,-15.653864123413003,30.410264153568555,88.453918,7.5,4.6,260.0
11.51181436,-128.17200351,0.57549326,142.0,-15.63608824429605,30.172236513792253,87.094482,7.6,4.7,260.0
11.61742759,-128.17194049,0.57549332,145.0,-15.454753938090448,29.936667940263767,85.679962,7.8,4.8,260.0
11.70942831,-128.17189009,0.57549337,148.0,-15.105443862954399,29.7104714874098,84.503937,7.9,4.9,259.0
11.8014276,-128.17183281,0.57549457,150.0,-14.768292706125642,29.58223968861535,83.173035,8.0,5.0,259.0
11.91042709,-128.17177209,0.57549809,153.0,-14.603076624943395,29.60757939247003,81.675903,8.2,5.1,259.0
12.01664042,-128.17170794,0.57550161,156.0,-14.425843781659438,29.67680720761795,80.069092,8.4,5.3,258.0
12.10664201,-128.17165753,0.57550627,158.0,-14.495121722294535,29.887507144633943,78.763702,8.5,5.4,258.0
12.21163845,-128.17159567,0.57551209,161.0,-14.531782624743222,30.075559700846778,77.117035,8.7,5.5,257.0
12.31674314,-128.17153725,0.57552022,164.0,-14.445848293310343,30.154732769197267,75.510254,8.9,5.6,257.0
12.40674448,-128.17148341,0.57552834,166.0,-14.26839148660254,30.12434181780351,74.046631,9.1,5.7,257.0
12.51174545,-128.17142499,0.57553877,168.0,-14.125801506915526,30.04711925008233,72.449844,9.3,5.8,256.0
12.61735773,-128.17136314,0.57555036,171.0,-13.978447886774893,29.863660722344573,70.745895,9.4,5.9,256.0
12.71035886,-128.17131274,0.57556194,174.0,-13.988904217012818,29.649524280428114,69.339432,9.5,6.0,256.0
12.80335975,-128.17125776,0.57557468,176.0,-14.205636244959988,29.492938759409338,67.852066,9.6,6.1,255.0
12.91235924,-128.17119591,0.57559203,179.0,-14.415334238645269,29.327702556299393,66.183716,9.7,6.1,255.0
13.00600743,-128.17114437,0.57560707,181.0,-14.753643162240467,29.163883641067738,64.825272,9.7,6.1,255.0
13.11300826,-128.17108367,0.57562674,183.0,-15.197346844823363,29.047239543043627,63.286301,9.7,6.1,254.0
13.20500803,-128.17103442,0.57564408,186.0,-15.472483708645449,28.89539248069934,62.075546,9.6,6.1,254.0
13.31400871,-128.17097487,0.57566605,188.0,-15.641675625223163,28.695951760567198,60.622253,9.5,6.0,254.0
13.40600753,-128.17092562,0.5756857,190.0,-15.703572034202516,28.359082980634057,59.430923,9.4,5.9,253.0
13.51600862,-128.17086722,0.57571113,193.0,-15.692739835701943,27.942560308680644,58.062729,9.2,5.8,253.0
13.60960627,-128.17081798,0.57573424,195.0,-15.664977151422415,27.429584212414294,56.967056,9.1,5.7,253.0
13.71724343,-128.17075957,0.57576197,197.0,-15.572319641224276,26.98072911720817,55.700745,8.9,5.6,253.0
13.80924249,-128.17071377,0.57578623,199.0,-15.492658799892014,26.67995231233732,54.732056,8.6,5.4,253.0
13.90324283,-128.17066568,0.57581165,201.0,-15.594255760579232,26.581257005030544,53.769608,8.4,5.3,252.0
14.01342034,-128.17060957,0.57584399,203.0,-15.888968836355001,26.658465147815985,52.695633,8.1,5.1,252.0
14.10741901,-128.17056148,0.57587287,205.0,-16.283501210772076,26.79780576038069,51.822891,7.8,4.9,252.0
14.21541977,-128.17050652,0.57590752,208.0,-16.478881164472295,26.833751555599346,50.876343,7.5,4.6,252.0
14.30897403,-128.17046186,0.57593639,210.0,-16.48359834363241,26.642241736826698,50.122604,7.2,4.4,252.0
14.41753936,-128.17041034,0.57597219,211.0,-16.14857102275446,26.20605705158823,49.282272,6.9,4.2,253.0
14.50953674,-128.17036454,0.57600453,213.0,-15.479032960147292,25.5674190565131,48.596359,6.6,4.0,253.0
14.60164261,-128.17031875,0.57603802,215.0,-14.616944482647572,24.849749884889444,47.934418,6.3,3.7,253.0
14.71016908,-128.17026952,0.57607612,217.0,-13.453459549167901,24.013827532199183,47.216049,6.0,3.5,253.0
14.80316949,-128.17022602,0.57611076,218.0,-11.93216030062998,22.978056433777784,46.58638,5.7,3.3,253.0
14.91316962,-128.17017221,0.57615348,220.0,-10.102160461998029,21.853732418128114,45.812897,5.4,3.0,254.0
15.00716996,-128.17012985,0.57618927,221.0,-7.8306539431273805,20.646204471276462,45.167999,5.2,2.9,254.0
15.11516953,-128.17007948,0.57623314,223.0,-4.981755652805904,19.254004575318785,44.370972,5.1,2.7,255.0
15.20907283,-128.17003713,0.5762724,224.0,-1.7618490891451961,17.81490092531339,43.680756,5.0,2.5,255.0
15.30207157,-128.16999478,0.57631049,225.0,0.8643198028369671,16.803055082594707,42.995575,4.9,2.3,255.0
15.41107392,-128.16994784,0.57635552,227.0,2.2807298805466494,16.195766621098812,42.2267,4.8,2.2,256.0
15.50507188,-128.16990549,0.57639592,228.0,2.701599327515632,15.859943863974653,41.571335,4.7,2.1,257.0
15.61279011,-128.16985856,0.57644325,229.0,2.2062694311769206,15.75381805372063,40.827026,4.6,2.0,257.0
15.70678878,-128.16981736,0.57648596,230.0,1.1883002660659756,15.807586446231696,40.174377,4.6,2.0,258.0
15.81178951,-128.16977387,0.57653213,232.0,-0.1302261260694546,15.949091589323704,39.475937,4.5,1.9,259.0
15.90179038,-128.1697361,0.57657253,232.0,-1.5874282878289714,16.067241171337898,38.890289,4.5,1.9,259.0
16.01038051,-128.16968917,0.57662447,233.0,-2.8100700590114482,16.046147457501743,38.160477,4.4,2.0,260.0
16.10538197,-128.1696514,0.57666834,234.0,-2.8795502243570756,15.562316726837164,37.554474,4.4,2.0,261.0
16.21338058,-128.16960677,0.57672143,235.0,0.21774894226065022,14.424834519059832,36.828308,4.3,2.1,261.0
16.30544424,-128.16956901,0.57676644,236.0,2.130951521683381,13.923022781470857,36.192093,4.4,2.2,262.0
16.41347528,-128.16952666,0.57681953,237.0,3.896687498595989,13.275947035322963,35.438477,4.4,2.2,263.0
16.50547647,-128.1694889,0.57686801,237.0,5.202606652798102,12.63873281678267,34.821808,4.4,2.3,264.0
16.61505055,-128.16944656,0.57692341,238.0,6.231898746230637,11.990924130444068,34.154922,4.4,2.4,265.0
16.70956469,-128.16941109,0.57697188,238.0,7.044431035025615,11.343268923898954,33.638687,4.3,2.5,265.0
16.81656361,-128.1693699,0.57702727,239.0,7.879732333368604,10.721040778760766,33.086914,4.2,2.6,266.0
16.91056323,-128.16933557,0.5770769,239.0,8.637912162208025,10.147416180451616,32.626175,4.1,2.7,267.0
17.00470233,-128.16929896,0.57712883,240.0,9.43694081648913,9.602802934216978,32.138,4.0,2.7,268.0
17.11170363,-128.1692612,0.57718538,240.0,10.27288130184342,9.080251710283761,31.597778,3.9,2.7,269.0
17.21670318,-128.16922345,0.57724308,241.0,11.065956230614487,8.58983790697138,31.009079,3.8,2.7,270.0
17.30670261,-128.16919142,0.57729385,241.0,11.732908701087613,8.1362339996418,30.441391,3.9,2.7,271.0
17.41170764,-128.16915367,0.57735386,241.0,12.342693431105085,7.712777270249807,29.674698,4.0,2.6,272.0
17.50170279,-128.16912278,0.57740463,241.0,12.76949522838293,7.3365996731857175,28.970917,4.1,2.6,273.0
17.60733891,-128.16908846,0.57746233,241.0,12.688812868925968,7.2135416485239325,28.098953,4.4,2.5,274.0
17.71485543,-128.16905186,0.57752695,242.0,12.415905578581501,7.327756954848753,27.069077,4.7,2.5,275.0
17.80685496,-128.16902212,0.57758003,242.0,11.772868403734968,7.698064466830504,26.173584,5.0,2.5,276.0
17.9118557,-128.16898781,0.57764349,242.0,10.831339428490443,8.265396793765543,25.029755,5.5,2.6,277.0
18.01685619,-128.16895464,0.5777058,242.0,9.521426156709184,8.997154391704097,23.874023,5.9,2.6,278.0
18.10685611,-128.16892719,0.57775888,242.0,7.83416696215671,9.869374041909028,22.902008,6.3,2.7,279.0
18.21185541,-128.16889632,0.57782234,242.0,5.8900081701926625,10.817505014945766,21.756775,6.7,2.9,280.0
18.31685615,-128.16886545,0.57788926,242.0,3.780461449001929,11.815871049495257,20.582794,7.0,3.1,281.0
18.40685654,-128.16884029,0.5779458,242.0,1.807420078955844,12.764710643431115,19.589615,7.3,3.2,282.0
18.51185417,-128.16881171,0.57801156,242.0,0.009745094119127731,13.676492931368081,18.460205,7.6,3.5,283.0
18.61743021,-128.16878428,0.57807963,242.0,-1.8034610124806725,14.459446706740867,17.306305,7.9,3.7,283.0
18.71043062,-128.16876027,0.57814194,242.0,-3.0246170771543923,15.021469707203716,16.274048,8.2,4.0,284.0
18.8034308,-128.16873856,0.57820077,242.0,-4.010865464670939,15.315293200227261,15.309357,8.4,4.2,285.0
18.91143036,-128.16871342,0.57827346,242.0,-4.555182331559983,15.517367758569032,14.156921,8.6,4.4,286.0
19.00456882,-128.16869286,0.57833691,242.0,-4.45368264039883,15.522093052870012,13.200607,8.6,4.6,287.0
19.11356902,-128.16867115,0.57840728,242.0,-3.9700619992253974,15.370934181241951,12.246735,8.6,4.8,287.0
19.2075696,-128.16865403,0.57847073,242.0,-2.9246513634897706,15.01206833313539,11.494934,8.4,5.0,288.0
19.31556845,-128.16863347,0.57854571,242.0,-1.4218922369309768,14.422329593404239,10.714584,8.0,5.1,289.0
19.40656853,-128.16861978,0.5786057,242.0,0.5335229366290312,13.514899358500312,10.133667,7.7,5.1,289.0
19.51556921,-128.16860152,0.57868299,242.0,2.9909491831684196,12.122698365131633,9.346527,7.1,5.1,290.0
19.61015821,-128.16858898,0.57874758,243.0,5.7716495805538575,10.3847640068159,8.629349,6.8,5.0,291.0
19.70415688,-128.16857529,0.5788168,243.0,9.077680621866795,8.586837192184746,7.803223,6.5,4.9,292.0
19.81315732,-128.16856276,0.57889062,243.0,12.388371827825198,6.7875689728462785,6.82756,6.3,4.8,292.0
19.90615678,-128.16855136,0.57895752,243.0,15.374598090332967,5.30427680255296,5.858154,6.1,4.6,293.0
20.01615739,-128.16854112,0.57903596,243.0,18.23801352499446,4.015152766446143,4.642441,6.0,4.4,294.0
20.1091578,-128.16853202,0.5791017,243.0,20.526493846337498,2.968507568062869,3.571243,6.1,4.3,295.0
20.20215726,-128.1685252,0.57916745,243.0,22.728956931732498,2.177663651905837,2.435989,6.1,4.1,295.0
20.31215692,-128.16851725,0.57924704,244.0,24.64852985630331,1.6888577498344564,1.044952,6.3,3.9,296.0
20.40415788,-128.16851273,0.57931509,244.0,26.117742750813576,1.4014554294479513,-0.169556,6.4,3.8,297.0
20.51215982,-128.16850822,0.57939236,244.0,26.73575904241869,1.4018079119906874,-1.564606,6.5,3.7,298.0
20.60486507,-128.16850484,0.57945695,244.0,26.588147750535484,1.6347164170076034,-2.762283,6.7,3.6,299.0
20.71186495,-128.16850262,0.57953768,244.0,25.642442428779706,2.0439433578260227,-4.24823,6.8,3.6,299.0
20.81686521,-128.16850269,0.57961496,244.0,23.487223075021745,2.8411829312900347,-5.66684,7.0,3.6,300.0
20.90686417,-128.1685039,0.57967954,244.0,19.918355617662655,3.95622908512989,-6.869781,7.1,3.7,301.0
21.01186562,-128.16850741,0.57976027,244.0,15.836030896175389,5.4032846958112675,-8.336853,7.3,3.8,302.0
21.11686397,-128.16851092,0.57983754,244.0,11.361294966480376,6.972278139261882,-9.760773,7.5,3.9,303.0
21.2068646,-128.1685167,0.57990212,243.0,7.50265412177139,8.681884074358413,-10.911621,7.6,3.9,303.0
21.31186485,-128.1685248,0.57998169,243.0,4.334759028214805,10.252718871003411,-12.35759,7.7,4.1,304.0
21.41686988,-128.16853288,0.58005434,243.0,2.014629152173357,11.277954223230783,-13.694824,7.8,4.2,305.0
21.50686479,-128.16854325,0.58012353,243.0,0.764744332009332,11.83174603006074,-14.926437,7.9,4.3,306.0
21.61152864,-128.16855593,0.58020079,243.0,0.2789557823667503,11.939049839391215,-16.315765,8.0,4.4,306.0
21.70452881,-128.16856974,0.58027113,243.0,0.2969967239798421,11.682860176713989,-17.591644,8.0,4.5,307.0
21.81452942,-128.16858585,0.58034724,242.0,0.46925125691866676,11.18454074608895,-18.964676,8.1,4.5,308.0
21.90652895,-128.1686031,0.58041988,242.0,0.5143863693804739,10.721220846081318,-20.266678,8.2,4.6,309.0
22.01452947,-128.16862265,0.58049713,242.0,0.5007847977291228,10.019554941323655,-21.667221,8.2,4.6,310.0
22.10852933,-128.16864333,0.58056747,241.0,-0.06728340471561446,9.187502800132048,-22.960342,8.2,4.6,310.0
22.21652818,-128.16866746,0.58064356,241.0,-0.9348980796881446,8.303976777208883,-24.401749,8.3,4.6,311.0
22.30852914,-128.16868929,0.58071043,241.0,-2.133767155396715,7.468355556483798,-25.642899,8.3,4.6,312.0
22.40408921,-128.16871455,0.58077961,240.0,-3.700749172744637,6.878090030651521,-26.935989,8.3,4.6,312.0
22.51308823,-128.16874326,0.58085455,240.0,-5.503859965002746,6.467282291686914,-28.320709,8.3,4.5,313.0
22.60573459,-128.16877082,0.58092026,240.0,-7.465372681117912,6.129870853107232,-29.564056,8.3,4.5,314.0
22.71173406,-128.16880641,0.58099981,239.0,-9.569522278648629,5.954965039632945,-31.055771,8.3,4.4,315.0
22.81673527,-128.1688397,0.58107013,239.0,-11.683812227471613,5.915709716248571,-32.433075,8.2,4.4,315.0
22.90673423,-128.16887068,0.58113123,238.0,-13.646852642618331,6.067210216535615,-33.64505,8.2,4.3,316.0
23.01183128,-128.16890856,0.5812027,238.0,-15.324934489584361,6.31461959139691,-35.116272,8.2,4.3,317.0
23.11683011,-128.16894872,0.58127417,237.0,-16.805300322383058,6.577731938406394,-36.614929,8.2,4.3,318.0
23.20683098,-128.16898314,0.58133295,237.0,-17.89324517295892,6.778752664432219,-37.878006,8.2,4.3,318.0
23.311831,-128.16902674,0.58140211,236.0,-18.650652557173387,6.9112935515936575,-39.378342,8.3,4.3,319.0
23.41683531,-128.16906919,0.58146666,236.0,-18.935710232085984,6.882380512195649,-40.802292,8.3,4.3,320.0
23.50683188,-128.16911163,0.58152659,235.0,-19.000053895885262,6.775693491321245,-42.088135,8.3,4.2,321.0
23.61183071,-128.16915866,0.58159229,235.0,-18.722776153324894,6.582566722833877,-43.52565,8.3,4.2,321.0
23.71683073,-128.16921143,0.58166028,234.0,-18.32337888405773,6.361610228753823,-45.05043,8.2,4.2,322.0
23.80683136,-128.16925386,0.5817133,234.0,-17.856151992340312,6.056383184096201,-46.257599,8.2,4.2,323.0
23.9118309,-128.16930891,0.58177668,233.0,-17.47095158550634,5.6182504704312,-47.743454,8.2,4.2,324.0
24.01683044,-128.16936281,0.58183775,233.0,-17.083708750349356,5.099211297322006,-49.170654,8.2,4.3,325.0
24.10683036,-128.16941098,0.58188961,232.0,-16.81681093352246,4.5818688935447724,-50.420151,8.1,4.3,325.0
24.21183252,-128.16946946,0.58194953,231.0,-16.616330390156374,4.035505882642411,-51.871277,8.1,4.3,326.0
24.31683064,-128.16952909,0.58200714,230.0,-16.51923851234978,3.5224279503616764,-53.32457,8.0,4.3,327.0
24.40683055,-128.16958183,0.58205553,230.0,-16.441645528072822,2.9645858641520864,-54.579811,8.0,4.3,328.0
24.51183271,-128.16964375,0.58210968,229.0,-16.475257599826104,2.43476485732409,-56.008484,7.9,4.4,328.0
24.61738038,-128.16970795,0.58216382,228.0,-16.6548781372798,1.9479778468354152,-57.454353,7.9,4.4,329.0
24.71137929,-128.16976872,0.5822122,227.0,-16.8590765889189,1.4469259264386276,-58.81266,7.8,4.4,330.0
24.80538034,-128.16982833,0.58225713,227.0,-17.110318686352052,0.9462996770106482,-60.09124,7.8,4.4,331.0
24.9123795,-128.16989826,0.58230781,226.0,-17.424963118665456,0.4440404900538751,-61.572685,7.7,4.4,332.0
25.00538015,-128.16996017,0.58234927,225.0,-17.899522515914782,0.005351868064498562,-62.825378,7.7,4.3,333.0
25.11238194,-128.17003353,0.58239764,224.0,-18.25079582188194,-0.4590044198002888,-64.286476,7.6,4.3,333.0
25.20537972,-128.17009658,0.58243564,223.0,-18.82690278581082,-0.8118080081550695,-65.505608,7.5,4.2,334.0
25.31239605,-128.17017223,0.58248055,222.0,-19.376575001451815,-1.1287918315677805,-66.963196,7.4,4.2,335.0
25.4053793,-128.17023986,0.5825174,221.0,-20.18125422096297,-1.360188105126122,-68.223183,7.4,4.1,336.0
25.51237988,-128.1703178,0.58255769,220.0,-20.866998976068007,-1.597317440719623,-69.700333,7.3,4.1,337.0
25.60502505,-128.17038428,0.58258992,219.0,-21.739613173862676,-1.7850203613991207,-70.94574,7.3,4.0,338.0
25.71402335,-128.17046451,0.58262675,218.0,-22.56780880797489,-1.991978191199951,-72.40834,7.2,4.0,339.0
25.80802393,-128.17053442,0.58265667,217.0,-23.441830521878654,-2.1560187457740323,-73.697304,7.2,3.9,340.0
25.90202332,-128.17060891,0.58268659,216.0,-24.139537245625387,-2.317943289084994,-75.031517,7.2,3.9,341.0
26.01059437,-128.17069028,0.58271766,214.0,-24.813356433277455,-2.419606665161355,-76.467323,7.1,3.9,342.0
26.11659646,-128.17077394,0.58274641,213.0,-25.376464027017484,-2.5071780524212803,-77.834747,7.0,3.8,343.0
26.20659637,-128.1708427,0.58276826,212.0,-25.91519227786446,-2.6092270070756243,-78.925957,6.9,3.8,344.0
26.3115952,-128.17092635,0.5827924,210.0,-26.504517808055585,-2.661936375675562,-80.194237,6.7,3.7,345.0
26.40174651,-128.17099969,0.58281194,209.0,-27.186624855111567,-2.718524946918456,-81.232841,6.6,3.7,346.0
26.50674653,-128.1710822,0.58283262,207.0,-28.03405203659433,-2.811090365790936,-82.380142,6.4,3.6,347.0
26.61181998,-128.17116699,0.582851,206.0,-29.187281922441482,-2.9300397775322153,-83.501472,6.3,3.5,348.0
26.71681976,-128.17125523,0.58286937,204.0,-30.63615511539953,-3.084852609448133,-84.540947,6.1,3.3,349.0
26.80682158,-128.17132971,0.58288199,203.0,-32.35748169049871,-3.279892898983572,-85.284538,5.7,3.1,351.0
26.91181993,-128.17141679,0.58289575,201.0,-34.46197964137869,-3.5033459815244843,-86.101074,5.5,2.8,352.0
27.01682019,-128.17150616,0.5829072,199.0,-36.68281392525499,-3.8413973819794114,-86.999916,5.3,2.5,353.0
27.10682154,-128.17158063,0.5829152,198.0,-39.36025943591698,-4.288555863589523,-87.839409,5.3,2.2,354.0
27.21181965,-128.17166657,0.58292435,196.0,-42.132070261833576,-4.865385548325651,-88.885841,5.4,1.8,355.0
27.31682038,-128.17175937,0.58293118,194.0,-44.972692702801844,-5.543949121054484,-90.039024,5.6,1.4,356.0
27.40681982,-128.17183499,0.58293572,193.0,-47.558003586555664,-6.279352060087529,-90.956604,5.7,1.1,357.0
27.51182032,-128.1719255,0.58294025,191.0,-49.64780304176764,-6.998425646921254,-91.984497,5.9,0.8,358.0
27.61738253,-128.17201715,0.58294247,190.0,-50.682113046847,-7.6709194452868115,-92.896805,6.1,0.5,360.0
27.71138287,-128.1720962,0.58294355,188.0,-50.73300184004287,-8.194374391664546,-93.563766,6.3,0.3,361.0
27.80338454,-128.1721741,0.58294233,187.0,-49.79900062334107,-8.479430970976711,-94.091026,6.3,0.2,361.0
27.91138101,-128.17227034,0.58294109,185.0,-48.34769977179771,-8.467456818132035,-94.555412,6.5,0.1,363.0
28.00438213,-128.17235397,0.5829387,184.0,-46.51112538042431,-8.17467920004172,-94.788933,6.5,0.2,363.0
28.11338305,-128.17244562,0.58293516,183.0,-44.99445419290571,-7.640490975795852,-94.86451,6.6,0.3,364.0
28.20738363,-128.17253154,0.58293046,182.0,-43.79047265291664,-6.995820364183007,-94.765388,6.6,0.4,365.0
28.31538177,-128.17262089,0.58292577,181.0,-43.22616939422046,-6.340922490758875,-94.491234,6.6,0.6,366.0
28.40656185,-128.17270566,0.58291992,180.0,-43.15785261840652,-5.739659809760704,-94.107635,6.5,0.7,366.0
28.5155623,-128.17280304,0.58291291,179.0,-43.64727085849084,-5.2934085523331085,-93.539795,6.4,1.0,367.0
28.60917115,-128.17288781,0.58290707,179.0,-44.649912289493855,-4.9803506996717894,-92.970078,6.3,1.1,368.0
28.70217013,-128.17296571,0.58290123,179.0,-45.78348347233467,-4.77869629554993,-92.397385,6.2,1.3,368.0
28.80917025,-128.17306537,0.58289422,178.0,-47.152702022783984,-4.694763651158609,-91.638756,6.0,1.4,369.0
28.90117073,-128.17314671,0.58288953,178.0,-48.47634934682089,-4.699045781527351,-90.986443,5.9,1.4,369.0
29.00981379,-128.17324179,0.58288252,178.0,-49.743712947185266,-4.780933147477368,-90.19458,5.8,1.5,369.0
29.11681223,-128.17334031,0.58287782,179.0,-50.83802772506168,-4.893406436066143,-89.368675,5.7,1.4,370.0
29.20681262,-128.17341936,0.58287428,179.0,-51.47725485036814,-5.107778588046101,-88.676117,5.6,1.4,370.0
29.31181407,-128.17351674,0.58287073,179.0,-51.69400696451074,-5.310700181349736,-87.804527,5.6,1.4,371.0
29.40181398,-128.17359808,0.58286835,180.0,-51.4803468578322,-5.582977408055395,-87.002785,5.6,1.3,371.0
29.50681353,-128.17369316,0.58286711,180.0,-50.68063655251265,-5.969644180238214,-85.966797,5.6,1.4,371.0
29.61244321,-128.17378825,0.58286702,181.0,-49.566585089444445,-6.355020927947689,-84.825729,5.8,1.5,372.0
29.70644188,-128.17386959,0.5828681,182.0,-48.26902916212047,-6.777369867608618,-83.785057,6.0,1.6,372.0
29.81444287,-128.17397041,0.58287031,183.0,-46.88246370496756,-7.06877640112998,-82.451248,6.1,1.8,372.0
29.9064424,-128.17405405,0.58287369,184.0,-45.463732633537006,-7.19390172428482,-81.278351,6.3,2.0,372.0
30.01663685,-128.17415029,0.58287937,185.0,-44.11049943001021,-7.242249623423213,-79.85611,6.5,2.2,372.0
30.10663748,-128.17423392,0.58288621,186.0,-42.688809003562106,-7.166557881182256,-78.563911,6.6,2.4,372.0
30.2116375,-128.17432673,0.58289535,187.0,-41.1583295452214,-7.017867710247493,-77.101387,6.8,2.7,372.0
30.31663704,-128.17442068,0.58290565,188.0,-39.57807562495897,-6.806683293224705,-75.603119,7.0,3.0,372.0
30.40826607,-128.1744963,0.58291596,189.0,-38.071063916487724,-6.609985400762976,-74.38903,7.1,3.2,372.0
30.5152657,-128.1745937,0.58293086,191.0,-36.40946809219583,-6.349923779488995,-72.897865,7.2,3.5,372.0
30.6078527,-128.17467276,0.58294463,192.0,-34.96969693049699,-6.085320446667006,-71.691879,7.3,3.6,372.0
30.71685314,-128.1747713,0.58296414,194.0,-33.54636808436501,-5.801951081243575,-70.236526,7.3,3.8,372.0
30.80685353,-128.17484693,0.58298022,195.0,-32.249290696442095,-5.523251847834787,-69.13726,7.3,3.8,372.0
30.91185284,-128.1749386,0.58300204,198.0,-31.248485655228574,-5.317030256408073,-67.846527,7.3,3.9,371.0
31.00258136,-128.17501538,0.58302158,199.0,-30.478559887285947,-5.167267629457832,-66.775986,7.3,3.9,371.0
31.11058187,-128.17510705,0.58304687,201.0,-30.10950913198679,-5.096482393253312,-65.481483,7.3,3.8,371.0
31.20358419,-128.17518727,0.58307216,203.0,-29.75820289864193,-5.070084712075123,-64.430435,7.4,3.8,370.0
31.3115809,-128.17527895,0.58310207,205.0,-29.64488869193992,-5.099358239073998,-63.195969,7.4,3.6,370.0
31.40458107,-128.17535344,0.58312737,207.0,-29.46609638284208,-5.1626407760019335,-62.224594,7.3,3.5,369.0
31.51358271,-128.17544512,0.58316188,210.0,-29.1264875090144,-5.180573126660217,-61.086632,7.2,3.4,369.0
31.60720348,-128.17552191,0.58319295,212.0,-28.701470617260554,-5.218411697408583,-60.15609,7.1,3.2,369.0
31.71720314,-128.17561016,0.58322977,215.0,-27.938024533976925,-5.2239748435292706,-59.096466,7.0,3.1,368.0
31.81120205,-128.17568351,0.583262,217.0,-27.010258405887416,-5.173714799094665,-58.21331,6.9,3.0,368.0
31.90520215,-128.1757603,0.58329768,220.0,-25.866110978759004,-5.041446746881301,-57.272705,6.8,2.9,367.0
32.01175976,-128.17584168,0.58333797,223.0,-24.48555420200889,-4.8222192211597585,-56.221817,6.7,2.8,367.0
32.11675906,-128.17592306,0.58338057,225.0,-23.094340049496093,-4.587669323726076,-55.132568,6.7,2.7,366.0
32.20675874,-128.17598954,0.58341626,228.0,-21.622736715638485,-4.311391854895819,-54.197128,6.7,2.7,366.0
32.311759,-128.17606863,0.58346116,231.0,-20.29413224842156,-3.9765090175820865,-53.110435,6.7,2.7,365.0
32.4033823,-128.17613855,0.58350262,234.0,-19.128870011437286,-3.6144578954392284,-52.152489,6.6,2.7,365.0
32.51238203,-128.1762142,0.58354868,237.0,-17.97990210477685,-3.212577746189394,-51.164246,6.4,2.8,364.0
32.60409617,-128.17627725,0.58358899,239.0,-16.973350050717958,-2.764733970963446,-50.370316,6.3,2.8,363.0
32.71409655,-128.17635635,0.58364081,243.0,-16.00538996462701,-2.3466444448040717,-49.487396,6.0,2.8,363.0
32.80609679,-128.17642169,0.58368688,246.0,-15.286065655042746,-1.953295191456835,-48.85173,5.6,2.7,362.0
32.91409969,-128.17649506,0.58373987,249.0,-15.003202577078948,-1.5856054826129982,-48.264771,5.2,2.6,362.0
33.00671458,-128.17655467,0.58378364,252.0,-15.29889431927457,-1.3052862380313852,-47.840195,4.8,2.5,361.0
33.1117146,-128.1766269,0.58383777,256.0,-16.474814825388123,-1.1733212876645152,-47.328476,4.4,2.3,360.0
33.2167151,-128.17669569,0.58389191,260.0,-18.193413955499835,-1.1857457108784972,-46.86084,4.1,2.1,360.0
33.30671453,-128.17675072,0.58393684,263.0,-20.717553727268598,-1.3696022985000986,-46.482239,3.8,1.9,360.0
33.41171503,-128.17682065,0.58399444,266.0,-23.58761127093896,-1.9046013622128537,-46.001007,3.6,1.6,359.0
33.51671457,-128.17688601,0.58405089,270.0,-26.746224066887738,-2.619460425322144,-45.548492,3.4,1.4,359.0
33.60636973,-128.1769376,0.58409582,272.0,-29.87174340251277,-3.431853242904115,-45.178131,3.2,1.2,358.0
33.71436954,-128.17700525,0.58415689,276.0,-32.4618513228042,-4.291743558563622,-44.621933,3.0,0.9,358.0
33.80736947,-128.17706029,0.58420758,279.0,-34.24876754066007,-5.0603567049898786,-44.132339,2.9,0.8,357.0
33.91636944,-128.17712794,0.58427095,283.0,-34.98566445918605,-5.770851577541193,-43.39566,2.9,0.6,357.0
34.01005268,-128.17718183,0.58432395,286.0,-34.69443507853691,-6.2998696977763196,-42.736862,2.9,0.6,356.0
34.10304904,-128.17723573,0.5843781,289.0,-33.799604371404364,-6.616706694477207,-42.037552,2.9,0.6,356.0
34.21156621,-128.1772988,0.58444148,292.0,-32.424727330704776,-6.700273539076229,-41.090286,3.0,0.6,356.0
34.30556583,-128.17735155,0.58449679,296.0,-31.04635195009394,-6.580651964730156,-40.251419,3.1,0.7,355.0
34.41379166,-128.17740889,0.58455901,299.0,-29.96858984048881,-6.305788093232402,-39.218002,3.2,0.8,355.0
34.5067904,-128.17746279,0.58461778,302.0,-29.420284197035215,-5.923151574526963,-38.150238,3.3,0.9,354.0
34.61243558,-128.17752013,0.58468346,306.0,-29.455383787999917,-5.50325804657563,-36.948486,3.6,1.1,354.0
34.70654416,-128.17756944,0.58474108,308.0,-30.012119839373305,-5.1370627574738235,-35.774658,3.8,1.3,354.0
34.8135457,-128.17762564,0.58480908,312.0,-31.087804717616322,-4.72812014778215,-34.3703,4.1,1.5,353.0
34.90654421,-128.17766923,0.58486439,314.0,-32.376998892354564,-4.300613194270418,-33.196304,4.4,1.6,353.0
35.01431012,-128.17772199,0.58493354,318.0,-33.61515458969788,-3.8641418253532502,-31.640198,4.9,1.9,352.0
35.10831141,-128.17776902,0.58499693,320.0,-34.78544178133812,-3.4676232472997457,-30.219147,5.1,2.1,352.0
35.21630955,-128.17782064,0.58506954,324.0,-35.52245994830939,-3.0744716665483987,-28.536453,5.5,2.3,352.0
35.30831099,-128.17786309,0.58513178,327.0,-35.780655114532884,-2.6805511469581327,-27.117432,5.8,2.5,351.0
35.40231109,-128.17790553,0.58519632,329.0,-35.571796946321285,-2.2902758748514986,-25.649979,6.1,2.6,351.0
35.50931025,-128.17795028,0.58527009,332.0,-34.9130046401126,-1.8908712201133284,-24.063293,6.3,2.8,350.0
35.60143566,-128.17798929,0.58533695,335.0,-33.93852487893492,-1.4279486483000448,-22.675064,6.5,3.0,350.0
35.7084651,-128.17803175,0.58541303,337.0,-32.681031240543874,-0.931239331791815,-21.170456,6.7,3.1,349.0
35.80246449,-128.17806733,0.58548104,340.0,-31.204101001165046,-0.5278643171348775,-19.907562,6.7,3.1,349.0
35.91046381,-128.17810635,0.58556058,343.0,-29.57956572168505,-0.3029040139940083,-18.526978,6.7,3.1,348.0
36.01710987,-128.17814424,0.58564358,345.0,-27.6927497834675,-0.17711391684847952,-17.172226,6.7,3.1,348.0
36.11011052,-128.17817409,0.5857116,347.0,-25.69539495611502,-0.0979835138697989,-16.087296,6.7,3.0,348.0
36.20411086,-128.17820279,0.58578308,349.0,-23.48179698835137,-0.005112193197171731,-14.920792,6.8,2.9,347.0
36.31310964,-128.1782361,0.58586839,352.0,-20.924657208480095,0.08328464538550848,-13.467957,6.9,2.7,347.0
36.40611053,-128.17826022,0.58593987,354.0,-18.083962229079326,0.24633030445983414,-12.173904,7.1,2.6,347.0
36.51210999,-128.17828894,0.58602519,356.0,-15.009146990523181,0.40421802101556553,-10.562622,7.4,2.5,347.0
36.60428071,-128.17831077,0.58609782,357.0,-11.919020253407473,0.4935697983522727,-9.162567,7.6,2.4,347.0
36.71328092,-128.17833492,0.58619007,359.0,-8.690782964452964,0.6091309932332122,-7.326157,7.9,2.4,347.0
36.80728173,-128.17835331,0.58626386,360.0,-5.262764291793117,0.7940972170298451,-5.887253,8.3,2.4,346.0
36.9152801,-128.17837288,0.58635611,361.0,-1.6944203088815724,1.0419891942881723,-3.954895,8.7,2.5,346.0
37.00688148,-128.17838784,0.58643106,362.0,2.0914642096776017,1.3888034354660017,-2.41951,9.1,2.8,346.0
37.11188149,-128.17840167,0.58651985,363.0,5.919120224164756,1.8415581550810498,-0.617447,9.5,3.0,346.0
37.21688199,-128.1784132,0.58660749,363.0,9.753786674967941,2.402958298496364,1.172501,9.8,3.4,347.0
37.30688286,-128.17842129,0.58668244,364.0,13.536079320792675,3.0940349495320905,2.687088,10.1,3.6,347.0
37.41188431,-128.17842825,0.58676893,364.0,17.577334769841585,3.792625497780805,4.321381,10.4,4.0,347.0
37.5168817,-128.17843291,0.58686119,364.0,21.402332054905326,4.598169336981209,6.114441,10.6,4.4,347.0
37.60752249,-128.17843413,0.58693616,363.0,24.92699808497538,5.471433117960716,7.521423,10.7,4.7,347.0
37.71552086,-128.17843307,0.58702842,363.0,28.237605722431695,6.213787902645032,9.237976,10.8,5.0,348.0
37.80751967,-128.1784297,0.58710685,362.0,31.544549321454518,6.7794723206750795,10.668686,10.8,5.2,348.0
37.91551995,-128.17842291,0.58719797,361.0,34.833719877299984,7.156061895476309,12.505203,10.9,5.4,348.0
38.01006579,-128.17841497,0.58727755,359.0,38.290608979095985,7.321021029514633,14.136337,11.0,5.4,349.0
38.1030674,-128.17840587,0.58735368,358.0,41.80986861889314,7.300072717653299,15.780975,11.2,5.5,350.0
38.21206689,-128.17839106,0.58744595,356.0,45.411643243598824,7.060814115963219,17.842361,11.3,5.4,350.0
38.30606532,-128.17837738,0.58751862,354.0,49.32650707487438,6.693776740129874,19.50856,11.4,5.3,351.0
38.41563225,-128.17835913,0.58760399,351.0,53.413056531960365,6.122581971806706,21.622391,11.6,5.2,352.0
38.50663424,-128.17833972,0.58767666,349.0,57.78126809864236,5.57737740820258,23.504181,11.6,5.1,353.0
38.61223984,-128.17831574,0.58776088,346.0,62.35469512854778,5.239938493582236,25.814667,11.7,5.0,354.0
38.70624042,-128.17829061,0.58783817,342.0,66.88503053510877,5.072465957136941,28.045959,11.8,4.9,355.0
38.8162396,-128.17826204,0.58791777,339.0,70.65240900375362,4.913921626684642,30.483459,11.9,4.8,356.0
38.9082396,-128.17823461,0.587987,335.0,73.363993748935,4.688081081744939,32.595718,11.8,4.8,357.0
39.01581693,-128.17820032,0.58806661,330.0,74.99449758471134,4.558708902350259,34.968582,11.4,4.9,359.0
39.10681605,-128.17816944,0.58813007,327.0,76.12999525742785,4.620876007005727,36.931152,11.2,5.0,360.0
39.2118156,-128.17813056,0.58820276,322.0,76.99231065689467,4.662469195758696,39.452881,10.9,5.0,361.0
39.31681871,-128.17809053,0.5882743,317.0,77.9343337643038,4.767065686481317,42.183167,10.8,5.1,363.0
39.40681624,-128.17805506,0.58833085,313.0,79.19090674262245,4.98333251023681,44.655197,10.8,5.2,364.0
39.51181674,-128.1780093,0.58839894,307.0,80.7105199453107,5.200781727350325,47.72081,10.9,5.2,366.0
39.61745787,-128.17796124,0.58846357,302.0,82.27301161606975,5.4959149584796405,50.960342,11.1,5.2,368.0
39.71045732,-128.17791662,0.58851897,296.0,84.038272102579,5.753750238303105,53.8302,11.2,5.2,370.0
39.80345821,-128.17786969,0.58857206,291.0,85.48569344397232,5.955455960648401,56.705627,11.3,5.2,371.0
39.91245794,-128.17781476,0.58863093,284.0,86.97411971299961,6.025080231702514,59.943665,11.5,5.2,373.0
40.00608015,-128.17776325,0.58867942,279.0,88.30578865189943,5.895117667007715,62.787857,11.5,5.1,375.0
40.11508203,-128.17770258,0.58873253,273.0,89.28697602918182,5.593727423488646,65.945129,11.6,5.0,376.0
40.2090795,-128.17764763,0.5887764,267.0,89.92634150931785,5.112948948423755,68.63942,11.6,4.9,378.0
40.30308008,-128.17759153,0.58881682,262.0,90.1589641586613,4.453599854118827,71.286011,11.6,4.9,380.0
40.41108203,-128.17752283,0.58886186,255.0,89.95657426100708,3.6627588253601804,74.29216,11.6,4.7,381.0
40.51671624,-128.17745528,0.58890114,249.0,89.57277244166951,2.8098686149078738,77.06842,11.6,4.6,383.0
40.60741162,-128.17739459,0.58893349,242.0,89.05973733351489,1.9762501980550273,79.443024,11.6,4.5,385.0
40.71641207,-128.17731786,0.58896931,236.0,88.46921926713868,1.3025110909562982,82.251862,11.6,4.4,387.0
40.81041145,-128.17725373,0.58899475,231.0,87.80350980261241,0.7119426890303061,84.467041,11.6,4.3,388.0
40.90341401,-128.17718158,0.58902019,224.0,87.04735348933178,0.26698933294498256,86.815674,11.6,4.2,390.0
41.01162505,-128.1771037,0.58904448,218.0,86.33400503069448,-0.030877170207049824,89.135223,11.5,4.1,391.0
41.11662483,-128.17702352,0.58906531,211.0,85.45371761887175,-0.19699492163561078,91.439606,11.4,4.0,393.0
41.20662498,-128.17695136,0.58908037,205.0,84.74391843909295,-0.2586006973824317,93.384125,11.3,4.0,395.0
41.31162643,-128.17687003,0.58909314,199.0,84.18122443364763,-0.18578082908732063,95.567505,11.2,3.9,396.0
41.41663218,-128.17678641,0.58910359,192.0,83.8712367659442,-0.1357934735717333,97.776978,11.2,3.9,398.0
41.50662374,-128.17670966,0.58911059,188.0,83.39913126874553,-0.31681471632591235,99.656006,11.2,3.9,399.0
41.61179066,-128.17662488,0.58911413,182.0,82.32546390017932,-0.8186967759442592,101.761749,11.2,3.9,401.0
41.71679115,-128.17653552,0.58911421,176.0,81.06600973275918,-1.4426785899979182,103.886322,11.2,3.9,402.0
41.80679083,-128.17646106,0.58911197,171.0,79.35792868522228,-2.205919720724622,105.676056,11.2,4.0,403.0
41.91179085,-128.17636825,0.58910514,166.0,77.5890932899388,-3.00174829082542,107.681763,11.3,4.0,405.0
42.01679134,-128.17627888,0.58909484,160.0,75.89443157364659,-3.7101021491246207,109.599182,11.3,4.0,406.0
42.10679054,-128.17620212,0.58908454,155.0,74.38229094561774,-4.287927908773032,111.221771,11.3,4.1,407.0
42.21179128,-128.1761093,0.58906732,150.0,73.13980036021441,-4.76352600980651,113.121704,11.3,4.1,408.0
42.3167901,-128.17601534,0.58904781,145.0,71.98898112135988,-5.237210509102882,114.985321,11.3,4.1,409.0
42.4067924,-128.17593398,0.58902712,141.0,70.94478992708892,-5.671788814455696,116.601349,11.3,4.0,410.0
42.51444864,-128.17584001,0.58899953,137.0,70.05096770898268,-6.077507773388672,118.403076,11.4,4.0,411.0
42.60709095,-128.17575865,0.58897308,132.0,68.99226787471602,-6.436273070893188,119.998383,11.4,3.9,411.0
42.71509242,-128.17566238,0.58893857,128.0,67.93589715979418,-6.787283467978405,121.863403,11.4,3.7,412.0
42.80709267,-128.17557872,0.58890521,125.0,66.69425805094241,-7.172938685637902,123.505615,11.5,3.6,413.0
42.91509032,-128.17548589,0.58886493,121.0,65.2755445135141,-7.447183897253894,125.351135,11.5,3.5,413.0
43.00667953,-128.17540451,0.58882694,118.0,63.844623569637236,-7.6745257922124805,126.948761,11.6,3.5,414.0
43.11167049,-128.17531625,0.58878205,115.0,62.374858352531156,-7.814321202111782,128.684753,11.5,3.5,414.0
43.2016716,-128.17523831,0.58873945,113.0,60.98421026926243,-7.806487792122188,130.191742,11.5,3.6,414.0
43.3066709,-128.1751489,0.58868648,110.0,59.783499481612296,-7.723365062294812,131.92514,11.5,3.8,414.0
43.41167355,-128.17505834,0.5886289,108.0,58.822542891714825,-7.480839125670618,133.673187,11.4,4.1,414.0
43.51667094,-128.1749758,0.58857362,106.0,58.07491743032551,-7.155500775744828,135.248779,11.5,4.3,414.0
43.60692716,-128.17490014,0.58851948,104.0,57.30314164059754,-6.863818927258317,136.721741,11.6,4.6,414.0
43.71192694,-128.17481416,0.58845498,103.0,56.42353143524684,-6.5320078863425115,138.469238,11.9,4.9,414.0
43.81692672,-128.17473161,0.58838932,101.0,55.38405702432379,-6.15427454312087,140.118469,12.2,5.2,413.0
43.90692639,-128.17466397,0.58833287,101.0,54.180802283966784,-5.751005792775867,141.400757,12.4,5.4,413.0
44.01192737,-128.17458371,0.58826259,100.0,52.77646436437147,-5.229367352214906,142.803741,12.7,5.6,412.0
44.1019392,-128.17451606,0.58820153,100.0,51.34101775032326,-4.562084378695364,143.870209,12.9,5.8,411.0
44.20693946,-128.17443923,0.58812779,100.0,49.801413103040744,-3.782934083377957,144.947845,13.0,5.9,410.0
44.31193829,-128.17436584,0.58805405,101.0,48.2955827891915,-2.9862711417395653,145.81488,13.1,5.9,409.0
44.41694379,-128.17429704,0.58798492,102.0,46.761545941011725,-2.142983888535708,146.452087,13.1,5.9,407.0
44.51050115,-128.17423053,0.58791347,103.0,45.438517033917826,-1.2727755176798394,146.823273,12.9,5.8,406.0
44.60250163,-128.17417089,0.58784894,105.0,44.17178491617868,-0.512511565875493,146.932098,12.6,5.7,405.0
44.71050143,-128.17410094,0.58777058,107.0,42.92495591045214,0.20569063995603895,146.800751,12.2,5.6,403.0
44.80350208,-128.17404245,0.58770375,109.0,41.79192562955069,0.8101202754679521,146.493256,11.9,5.6,402.0
44.91050267,-128.17397707,0.58762654,113.0,40.74780305419055,1.3297570025678922,145.937408,11.7,5.5,400.0
45.00364399,-128.17391973,0.58756085,116.0,39.719744123220224,1.7646992810403463,145.2742,11.7,5.5,398.0
45.11164403,-128.17385436,0.5874848,119.0,38.65210203994537,2.2816548911564354,144.252106,11.7,5.5,396.0
45.21664381,-128.17379243,0.5874122,123.0,37.493754678914016,2.8708452611283564,142.975189,11.8,5.6,394.0
45.30664515,-128.17373967,0.58735227,128.0,36.33104092965985,3.485469636850704,141.689697,12.0,5.7,392.0
45.41164875,-128.17368233,0.58728774,131.0,35.19904621927185,4.2166102763775255,139.978729,12.2,5.9,391.0
45.50164461,-128.17363072,0.58723012,136.0,33.99869485558798,4.996826092312412,138.172119,12.4,6.1,388.0
45.60723639,-128.17356765,0.58716329,141.0,32.88426794571304,5.8745450151410745,135.622131,12.5,6.3,386.0
45.7172358,-128.17350458,0.58709992,147.0,31.674281508130164,6.6902759810221415,132.69519,12.6,6.6,383.0
45.81123567,-128.17344954,0.58704692,152.0,30.475137440149215,7.532496535131162,129.774628,12.7,6.8,381.0
45.90323615,-128.1733945,0.58699622,157.0,29.248108309879097,8.310178396836992,126.558167,12.7,6.9,378.0
46.01184058,-128.17333488,0.58694553,163.0,27.844626159682697,8.87002295563418,122.802155,12.7,7.1,376.0
46.10184169,-128.17328329,0.58690406,169.0,26.518054714129335,9.388400339072902,119.381531,12.6,7.2,373.0
46.20684195,-128.17322024,0.58685799,176.0,25.230652160305823,9.808340353895161,115.279175,12.5,7.2,370.0
46.31184077,-128.17315833,0.58681537,182.0,24.183573379535176,10.208268380541307,111.274139,12.2,7.2,367.0
46.41684484,-128.17309758,0.58677853,188.0,23.342071507846075,10.446090994759512,107.545868,11.8,7.1,364.0
46.50684237,-128.17304142,0.58674744,194.0,22.815055959056743,10.502693572425526,104.206757,11.6,7.1,362.0
46.6118412,-128.17297838,0.5867152,200.0,22.545860676765876,10.531940797619674,100.445343,11.5,7.0,360.0
46.7168417,-128.1729119,0.58668643,207.0,22.22838869242921,10.540412553159708,96.731995,11.5,6.8,357.0
46.8068409,-128.17285231,0.58666342,212.0,21.614175567703462,10.55172420275154,93.641113,11.6,6.8,355.0
46.91184092,-128.17278698,0.58664042,218.0,20.676874458062215,10.690975284059022,90.550903,11.6,6.7,352.0
47.01684237,-128.17271708,0.58662088,224.0,19.30471431441979,10.97403111252407,87.728638,11.6,6.7,350.0
47.10684061,-128.17265749,0.58660709,230.0,17.44651468079904,11.329034506647833,85.631287,11.7,6.8,347.0
47.21184134,-128.17258874,0.58659332,236.0,15.131887709376693,11.78528102020466,83.588745,11.6,6.8,345.0
47.30184245,-128.17252687,0.586583,240.0,12.329542326428305,12.423076697447407,82.06485,11.5,6.9,343.0
47.4068408,-128.17245354,0.58657384,245.0,9.125005998053592,13.279131106404046,80.592316,11.4,6.9,341.0
47.51184058,-128.17238021,0.58656814,250.0,5.892382408000459,14.44499338129361,79.381714,11.2,7.0,339.0
47.61740518,-128.17230001,0.5865636,255.0,2.8352899411946577,15.860385992131311,78.342865,11.1,7.0,337.0
47.71040559,-128.17223356,0.58656136,259.0,0.17784279877676823,17.25211499168189,77.658997,11.1,7.0,335.0
47.80340648,-128.17216711,0.58656142,263.0,-1.6787422543886048,18.34835265107203,77.140656,11.0,7.1,334.0
47.91240883,-128.17208577,0.58656265,267.0,-2.587828867148732,19.36660111820201,76.702606,11.0,7.1,333.0
48.00540662,-128.17201475,0.58656502,270.0,-2.9575120477426893,20.4691516513154,76.469055,11.0,7.1,331.0
48.11340547,-128.17192997,0.58656971,273.0,-3.0338126535593353,21.603843729153517,76.361694,11.1,7.1,330.0
48.20540667,-128.17186124,0.58657439,276.0,-2.8405558235862363,22.72825452803737,76.422119,11.2,7.2,329.0
48.31340551,-128.17177647,0.58658024,278.0,-2.4287343700911364,23.82474809224002,76.6828,11.3,7.2,328.0
48.40440607,-128.17170659,0.58658607,279.0,-1.6654130922878074,24.691872975149824,77.042633,11.4,7.3,328.0
48.51404214,-128.17162067,0.58659307,281.0,-0.705246567201758,25.442392294256113,77.666748,11.4,7.3,327.0
48.60669231,-128.17154735,0.58660006,282.0,0.3337957321228046,26.29406043592243,78.362915,11.5,7.4,327.0
48.7116909,-128.17146602,0.58660705,282.0,1.3375757312229173,27.199251097495967,79.328278,11.6,7.4,326.0
48.81669259,-128.17138125,0.58661405,283.0,2.536298004189976,27.898265035197188,80.521149,11.7,7.5,326.0
48.90669203,-128.17131366,0.58661988,282.0,3.7276064534607705,28.343669183801673,81.660583,11.7,7.6,326.0
49.01169157,-128.17122889,0.58662573,282.0,4.253928911578206,28.448504667310537,83.266663,11.7,7.6,326.0
49.11669183,-128.17114526,0.58663042,281.0,3.255474666270951,28.583562240844024,85.087128,11.7,7.6,327.0
49.20669174,-128.17107423,0.58663394,279.0,1.8720904536271539,28.79612670734802,86.782104,11.7,7.6,327.0
49.31169152,-128.1709906,0.58663633,277.0,1.7601418483447608,28.76659170766643,89.015564,11.6,7.6,328.0
49.4166975,-128.1709127,0.58663755,275.0,3.9175476428537843,28.160041784274437,91.350494,11.5,7.5,329.0
49.50669289,-128.17084167,0.58663762,273.0,8.819674822304242,26.619839322827296,93.603668,11.4,7.4,329.0
49.61169147,-128.17075689,0.58663539,270.0,14.933175957413663,24.550144463709515,96.507416,11.2,7.3,330.0
49.71669245,-128.17067554,0.58663086,267.0,20.765401376574832,22.48435273655508,99.55957,11.1,7.1,332.0
49.80669355,-128.17060909,0.58662515,264.0,25.609586242707486,20.562598120006406,102.137451,11.0,7.0,333.0
49.91169143,-128.17053347,0.58661715,260.0,29.08734657842961,18.953177153678247,105.154724,10.9,6.8,334.0
50.01669192,-128.17045441,0.58660569,256.0,31.765715398957795,17.427508283385748,108.506409,10.8,6.7,336.0
50.10669208,-128.17039368,0.58659421,252.0,33.63667625666184,16.006397078249506,111.227509,10.9,6.6,337.0
50.2116909,-128.1703192,0.58657929,248.0,35.07601091187501,14.801267303493226,114.571228,11.0,6.5,339.0
50.30169272,-128.17025732,0.58656435,244.0,36.17073654622543,13.848935328103362,117.391632,11.0,6.4,340.0
50.40669203,-128.17018283,0.58654251,240.0,36.77778500143786,13.249335694831535,120.694824,11.1,6.4,342.0
50.51431036,-128.17010834,0.58651836,235.0,37.310992604079814,12.961342128101949,123.896454,11.3,6.4,343.0
50.60891271,-128.17004302,0.5864942,230.0,37.6916070085776,12.876132498208907,126.555084,11.3,6.5,345.0
50.71691322,-128.16997081,0.58646428,225.0,38.004484552373896,12.959069151730427,129.326233,11.4,6.6,347.0
50.80691385,-128.16991121,0.5864355,220.0,38.32958764787293,13.138605825218795,131.471954,11.5,6.7,348.0
50.91191268,-128.16984359,0.58640097,216.0,38.82418888273516,13.290869460679126,133.673706,11.5,6.7,350.0
51.01691246,-128.1697771,0.58636412,211.0,39.47266773076052,13.343317859783118,135.650452,11.5,6.8,351.0
51.10691404,-128.16971864,0.58632843,206.0,40.33832965162459,13.27079464498925,137.150482,11.6,6.8,353.0
51.21191311,-128.16965101,0.58628466,201.0,41.3987167046973,13.043034420392093,138.629913,11.5,6.8,354.0
51.31691432,-128.16958452,0.58623744,196.0,42.67885562354321,12.62697867071902,139.865295,11.5,6.8,356.0
51.40691447,-128.16952949,0.58619597,193.0,44.07948068696171,12.057120527898896,140.7146,11.5,6.7,357.0
51.51191354,-128.16946414,0.58614413,188.0,45.38402224256464,11.307217815763671,141.511871,11.5,6.6,358.0
51.61748052,-128.16939993,0.58609114,184.0,46.57290330163419,10.415460162192675,142.092957,11.6,6.5,359.0
51.71148157,-128.16934261,0.5860416,180.0,47.45213709439465,9.445122809654077,142.454956,11.6,6.4,360.0
51.80347967,-128.16928642,0.58599091,177.0,47.95453074742471,8.450241864876105,142.658112,11.7,6.3,361.0
51.91247988,-128.16921992,0.58592984,173.0,47.91228474270465,7.45144357946127,142.717224,11.8,6.3,362.0
52.00448155,-128.16916259,0.58587569,170.0,47.35194000086523,6.563500182980265,142.619293,11.8,6.2,363.0
52.11148047,-128.16909952,0.58581347,167.0,46.29456944898349,5.782869178399632,142.378906,11.9,6.1,363.0
52.20348072,-128.16904677,0.58576162,165.0,44.61651011343215,5.134466891843715,142.110321,12.0,6.0,364.0
52.31148243,-128.16897797,0.58569249,162.0,42.576757732036626,4.685014032214479,141.727234,12.0,5.7,365.0
52.40548134,-128.16891948,0.58563372,160.0,40.150453528052,4.401702344847989,141.382416,11.9,5.3,365.0
52.51608014,-128.16885297,0.58556574,158.0,37.47802890405637,4.29764404798541,140.981506,11.7,4.7,365.0
52.608742,-128.16879564,0.58550697,157.0,34.489808202242756,4.3893303608713765,140.634491,11.5,4.3,366.0
52.70174122,-128.16873715,0.5854459,155.0,31.53371497845358,4.837643626482797,140.284607,11.2,3.8,366.0
52.80674458,-128.16867179,0.58537792,154.0,28.623273248682153,5.493606705727683,139.904114,10.8,3.3,366.0
52.91619945,-128.16860642,0.58530993,153.0,25.65839002823412,6.352070019229045,139.557953,10.3,2.8,366.0
53.01176524,-128.16854908,0.58524886,153.0,22.69665984964307,7.476791607775762,139.294678,9.8,2.5,367.0
53.10176635,-128.16849175,0.58518894,153.0,19.835876470649325,8.854778566101144,139.08728,9.3,2.2,367.0
53.20665312,-128.16842867,0.58512211,153.0,16.902843673857035,10.351276148192348,138.934875,9.0,2.0,367.0
53.31628585,-128.16835987,0.58504951,153.0,13.825965672046062,11.90875469068243,138.879578,8.8,1.9,367.0
53.41028547,-128.16830138,0.58498729,154.0,10.598362713128186,13.545083786666272,138.932343,8.8,1.9,367.0
53.50228477,-128.16824519,0.58492737,154.0,7.271651772806595,15.080366801426779,139.074768,8.8,2.0,368.0
53.6098938,-128.16818212,0.58485938,155.0,3.810758510016459,16.6371747012647,139.358307,9.1,2.1,367.0
53.70189357,-128.16812592,0.58479946,156.0,0.6561184115270883,18.180430285577625,139.718262,9.5,2.4,367.0
53.80689335,-128.16806056,0.58472917,158.0,-1.934499603591336,19.670971302963242,140.275879,10.0,2.6,367.0
53.91189313,-128.16799978,0.58466349,159.0,-4.022336366588052,21.082136474611588,140.941406,10.4,2.9,366.0
54.00453353,-128.16794358,0.58460241,161.0,-5.614569473559123,22.373218144458125,141.676971,10.6,3.0,366.0
54.1135695,-128.16787822,0.58453097,163.0,-6.9300010918214845,23.436609022725683,142.648651,10.8,3.2,365.0
54.20556831,-128.16782202,0.58446874,165.0,-8.274405343675616,24.408390584425582,143.602325,10.9,3.3,364.0
54.3150022,-128.16776239,0.5844019,168.0,-9.74762506601568,25.14783678731377,144.662872,10.9,3.3,363.0
54.40900064,-128.16770734,0.58433852,171.0,-10.794344185800965,25.8224433017728,145.757751,10.9,3.2,362.0
54.50162649,-128.16765917,0.58428205,173.0,-11.652187286838423,26.617356410970665,146.806488,11.0,3.1,361.0
54.6073029,-128.16760297,0.58421521,177.0,-12.331559591520069,27.43975473061294,148.174194,11.1,2.9,360.0
54.71630502,-128.16754677,0.58414491,180.0,-12.925716815264366,28.357961675210916,149.760284,11.2,2.7,358.0
54.80830359,-128.16750089,0.58408729,184.0,-13.34478252763269,29.33451875097216,151.168335,11.3,2.5,357.0
54.90230489,-128.16745501,0.58402621,187.0,-13.405469805173619,30.287310824994474,152.70929,11.3,2.4,356.0
55.01187086,-128.16740568,0.58395705,191.0,-13.058411600077067,31.128042499570352,154.603912,11.2,2.2,354.0
55.11687064,-128.16735635,0.58388559,197.0,-12.272277594813588,31.743121762052375,156.717407,11.2,2.0,352.0
55.20687175,-128.16731849,0.58382796,200.0,-11.36993436580489,32.217991707523844,158.478638,11.1,1.9,351.0
55.31187177,-128.16727833,0.58376111,205.0,-10.393987209412622,32.49483463542239,160.586395,11.1,1.8,350.0
55.40187097,-128.16724506,0.58370347,209.0,-9.466204371862244,32.63267899624681,162.358246,11.0,1.7,348.0
55.50687099,-128.16720719,0.58363431,213.0,-8.788886529589421,32.68828362947519,164.633698,10.9,1.7,347.0
55.61249328,-128.16717275,0.58356514,218.0,-8.531954660559565,32.6914594260539,166.932007,10.9,1.7,345.0
55.70549107,-128.16714405,0.58350058,223.0,-8.71407458702152,32.658014210502884,169.080383,10.8,1.7,343.0
55.81349206,-128.16711535,0.58343141,228.0,-9.481136403698395,32.66270442878803,171.224701,10.8,1.7,341.0
55.90649247,-128.16709238,0.58336915,232.0,-10.74695509116035,32.70839185694544,173.131805,10.8,1.8,340.0
56.01512527,-128.16706825,0.58329536,237.0,-12.30291653161175,32.78113960636915,175.233795,10.7,1.9,338.0
56.10612631,-128.16704872,0.58323079,242.0,-13.498764923380985,32.776151706897885,176.961609,10.7,2.0,337.0
56.2151258,-128.16703147,0.58315931,246.0,-13.975184560175942,32.635103145281846,178.7435,10.6,2.1,335.0
56.30912519,-128.16701651,0.58309127,251.0,-13.643605902516473,32.368521823567015,-179.750699,10.6,2.2,334.0
56.4171319,-128.16700269,0.58301632,255.0,-41.136535373393805,34.40309282179915,-178.240168,10.5,2.3,332.0
56.50976944,-128.16699347,0.58295059,259.0,-67.3248909615087,35.18745039030509,-177.162926,10.5,2.4,331.0
56.61734843,-128.16698538,0.58287102,263.0,-85.53885146884734,31.679666408259813,-176.056789,10.3,2.5,330.0
56.71034741,-128.16697959,0.58280413,267.0,-94.77965571229933,26.843722002306773,-175.29581,10.2,2.6,329.0
56.80434847,-128.16697608,0.58273263,270.0,-101.24421020353468,21.97704907850285,-174.615728,10.2,2.7,328.0
56.91334724,-128.16697487,0.58265305,274.0,-109.6019955783634,17.765431819457376,-174.00374,10.1,2.9,326.0
57.00497365,-128.1669748,0.58258501,277.0,-121.18556020094084,13.744883543093769,-173.579385,10.1,3.0,326.0
57.11497426,-128.16697702,0.58250196,280.0,-133.68335252631124,8.832269727157422,-173.173425,10.2,3.1,325.0
57.20897508,-128.16698039,0.58243046,282.0,-145.21654914455956,4.826327088079275,-172.939873,10.3,3.3,324.0
57.31797433,-128.16698605,0.58234856,285.0,-153.26634780372837,2.384689343243953,-172.824173,10.4,3.4,323.0
57.41097951,-128.16699171,0.58227705,286.0,-156.3325736283027,1.0790795428851185,-172.87296,10.5,3.5,323.0
57.50297475,-128.16699852,0.58220554,288.0,-156.34140534243946,0.4626009385960132,-173.058063,10.6,3.7,323.0
57.6111269,-128.16700761,0.58212134,289.0,-154.96905975765972,0.345334569992773,-173.450549,10.7,3.9,322.0
57.70512843,-128.1670167,0.58204867,290.0,-151.56831293970552,0.6406127279902306,-173.936429,10.7,4.0,322.0
57.81312776,-128.16702694,0.58196332,291.0,-142.88812641728538,1.9806165975518868,-174.678227,10.8,4.2,322.0
57.90712833,-128.16703718,0.5818895,291.0,-119.83619171192201,4.331845515708075,-175.476514,10.8,4.2,323.0
58.00170684,-128.16704742,0.58181567,291.0,-59.506777774738985,-2.635613899756942,-176.40763,10.8,4.3,323.0
58.10670662,-128.16705766,0.58173263,290.0,-51.30431325975148,-7.140937110912086,-177.613157,10.8,4.4,323.0
58.21170664,-128.16706904,0.58165073,289.0,-53.79106553282393,-5.5654398187834335,-178.974315,10.8,4.4,324.0
58.31670761,-128.16707928,0.58156999,287.0,-51.26129585872645,-4.8659058498073255,179.548828,10.8,4.3,325.0
58.40670681,-128.16708723,0.58149963,286.0,-27.08413142432001,-5.591406679395948,178.158295,10.8,4.3,325.0
58.51170564,-128.16709633,0.58141889,284.0,-4.964366333831649,-3.6530992920183416,176.416473,10.8,4.2,326.0
58.61726928,-128.16710312,0.58133354,281.0,5.379823335136314,1.8011431398959208,174.39444,10.9,4.0,328.0
58.71027017,-128.16710879,0.58126433,278.0,-13.07829425141862,10.830260582866094,172.656464,10.9,3.9,329.0
58.80227137,-128.16711216,0.58119398,276.0,-22.682762994304632,13.2290241673382,170.859955,11.0,3.8,330.0
58.91226959,-128.16711437,0.58110978,272.0,-15.680300075003634,12.983177090312557,168.487335,11.0,3.6,332.0
59.00526953,-128.16711431,0.58104404,269.0,-24.56538759116947,11.657523579389075,166.689209,11.1,3.5,333.0
59.11326933,-128.16711195,0.58096216,265.0,-28.15993316079379,12.594895979760548,164.200714,11.2,3.3,335.0
59.20626974,-128.1671073,0.58089412,260.0,-30.708158828796098,14.17287811496034,162.243225,11.3,3.2,336.0
59.31526899,-128.16709921,0.5808157,256.0,-29.66874645542616,15.164865078442798,159.870728,11.3,3.1,338.0
59.40927005,-128.16708998,0.58074536,251.0,-25.088936073026826,15.362951835704779,157.839935,11.4,3.0,340.0
59.50127125,-128.16707847,0.58068193,247.0,-20.11580507598268,15.248199173831432,156.058502,11.5,2.9,341.0
