Time,Longitude,Latitude,Altitude,Roll,Pitch,Yaw,AOA,AOS,TAS
103.2,-128.06443673,0.29992043,521.0,-51.527893,2.566535,75.629471,-1.2,-1.3,805.0
103.25,-128.06434737,0.299942385,522.0,-53.4009455,2.6149565,75.3776705,-1.2,-1.25,804.5
103.3,-128.06425801,0.29996434,523.0,-55.273998,2.663378,75.12587,-1.2,-1.2,804.0
103.35,-128.064156045,0.299991495,524.0,-57.454771,2.7184935,74.62590800000001,-1.05,-1.15,804.0
103.4,-128.06405408,0.30001865,525.0,-59.635544,2.773609,74.125946,-0.9,-1.1,804.0
103.45,-128.063963575,0.3000423399999999,525.5,-62.3424835,2.8408420000000003,73.3117445,-0.7,-1.05,803.5
103.5,-128.06387307,0.30006603,526.0,-65.049423,2.908075,72.497543,-0.5,-1.0,803.0
103.55,-128.06377741,0.30009549,527.0,-66.50502750000001,2.944228,72.05972249999999,-0.4,-0.95,802.5
103.6,-128.06368175,0.30012495,528.0,-67.960632,2.980381,71.621902,-0.3,-0.9,802.0
103.65,-128.063593535,0.300152675,528.5,-70.5641095,3.0229325,70.4571605,-0.15,-0.8500000000000001,801.5
103.7,-128.06350532,0.3001804,529.0,-73.167587,3.065484,69.292419,-0.0,-0.8,801.0
103.75,-128.06340336,0.300215055,530.0,-75.0465355,3.095583,68.441299,0.2,-0.75,801.0
103.8,-128.0633014,0.30024971,531.0,-76.925484,3.125682,67.590179,0.4,-0.7,801.0
103.85,-128.063218915,0.300282045,532.0,-78.559868,3.069075,66.773582,0.5,-0.6499999999999999,800.0
103.9,-128.06313643,0.30031438,533.0,-80.194252,3.012468,65.956985,0.6,-0.6,799.0
103.95,-128.06303734,0.300353645,533.5,-82.5833395,2.857245,64.6965255,0.75,-0.55,798.5
104.0,-128.06293825,0.30039291,534.0,-84.972427,2.702022,63.436066,0.9,-0.5,798.0
104.05,-128.062861495,0.300428705,534.5,-86.067661,2.630863,62.8582385,0.95,-0.45,797.5
104.1,-128.06278474,0.3004645,535.0,-87.162895,2.559704,62.280411,1.0,-0.4,797.0
104.15,-128.062690805,0.3005101049999999,536.0,-89.250656,2.111185,60.7149735,1.15,-0.4,796.5
104.2,-128.06259687,0.30055571,537.0,-91.338417,1.662666,59.149536,1.3,-0.4,796.0
104.25,-128.062516685,0.300597275,537.5,-92.577507,1.3807245,58.1970825,1.4,-0.45,795.5
104.3,-128.0624365,0.30063884,538.0,-93.816597,1.098783,57.244629,1.5,-0.5,795.0
104.35,-128.06234715,0.30069252,538.0,-95.1305315,0.6440670000000001,56.074188500000005,1.6,-0.5,794.0
104.4,-128.0622578,0.3007462,538.0,-96.444466,0.189351,54.903748,1.7,-0.5,793.0
104.45,-128.062179335,0.30079353,538.5,-97.7332995,-0.3740395,53.6347505,1.85,-0.55,793.0
104.5,-128.06210087,0.30084086,539.0,-99.022133,-0.93743,52.365753,2.0,-0.6,793.0
104.55,-128.06202298,0.300896265,539.0,-99.788006,-1.2722205,51.6116715,2.05,-0.6499999999999999,792.0
104.6,-128.06194509,0.30095167,539.0,-100.553879,-1.607011,50.85759,2.1,-0.7,791.0
104.65,-128.06186262,0.3010122699999999,538.5,-101.720318,-2.3543975,49.556366,2.05,-0.75,790.5
104.7,-128.06178015,0.30107287,538.0,-102.886757,-3.101784,48.255142,2.0,-0.8,790.0
104.75,-128.06170971,0.30112827,538.0,-103.5274545,-3.5178815,47.5368345,1.9,-0.8500000000000001,789.5
104.8,-128.06163927,0.30118367,538.0,-104.168152,-3.933979,46.818527,1.8,-0.9,789.0
104.85,-128.061562535,0.301251765,537.5,-104.8063315,-4.4587710000000005,45.9360275,1.75,-0.9,788.5
104.9,-128.0614858,0.30131986,537.0,-105.444511,-4.983563,45.053528,1.7,-0.9,788.0
104.95,-128.06141994,0.3013781399999999,536.5,-106.020023,-5.536192,44.137535,1.7,-0.9,788.0
105.0,-128.06135408,0.30143642,536.0,-106.595535,-6.088821,43.221542,1.7,-0.9,788.0
105.05,-128.06127735,0.30151432,534.5,-106.975113,-6.453298500000001,42.617416,1.6,-0.95,787.5
105.1,-128.06120062,0.30159222,533.0,-107.354691,-6.817776,42.01329,1.5,-1.0,787.0
105.15,-128.061143355,0.301651655,532.0,-107.6180155,-7.444734,40.9770965,1.5,-1.0,787.0
105.2,-128.06108609,0.30171109,531.0,-107.88134,-8.071692,39.940903,1.5,-1.0,787.0
105.25,-128.061023105,0.30177975,530.0,-108.056179,-8.4879745,39.2529145,1.45,-1.0,787.0
105.3,-128.06096012,0.30184841,529.0,-108.231018,-8.904257,38.564926,1.4,-1.0,787.0
105.35,-128.06089198,0.301931495,527.0,-108.102188,-9.366114,37.861229,1.25,-1.0,786.5
105.4,-128.06082384,0.30201458,525.0,-107.973358,-9.827971,37.157532,1.1,-1.0,786.0
105.45,-128.060769445,0.3020803549999999,524.0,-107.644207,-10.2683795,36.524605,1.0,-1.0,786.0
105.5,-128.06071505,0.30214613,523.0,-107.315056,-10.708788,35.891678,0.9,-1.0,786.0
105.55,-128.06065665,0.302225175,521.0,-107.09198,-11.007273,35.4627305,0.8500000000000001,-1.05,786.0
105.6,-128.06059825,0.30230422,519.0,-106.868904,-11.305758,35.033783,0.8,-1.1,786.0
105.65,-128.06054329,0.302380955,517.0,-105.6469765,-11.5952305,34.566078000000005,0.6000000000000001,-1.1,786.0
105.7,-128.06048833,0.30245769,515.0,-104.425049,-11.884703,34.098373,0.4,-1.1,786.0
105.75,-128.06043451,0.302535575,513.0,-103.5516055,-12.0734275,33.789497,0.15,-1.05,786.0
105.8,-128.06038069,0.30261346,511.0,-102.678162,-12.262152,33.480621,-0.1,-1.0,786.0
105.85,-128.06033431999998,0.302684425,509.0,-101.5001145,-12.3824475,32.987808,-0.2,-0.95,786.5
105.9,-128.06028795,0.30275539,507.0,-100.322067,-12.502743,32.494995,-0.3,-0.9,787.0
105.95,-128.06022783999998,0.3028477,504.0,-98.305744,-12.630437,31.607116500000004,-0.35,-0.75,787.5
106.0,-128.06016773,0.30294001,501.0,-96.289421,-12.758131,30.719238,-0.4,-0.6,788.0
106.05,-128.06012421999998,0.30301443,499.0,-95.4039995,-12.814204,30.329353,-0.45,-0.55,788.0
106.1,-128.06008071,0.30308885,497.0,-94.518578,-12.870277,29.939468,-0.5,-0.5,788.0
106.15,-128.06003491500002,0.303166155,494.5,-92.2222675,-12.9311535,29.2279355,-0.5,-0.4,788.0
106.2,-128.05998912,0.30324346,492.0,-89.925957,-12.99203,28.516403,-0.5,-0.3,788.0
106.25,-128.059938745,0.303334035,489.5,-88.175415,-13.0350885,27.9858625,-0.45,-0.25,788.5
106.3,-128.05988837,0.30342461,487.0,-86.424873,-13.078147,27.455322,-0.4,-0.2,789.0
106.35,-128.059850595,0.3034972999999999,485.0,-84.0853005,-13.116565,26.9969555,-0.4,-0.2,789.0
106.4,-128.05981282,0.30356999,483.0,-81.745728,-13.154983,26.538589,-0.4,-0.2,789.0
106.45,-128.059783055,0.30362826,481.5,-80.4495165,-13.1735745,26.319923000000003,-0.45,-0.2,789.0
106.5,-128.05975329,0.30368653,480.0,-79.153305,-13.192166,26.101257,-0.5,-0.2,789.0
106.55,-128.05970178,0.3037921,476.5,-77.655777,-13.2136455,25.848625,-0.65,-0.15,789.5
106.6,-128.05965027,0.30389767,473.0,-76.158249,-13.235125,25.595993,-0.8,-0.1,790.0
106.65,-128.059607345,0.3039888149999999,470.5,-73.3263015,-13.0028515,24.563553,-0.65,0.0,790.0
106.7,-128.05956442,0.30407996,468.0,-70.494354,-12.770578,23.531113,-0.5,0.1,790.0
106.75,-128.05952722,0.30416303,465.5,-68.93997949999999,-12.638796500000002,22.955719,-0.3,0.15,790.0
106.8,-128.05949002,0.3042461,463.0,-67.385605,-12.507015,22.380325,-0.1,0.2,790.0
106.85,-128.05945168,0.304339555,460.5,-65.1853545,-12.222077,22.0532835,-0.15,0.25,790.0
106.9,-128.05941334,0.30443301,458.0,-62.985104,-11.937139,21.726242,-0.2,0.3,790.0
106.95,-128.05937785999998,0.304518965,455.5,-60.906521,-11.635361,21.578758,-0.35,0.4499999999999999,790.0
107.0,-128.05934238,0.30460492,453.0,-58.827938,-11.333583,21.431274,-0.5,0.6,790.0
107.05,-128.05931491,0.3046776,451.0,-57.7417355,-11.1758835,21.3541945,-0.5,0.7,790.5
107.1,-128.05928744,0.30475028,449.0,-56.655533,-11.018184,21.277115,-0.5,0.8,791.0
107.15,-128.05925197,0.304847195,447.0,-53.630541,-10.6618555,21.481163,-0.55,1.05,791.0
107.2,-128.0592165,0.30494411,445.0,-50.605549,-10.305527,21.685211,-0.6,1.3,791.0
107.25,-128.05918502999998,0.3050312149999999,442.5,-48.678631,-10.083451,21.839981,-0.75,1.6,791.0
107.3,-128.05915356,0.30511832,440.0,-46.751713,-9.861375,21.994751,-0.9,1.9,791.0
107.35,-128.05911865500002,0.305216385,438.0,-44.092497,-9.648285,22.0913775,-0.95,2.1,791.5
107.4,-128.05908375,0.30531445,436.0,-41.433281,-9.435195,22.188004,-1.0,2.3,792.0
107.45,-128.059054,0.30539867,434.0,-38.6877785,-9.253548,22.2397465,-1.0,2.45,792.0
107.5,-128.05902425,0.30548289,432.0,-35.942276,-9.071901,22.291489,-1.0,2.6,792.0
107.55,-128.05898935,0.3055826849999999,430.0,-34.0305385,-8.945417500000001,22.327515,-1.0,2.7,792.5
107.6,-128.05895445,0.30568248,428.0,-32.118801,-8.818934,22.363541,-1.0,2.8,793.0
107.65,-128.05892526999995,0.30576555,426.5,-28.4193095,-8.7031945,22.3271255,-0.95,2.85,793.0
107.7,-128.05889609,0.30584862,425.0,-24.719818,-8.587455,22.29071,-0.9,2.9,793.0
107.75,-128.058860045,0.30595245,423.0,-21.85713,-8.5009555,22.2600095,-0.9,2.85,793.0
107.8,-128.058824,0.30605628,421.0,-18.994442,-8.414456,22.229309,-0.9,2.8,793.0
107.85,-128.058794825,0.30613877,419.5,-16.554724999999998,-8.290453,22.268051,-0.8500000000000001,2.75,793.5
107.9,-128.05876565,0.30622126,418.0,-14.115008,-8.16645,22.306793,-0.8,2.7,794.0
107.95,-128.05873189,0.306318175,416.0,-10.5856925,-7.947177,22.414314,-0.7,2.7,794.0
108.0,-128.05869813,0.30641509,414.0,-7.056377,-7.727904,22.521835,-0.6,2.7,794.0
108.05,-128.05866838,0.306498155,413.0,-5.3312665,-7.620725,22.5743865,-0.5,2.6500000000000004,794.0
108.1,-128.05863863,0.30658122,412.0,-3.606156,-7.513546,22.626938,-0.4,2.6,794.0
108.15,-128.058604875,0.30667467,410.5,0.4408414999999999,-6.9837025,22.997246,-0.3,2.55,794.0
108.2,-128.05857112,0.30676812,409.0,4.487839,-6.453859,23.367554,-0.2,2.5,794.0
108.25,-128.05854022,0.306851765,408.0,6.7078905,-6.158721,23.574669,-0.0499999999999999,2.5,794.0
108.3,-128.05850932,0.30693541,407.0,8.927942,-5.863583,23.781784,0.1,2.5,794.0
108.35,-128.058477275,0.30701848,406.0,11.112913,-5.477423,24.036583,0.2,2.4,793.5
108.4,-128.05844523,0.30710155,405.0,13.297884,-5.091263,24.291382,0.3,2.3,793.0
108.45,-128.05840575,0.3072025,404.0,17.126602,-4.268364999999999,24.81575,0.55,2.2,793.0
108.5,-128.05836627,0.30730345,403.0,20.95532,-3.445467,25.340118,0.8,2.1,793.0
108.55,-128.05832563500002,0.307398635,402.0,22.8996935,-3.0275675,25.606422,0.95,1.85,792.5
108.6,-128.058285,0.30749382,401.0,24.844067,-2.609668,25.872726,1.1,1.6,792.0
108.65,-128.05824666,0.30758208,401.0,28.245494,-1.6678595,26.4967955,1.2000000000000002,1.35,792.0
108.7,-128.05820832,0.30767034,401.0,31.646921,-0.726051,27.120865,1.3,1.1,792.0
108.75,-128.058175125,0.307744185,400.5,33.6828125,-0.1550685,27.4998475,1.35,0.8500000000000001,791.5
108.8,-128.05814193,0.30781803,400.0,35.718704,0.415914,27.87883,1.4,0.6,791.0
108.85,-128.05809328,0.3079161,400.0,38.247879,1.3029350000000002,28.773773,1.5499999999999998,0.25,790.0
108.9,-128.05804463,0.30801417,400.0,40.777054,2.189956,29.668716,1.7,-0.1,789.0
108.95,-128.058005135,0.30809378,400.0,42.862322,3.0249975,30.654129,1.9,-0.3,789.0
109.0,-128.05796564,0.30817339,400.0,44.94759,3.860039,31.639542,2.1,-0.5,789.0
109.05,-128.05791126,0.30826743,400.5,46.3219035,4.4103805,32.288994,2.2,-0.75,787.5
109.1,-128.05785688,0.30836147,401.0,47.696217,4.960722,32.938446,2.3,-1.0,786.0
109.15,-128.05780937,0.30844166,402.0,49.5890925,5.9601635,34.779358,2.45,-1.1,785.5
109.2,-128.05776186,0.30852185,403.0,51.481968,6.959605,36.62027,2.6,-1.2,785.0
109.25,-128.05771377000002,0.30859743,403.5,52.6534365,7.583604999999999,37.781006,2.75,-1.2,784.0
109.3,-128.05766568,0.30867301,404.0,53.824905,8.207605,38.941742,2.9,-1.2,783.0
109.35,-128.05760442000002,0.30875667,405.5,55.271608,8.9198445,40.591095,3.05,-1.2,781.5
109.4,-128.05754316,0.30884033,407.0,56.718311,9.632084,42.240448,3.2,-1.2,780.0
109.45,-128.057501935,0.308896295,408.0,57.8395955,10.157274,43.6180955,3.35,-1.15,779.5
109.5,-128.05746071,0.30895226,409.0,58.96088,10.682464,44.995743,3.5,-1.1,779.0
109.55,-128.05738971,0.3090341949999999,410.5,59.885038,11.115321,46.1311875,3.6,-1.05,777.5
109.6,-128.05731871,0.30911613,412.0,60.809196,11.548178,47.266632,3.7,-1.0,776.0
109.65,-128.057254575,0.30918537,414.0,62.419769,12.127023,49.3809125,3.8,-1.0,774.5
109.7,-128.05719044,0.30925461,416.0,64.030342,12.705868,51.495193,3.9,-1.0,773.0
109.75,-128.05712745,0.3093175099999999,418.0,65.02664200000001,13.060842,52.8054805,3.95,-0.9,772.5
109.8,-128.05706446,0.30938041,420.0,66.022942,13.415816,54.115768,4.0,-0.8,772.0
109.85,-128.05700260999998,0.309432345,422.0,67.12846400000001,13.7374445,55.490676500000006,4.0,-0.8500000000000001,770.0
109.9,-128.05694076,0.30948428,424.0,68.233986,14.059073,56.865585,4.0,-0.9,768.0
109.95,-128.056856005,0.30955584,426.5,69.60454200000001,14.4073865,58.514999,3.95,-0.8500000000000001,766.5
110.0,-128.05677125,0.3096274,429.0,70.975098,14.7557,60.164413,3.9,-0.8,765.0
110.05,-128.05670138,0.30967415,431.0,71.583332,14.910276,60.896385,3.85,-0.8500000000000001,764.0
110.1,-128.05663151,0.3097209,433.0,72.191566,15.064852,61.628357,3.8,-0.9,763.0
110.15,-128.05655647999998,0.309769385,435.5,73.932266,15.0798815,62.2798615,3.5,-0.9,761.5
110.2,-128.05648145,0.30981787,438.0,75.672966,15.094911,62.931366,3.2,-0.9,760.0
110.25,-128.056392105,0.30987155,441.0,76.87983700000001,15.0989675,63.3615725,2.75,-0.9,759.5
110.3,-128.05630276,0.30992523,444.0,78.086708,15.103024,63.791779,2.3,-0.9,759.0
110.35,-128.056231165,0.30996391,446.5,79.372814,15.010223,64.361977,2.15,-0.9,758.5
110.4,-128.05615957,0.31000259,449.0,80.65892,14.917422,64.932175,2.0,-0.9,758.0
110.45,-128.056075945,0.310047615,451.5,82.4862515,14.729468,65.806885,1.8,-0.9,757.0
110.5,-128.05599232,0.31009264,454.0,84.313583,14.541514,66.681595,1.6,-0.9,756.0
110.55,-128.05591728500002,0.310127285,456.5,85.24262999999999,14.4459545,67.1263125,1.4,-0.9,755.5
110.6,-128.05584225,0.31016193,459.0,86.171677,14.350395,67.57103,1.2,-0.9,755.0
110.65,-128.055754615,0.3102017649999999,461.5,87.9763985,14.0460185,69.25761449999999,1.25,-0.9,754.0
110.7,-128.05566698,0.3102416,464.0,89.78112,13.741642,70.944199,1.3,-0.9,753.0
110.75,-128.055594235,0.31027163,466.0,90.6753425,13.5890245,71.7923585,1.4500000000000002,-0.8500000000000001,752.5
110.8,-128.05552149,0.31030166,468.0,91.569565,13.436407,72.640518,1.6,-0.8,752.0
110.85,-128.05542984,0.310333425,470.5,92.8078385,13.192801,73.3802185,1.6,-0.8500000000000001,751.0
110.9,-128.05533819,0.31036519,473.0,94.046112,12.949195,74.119919,1.6,-0.9,750.0
110.95,-128.05526601499997,0.3103906,475.0,95.1349105,12.721591,74.589737,1.4,-0.8500000000000001,749.5
111.0,-128.05519384,0.31041601,477.0,96.223709,12.493987,75.059555,1.2,-0.8,749.0
111.05,-128.05510906,0.310440855,479.0,96.929241,12.3465005,75.36399850000001,1.1,-0.8500000000000001,748.5
111.1,-128.05502428,0.3104657,481.0,97.634773,12.199014,75.668442,1.0,-0.9,748.0
111.15,-128.054926325,0.310492855,483.5,99.645355,11.9633615,75.693207,0.7,-0.95,747.5
111.2,-128.05482837,0.31052001,486.0,101.655937,11.727709,75.717972,0.4,-1.0,747.0
111.25,-128.054748175,0.31054081,488.0,102.7747535,11.6021535,75.706299,0.05,-1.0,746.5
111.3,-128.05466798,0.31056161,490.0,103.89357,11.476598,75.694626,-0.3,-1.0,746.0
111.35,-128.054574605,0.310584725,492.0,105.641613,11.2668015,75.9495165,-0.4499999999999999,-1.0,746.0
111.4,-128.05448123,0.31060784,494.0,107.389656,11.057005,76.204407,-0.6,-1.0,746.0
111.45,-128.05440046,0.31062749,495.5,109.2527465,10.8274345,76.59558100000001,-0.6499999999999999,-0.95,745.5
111.5,-128.05431969,0.31064714,497.0,111.115837,10.597864,76.986755,-0.7,-0.9,745.0
111.55,-128.054225745,0.31066737,499.0,112.3872415,10.441201,77.253738,-0.75,-0.9,744.5
111.6,-128.0541318,0.3106876,501.0,113.658646,10.284538,77.520721,-0.8,-0.9,744.0
111.65,-128.05405388999998,0.310704365,502.5,116.0022775,9.759669,78.2437285,-0.75,-0.9,743.5
111.7,-128.05397598,0.31072113,504.0,118.345909,9.2348,78.966736,-0.7,-0.9,743.0
111.75,-128.053892915,0.310737895,505.5,119.8825415,8.886709,79.444626,-0.6,-0.95,743.0
111.8,-128.05380985,0.31075466,507.0,121.419174,8.538618,79.922516,-0.5,-1.0,743.0
111.85,-128.05371361,0.310771435,508.0,123.2466885,8.105984,80.3638305,-0.5,-1.05,742.5
111.9,-128.05361737,0.31078821,509.0,125.074203,7.67335,80.805145,-0.5,-1.1,742.0
111.95,-128.053530295,0.310803825,510.5,127.2487255,7.144998,81.2378845,-0.55,-1.1,741.5
112.0,-128.05344322,0.31081944,512.0,129.423248,6.616646,81.670624,-0.6,-1.1,741.0
112.05,-128.05334239500002,0.3108339049999999,513.0,130.79361699999998,6.28368,81.9433135,-0.6499999999999999,-1.1,740.5
112.1,-128.05324157,0.31084837,514.0,132.163986,5.950714,82.216003,-0.7,-1.1,740.0
112.15,-128.05316538,0.310859365,514.5,134.59001899999998,5.433747,82.4605255,-0.8,-1.05,739.5
112.2,-128.05308919,0.31087036,515.0,137.016052,4.91678,82.705048,-0.9,-1.0,739.0
112.25,-128.05299123,0.3108830999999999,516.0,138.9525605,4.5055135,82.8956455,-1.0,-1.0,738.5
112.3,-128.05289327,0.31089584,517.0,140.889069,4.094247,83.086243,-1.1,-1.0,738.0
112.35,-128.05281593,0.310905105,517.5,142.705399,3.6395215,83.292847,-1.0,-1.05,738.0
112.4,-128.05273859,0.31091437,518.0,144.521729,3.184796,83.499451,-0.9,-1.1,738.0
112.45,-128.052660105,0.310923635,518.0,146.737862,2.5929785,83.7664035,-0.75,-1.15,738.0
112.5,-128.05258162,0.3109329,518.0,148.953995,2.001161,84.033356,-0.6,-1.2,738.0
112.55,-128.052480795,0.31094333,518.5,150.496498,1.589238,84.219162,-0.6,-1.2,737.5
112.6,-128.05237997,0.31095376,519.0,152.039001,1.177315,84.404968,-0.6,-1.2,737.0
112.65,-128.052293465,0.3109624549999999,518.5,154.7985915,0.2686919999999999,84.607849,-0.6,-1.15,736.5
112.7,-128.05220696,0.31097115,518.0,157.558182,-0.639931,84.81073,-0.6,-1.1,736.0
112.75,-128.05211587000002,0.310979845,518.0,159.4809495,-1.279463,84.9472505,-0.55,-1.0,735.5
112.8,-128.05202478,0.31098854,518.0,161.403717,-1.918995,85.083771,-0.5,-0.9,735.0
112.85,-128.05194343,0.3109955,517.5,157.59975450000002,-2.3175505,85.1288605,-0.55,-0.9,734.5
112.9,-128.05186208,0.31100246,517.0,153.795792,-2.716106,85.17395,-0.6,-0.9,734.0
112.95,-128.05176812500002,0.31101058,516.0,143.37925,-3.1123985,85.165741,-0.8999999999999999,-0.8500000000000001,734.0
113.0,-128.05167417,0.3110187,515.0,132.962708,-3.508691,85.157532,-1.2,-0.8,734.0
113.05,-128.051589385,0.31102624,514.5,127.887928,-3.701758,85.1535495,-1.35,-0.8500000000000001,734.0
113.1,-128.0515046,0.31103378,514.0,122.813148,-3.894825,85.149567,-1.5,-0.9,734.0
113.15,-128.05140319499998,0.3110419,512.5,60.599236,-4.202407,85.141907,-1.6,-1.0,734.0
113.2,-128.05130179,0.31105002,511.0,-1.614676,-4.509989,85.134247,-1.7,-1.1,734.0
113.25,-128.051229035,0.3110564,510.5,-28.970386,-4.640574,85.1309665,-1.7999999999999998,-1.15,733.5
113.3,-128.05115628,0.31106278,510.0,-56.326096,-4.771159,85.127686,-1.9,-1.2,733.0
113.35,-128.051070345,0.31107032,508.5,-76.525124,-5.067727,85.0742955,-1.95,-0.8999999999999999,732.5
113.4,-128.05098441,0.31107786,507.0,-96.724152,-5.364295,85.020905,-2.0,-0.6,732.0
113.45,-128.05089275,0.311085405,505.5,-110.4542275,-5.965677,84.8827515,-1.9,-0.35,732.0
113.5,-128.05080109,0.31109295,504.0,-124.184303,-6.567059,84.744598,-1.8,-0.1,732.0
113.55,-128.05071801999998,0.311100485,503.0,-131.2379185,-6.876009,84.6736145,-1.75,-0.05,731.5
113.6,-128.05063495,0.31110802,502.0,-138.291534,-7.184959,84.602631,-1.7,-0.0,731.0
113.65,-128.050532405,0.311117875,500.0,-141.0206905,-8.4129335,84.0379185,-1.45,-0.05,730.5
113.7,-128.05042986,0.31112773,498.0,-143.749847,-9.640908,83.473206,-1.2,-0.1,730.0
113.75,-128.05035309,0.311135265,496.5,-144.5564115,-10.336046,83.1453095,-0.8999999999999999,-0.15,729.5
113.8,-128.05027632,0.3111428,495.0,-145.362976,-11.031184,82.817413,-0.6,-0.2,729.0
113.85,-128.050193255,0.311153225,492.5,-144.9072645,-11.8131015,82.336151,-0.5,-0.35,728.5
113.9,-128.05011019,0.31116365,490.0,-144.451553,-12.595019,81.854889,-0.4,-0.5,728.0
113.95,-128.05002711999998,0.311173495,488.0,-142.718559,-13.5702255,81.1586,-0.35,-0.55,727.5
114.0,-128.04994405,0.31118334,486.0,-140.985565,-14.545432,80.462311,-0.3,-0.6,727.0
114.05,-128.049854685,0.311197225,483.0,-139.9813765,-15.1105155,80.05882249999999,-0.15,-0.6,726.0
114.1,-128.04976532,0.31121111,480.0,-138.977188,-15.675599,79.655334,0.0,-0.6,725.0
114.15,-128.049676525,0.31122557,477.5,-136.08683000000002,-16.5686565,78.490173,0.2,-0.5,724.5
114.2,-128.04958773,0.31124003,475.0,-133.196472,-17.461714,77.325012,0.4,-0.4,724.0
114.25,-128.049502375,0.31125622,472.0,-131.2478105,-18.034241,76.539322,0.55,-0.35,723.0
114.3,-128.04941702,0.31127241,469.0,-129.299149,-18.606768,75.753632,0.7,-0.3,722.0
114.35,-128.049344265,0.311288595,465.5,-127.142136,-19.1458645,74.69648749999999,0.8,-0.3,721.0
114.4,-128.04927151,0.31130478,462.0,-124.985123,-19.684961,73.639343,0.9,-0.3,720.0
114.45,-128.04919246,0.3113227,459.0,-121.715256,-20.4256875,71.8852845,1.2,-0.25,719.5
114.5,-128.04911341,0.31134062,456.0,-118.445389,-21.166414,70.131226,1.5,-0.2,719.0
114.55,-128.049023475,0.31136777,452.0,-116.536167,-21.598912,69.10706350000001,1.75,-0.2,717.5
114.6,-128.04893354,0.31139492,448.0,-114.626945,-22.03141,68.082901,2.0,-0.2,716.0
114.65,-128.0488585,0.31141976,444.5,-110.774845,-22.4864815,65.93594350000001,2.25,-0.2,715.0
114.7,-128.04878346,0.3114446,441.0,-106.922745,-22.941553,63.788986,2.5,-0.2,714.0
114.75,-128.04871357500002,0.31147001,437.5,-104.7087555,-23.203103,62.5550305,2.7,-0.2,713.0
114.8,-128.04864369,0.31149542,434.0,-102.494766,-23.464653,61.321075,2.9,-0.2,712.0
114.85,-128.048562355,0.31153295,429.5,-99.320236,-23.534671,59.5535505,3.1,-0.3,710.0
114.9,-128.04848102,0.31157048,425.0,-96.145706,-23.604689,57.786026,3.3,-0.4,708.0
114.95,-128.04841342999998,0.31160108,421.0,-93.126728,-23.531513500000003,56.1059265,3.45,-0.35,707.0
115.0,-128.04834584,0.31163168,417.0,-90.10775,-23.458338,54.425827,3.6,-0.3,706.0
115.05,-128.048282265,0.311669775,413.5,-88.259636,-23.413543,53.397331,3.75,-0.4,704.5
115.1,-128.04821869,0.31170787,410.0,-86.411522,-23.368748,52.368835,3.9,-0.5,703.0
115.15,-128.04815625999998,0.31174712,406.0,-82.7510565,-22.73014,50.1912685,4.1,-0.5,701.5
115.2,-128.04809383,0.31178637,402.0,-79.090591,-22.091532,48.013702,4.3,-0.5,700.0
115.25,-128.04803369500002,0.3118262,398.5,-76.796459,-21.6803665,46.646179,4.5,-0.45,699.0
115.3,-128.04797356,0.31186603,395.0,-74.502327,-21.269201,45.278656,4.7,-0.4,698.0
115.35,-128.047904265,0.31192316,391.0,-71.9899675,-20.4290475,43.440445,4.85,-0.4,695.5
115.4,-128.04783497,0.31198029,387.0,-69.477608,-19.588894,41.602234,5.0,-0.4,693.0
115.45,-128.04778056499998,0.31202473,383.5,-67.5731735,-18.767051,40.047249,5.15,-0.35,692.0
115.5,-128.04772616,0.31206917,380.0,-65.668739,-17.945208,38.492264,5.3,-0.3,691.0
115.55,-128.04766546000002,0.312130915,376.5,-64.3174935,-17.3620875,37.388962,5.55,-0.2,688.5
115.6,-128.04760476,0.31219266,373.0,-62.966248,-16.778967,36.28566,5.8,-0.1,686.0
115.65,-128.04755666,0.312244015,370.0,-61.537804,-15.563975500000002,34.438773999999995,6.0,0.0,684.0
115.7,-128.04750856,0.31229537,367.0,-60.10936,-14.348984,32.591888,6.2,0.1,682.0
115.75,-128.04745359,0.312359415,364.0,-59.057682,-13.428006,31.2020645,6.45,0.25,680.5
115.8,-128.04739862,0.31242346,361.0,-58.006004,-12.507028,29.812241,6.7,0.4,679.0
115.85,-128.047356825,0.31248116,358.5,-57.2851025,-11.7614885,28.784386,6.800000000000001,0.45,677.0
115.9,-128.04731503,0.31253886,356.0,-56.564201,-11.015949,27.756531,6.9,0.5,675.0
115.95,-128.047261785,0.312613865,353.0,-55.6183415,-9.8708,26.298111,6.800000000000001,0.55,673.0
116.0,-128.04720854,0.31268887,350.0,-54.672482,-8.725651,24.839691,6.7,0.6,671.0
116.05,-128.04717190000002,0.31275118,348.5,-54.23893,-8.2007485,24.1711885,6.65,0.6499999999999999,669.0
116.1,-128.04713526,0.31281349,347.0,-53.805378,-7.675846,23.502686,6.6,0.7,667.0
116.15,-128.04709519,0.312885605,345.0,-53.2341025,-6.531872,21.823662,6.6,0.7,665.5
116.2,-128.04705512,0.31295772,343.0,-52.662827,-5.387898,20.144638,6.6,0.7,664.0
116.25,-128.04701906000005,0.31302637,341.0,-52.326977,-4.685384,19.1046675,6.6,0.75,662.5
116.3,-128.046983,0.31309502,339.0,-51.991127,-3.98287,18.064697,6.6,0.8,661.0
116.35,-128.04695496,0.313161365,338.0,-51.7961065,-3.363054,17.150261,6.6,0.8,658.5
116.4,-128.04692692,0.31322771,337.0,-51.601086,-2.743238,16.235825,6.6,0.8,656.0
116.45,-128.04689201000002,0.313310205,336.0,-51.409647,-1.415361,14.2837145,6.699999999999999,0.8,654.0
116.5,-128.0468571,0.3133927,335.0,-51.218208,-0.087484,12.331604,6.8,0.8,652.0
116.55,-128.046836505,0.313455575,334.0,-51.130451,0.5212484999999999,11.4367065,7.05,0.8,650.0
116.6,-128.04681591,0.31351845,333.0,-51.042694,1.129981,10.541809,7.3,0.8,648.0
116.65,-128.046787885,0.3136107449999999,332.5,-51.2487965,2.309938,8.70002,7.4,0.7,645.0
116.7,-128.04675986,0.31370304,332.0,-51.454899,3.489895,6.858231,7.5,0.6,642.0
116.75,-128.04674212999998,0.3137687999999999,331.5,-51.584677,4.088025,5.9174045,7.5,0.55,640.0
116.8,-128.0467244,0.31383456,331.0,-51.714455,4.686155,4.976578,7.5,0.5,638.0
116.85,-128.046706685,0.31392743,331.0,-51.6747955,5.4866945000000005,3.6264575,7.45,0.5,635.0
116.9,-128.04668897,0.3140203,331.0,-51.635136,6.287234,2.276337,7.4,0.5,632.0
116.95,-128.046675825,0.314086635,331.5,-51.5184135,6.896729,1.2115635,7.300000000000001,0.45,630.5
117.0,-128.04666268,0.31415297,332.0,-51.401691,7.506224,0.14679,7.2,0.4,629.0
117.05,-128.046655265,0.314224495,332.0,-51.327009,7.896192,-0.534462,7.1,0.3,627.0
117.1,-128.04664785,0.31429602,332.0,-51.252327,8.28616,-1.215714,7.0,0.2,625.0
117.15,-128.04664101,0.31437273,333.0,-49.677574,9.366202,-2.241486,6.85,0.1,622.5
117.2,-128.04663417,0.31444944,334.0,-48.102821,10.446244,-3.267258,6.7,-0.0,620.0
117.25,-128.04662905,0.31452154,334.5,-47.0799825,11.121844,-3.8851395,6.550000000000001,-0.1,618.5
117.3,-128.04662393,0.31459364,335.0,-46.057144,11.797444,-4.503021,6.4,-0.2,617.0
117.35,-128.046623965,0.314668045,336.5,-44.04578,12.728606,-5.0012665,6.35,-0.35,615.0
117.4,-128.046624,0.31474245,338.0,-42.034416,13.659768,-5.499512,6.3,-0.5,613.0
117.45,-128.046623465,0.314814545,339.0,-39.6317995,14.649806,-5.874176,6.15,-0.5,611.5
117.5,-128.04662293,0.31488664,340.0,-37.229183,15.639844,-6.24884,6.0,-0.5,610.0
117.55,-128.046625835,0.314969695,342.0,-35.6924745,16.273071,-6.4884640000000005,5.9,-0.6,608.0
117.6,-128.04662874,0.31505275,344.0,-34.155766,16.906298,-6.728088,5.8,-0.7,606.0
117.65,-128.04663220999998,0.31512023,346.0,-30.4526275,18.4424785,-6.83271,5.8,-0.7,604.0
117.7,-128.04663568,0.31518771,348.0,-26.749489,19.978659,-6.937332,5.8,-0.7,602.0
117.75,-128.046639725,0.315259225,350.0,-24.37451,20.963876,-7.004425,5.8,-0.7,600.0
117.8,-128.04664377,0.31533074,352.0,-21.999531,21.949093,-7.071518,5.8,-0.7,598.0
117.85,-128.04664953,0.3154011049999999,354.5,-19.286707,23.1010495,-6.904472500000001,5.85,-0.85,596.0
117.9,-128.04665529,0.31547147,357.0,-16.573883,24.253006,-6.737427,5.9,-1.0,594.0
117.95,-128.04666163,0.3155464449999999,360.0,-12.8134655,25.867893,-6.3401035,6.0,-0.95,592.0
118.0,-128.04666797,0.31562142,363.0,-9.053048,27.48278,-5.94278,6.1,-0.9,590.0
118.05,-128.04667258,0.315680825,366.0,-7.233403,28.264216,-5.750526499999999,6.25,-1.05,587.5
118.1,-128.04667719,0.31574023,369.0,-5.413758,29.045652,-5.558273,6.4,-1.2,585.0
118.15,-128.04668238,0.31580252,372.0,-1.157407,30.4118305,-4.6651915,6.4,-1.25,582.5
118.2,-128.04668757,0.31586481,375.0,3.098944,31.778009,-3.77211,6.4,-1.3,580.0
118.25,-128.04669217999998,0.31592825,378.0,5.836330500000001,32.648835,-3.1902540000000004,6.300000000000001,-1.3,578.0
118.3,-128.04669679,0.31599169,381.0,8.573717,33.519661,-2.608398,6.2,-1.3,576.0
118.35,-128.04670026,0.316051095,385.0,11.459792,33.933139999999995,-2.1206815,6.050000000000001,-1.35,573.5
118.4,-128.04670373,0.3161105,389.0,14.345867,34.346619,-1.632965,5.9,-1.4,571.0
118.45,-128.04670777,0.31617971,393.5,18.7579365,34.519852,-1.001747,5.300000000000001,-1.35,569.0
118.5,-128.04671181,0.31624892,398.0,23.170006,34.693085,-0.370529,4.7,-1.3,567.0
118.55,-128.046713555,0.31630256,401.5,25.242169500000003,34.7744445,-0.0740735,4.4,-1.25,565.0
118.6,-128.0467153,0.3163562,405.0,27.314333,34.855804,0.222382,4.1,-1.2,563.0
118.65,-128.04671648,0.316420795,409.5,32.8264055,34.4258155,0.7464755,3.65,-1.1,561.0
118.7,-128.04671766,0.31648539,414.0,38.338478,33.995827,1.270569,3.2,-1.0,559.0
118.75,-128.04671826,0.31653903,417.5,41.044120500000005,33.7776035,1.5248795,2.75,-0.9,557.5
118.8,-128.04671886,0.31659267,421.0,43.749763,33.55938,1.77919,2.3,-0.8,556.0
118.85,-128.04671888500002,0.31664631,425.0,47.1516855,33.442181,2.4319915,2.2,-0.75,554.0
118.9,-128.04671891,0.31669995,429.0,50.553608,33.324982,3.084793,2.1,-0.7,552.0
118.95,-128.046718365,0.3167610899999999,433.0,55.699829,33.2654705,4.321861,2.2,-0.6,550.5
119.0,-128.04671782,0.31682223,437.0,60.84605,33.205959,5.558929,2.3,-0.5,549.0
119.05,-128.04671441,0.3168787549999999,441.5,63.482908,33.1754685,6.192787,2.4,-0.65,547.0
119.1,-128.046711,0.31693528,446.0,66.119766,33.144978,6.826645,2.5,-0.8,545.0
119.15,-128.046707595,0.31699584,450.0,71.96508,33.0613845,8.563164,2.75,-1.0,542.5
119.2,-128.04670419,0.3170564,454.0,77.810394,32.977791,10.299683,3.0,-1.2,540.0
119.25,-128.04669963,0.317109465,458.0,81.345661,32.9265655,11.363762,3.25,-1.4,538.5
119.3,-128.04669507,0.31716253,462.0,84.880928,32.87534,12.427841,3.5,-1.6,537.0
119.35,-128.046687075,0.317217905,465.5,89.428383,32.5361195,13.7232665,3.7,-1.85,534.5
119.4,-128.04667908,0.31727328,469.0,93.975838,32.196899,15.018692,3.9,-2.1,532.0
119.45,-128.0466728,0.317320575,472.5,97.9122775,31.807781,16.1144335,4.0,-2.25,530.5
119.5,-128.04666652,0.31736787,476.0,101.848717,31.418663,17.210175,4.1,-2.4,529.0
119.55,-128.046653945,0.317429015,480.0,104.6610375,31.140665,17.9930115,4.199999999999999,-2.7,526.5
119.6,-128.04664137,0.31749016,484.0,107.473358,30.862667,18.775848,4.3,-3.0,524.0
119.65,-128.04662994,0.317543805,487.5,112.6203725,29.7516535,19.7428815,4.3,-3.15,522.5
119.7,-128.04661851,0.31759745,491.0,117.767387,28.64064,20.709915,4.3,-3.3,521.0
119.75,-128.04660307,0.317658595,495.0,121.4987145,27.8224745,21.4011155,4.3,-3.4,518.5
119.8,-128.04658763,0.31771974,499.0,125.230042,27.004309,22.092316,4.3,-3.5,516.0
119.85,-128.04657333,0.317768195,502.0,128.774498,25.9319545,22.470169,4.35,-3.55,514.0
119.9,-128.04655903,0.31781665,505.0,132.318954,24.8596,22.848022,4.4,-3.6,512.0
119.95,-128.04654416,0.31786857,508.0,136.310005,23.525966500000003,23.15435,4.4,-3.5,510.5
120.0,-128.04652929,0.31792049,511.0,140.301056,22.192333,23.460678,4.4,-3.4,509.0
120.05,-128.04650927,0.31798048,514.0,142.70770249999998,21.388137,23.645401,4.45,-3.3,507.0
120.1,-128.04648925,0.31804047,517.0,145.114349,20.583941,23.830124,4.5,-3.2,505.0
120.15,-128.046471515,0.318092965,519.5,148.355896,18.6191085,23.923363,4.6,-3.0,503.5
120.2,-128.04645378,0.31814546,522.0,151.597443,16.654276,24.016602,4.7,-2.8,502.0
120.25,-128.04643318,0.3182043,524.5,153.69622049999998,15.3653615,24.07399,4.85,-2.55,500.5
120.3,-128.04641258,0.31826314,527.0,155.794998,14.076447,24.131378,5.0,-2.3,499.0
120.35,-128.046392555,0.31831564,529.0,157.20878599999998,12.711582,24.1609495,5.1,-2.05,497.0
120.4,-128.04637253,0.31836814,531.0,158.622574,11.346717,24.190521,5.2,-1.8,495.0
120.45,-128.04635021500002,0.318428135,533.0,160.024399,9.5369385,24.2114715,5.4,-1.55,493.5
120.5,-128.0463279,0.31848813,535.0,161.426224,7.72716,24.232422,5.6,-1.3,492.0
120.55,-128.046308445,0.31853601,536.0,162.082756,6.879562,24.2422335,5.75,-1.15,490.5
120.6,-128.04628899,0.31858389,537.0,162.739288,6.031964,24.252045,5.9,-1.0,489.0
120.65,-128.046264385,0.3186438849999999,538.5,164.687355,4.125739,24.1252825,5.9,-0.85,487.5
120.7,-128.04623978,0.31870388,540.0,166.635422,2.219514,23.99852,5.9,-0.7,486.0
120.75,-128.046220325,0.318751185,541.0,167.5267945,1.351838,23.9393695,5.800000000000001,-0.6499999999999999,485.0
120.8,-128.04620087,0.31879849,542.0,168.418167,0.484162,23.880219,5.7,-0.6,484.0
120.85,-128.046179125,0.318850985,542.5,169.4142915,-0.576398,23.826912,5.7,-0.55,482.5
120.9,-128.04615738,0.31890348,543.0,170.410416,-1.636958,23.773605,5.7,-0.5,481.0
120.95,-128.046133345,0.318961745,543.5,171.63969450000002,-3.0253645,23.7190475,5.65,-0.45,480.0
121.0,-128.04610931,0.31902001,544.0,172.868973,-4.413771,23.66449,5.6,-0.4,479.0
121.05,-128.046087565,0.3190701999999999,544.0,173.480751,-5.104749,23.6373445,5.5,-0.35,478.0
121.1,-128.04606582,0.31912039,544.0,174.092529,-5.795727,23.610199,5.4,-0.3,477.0
121.15,-128.046041785,0.31917808,543.5,173.53025050000002,-6.616685,23.6542585,5.0,-0.2,476.5
121.2,-128.04601775,0.31923577,543.0,172.967972,-7.437643,23.698318,4.6,-0.1,476.0
121.25,-128.04599486,0.319288845,543.0,172.564255,-7.9173915,23.728523000000003,4.199999999999999,-0.05,475.0
121.3,-128.04597197,0.31934192,543.0,172.160538,-8.39714,23.758728,3.8,-0.0,474.0
121.35,-128.04595022,0.319392685,542.0,170.4395525,-8.5331235,23.7824935,3.35,0.1,473.5
121.4,-128.04592847,0.31944345,541.0,168.718567,-8.669107,23.806259,2.9,0.2,473.0
121.45,-128.045904435,0.31949941,540.5,166.2561875,-8.6359245,23.8277815,2.2,0.25,472.5
121.5,-128.0458804,0.31955537,540.0,163.793808,-8.602742,23.849304,1.5,0.3,472.0
121.55,-128.045861515,0.319597485,539.5,162.651863,-8.587354,23.859275500000003,1.1,0.2,472.0
121.6,-128.04584263,0.3196396,539.0,161.509918,-8.571966,23.869247,0.7,0.1,472.0
121.65,-128.04581745000002,0.31969671,537.5,160.340004,-8.255377,24.0223385,0.1499999999999999,-0.1,471.5
121.7,-128.04579227,0.31975382,536.0,159.17009,-7.938788,24.17543,-0.4,-0.3,471.0
121.75,-128.045771095,0.31980228,535.5,158.57855999999998,-7.7546485,24.2642745,-0.8500000000000001,-0.5,470.5
121.8,-128.04574992,0.31985074,535.0,157.98703,-7.570509,24.353119,-1.3,-0.7,470.0
121.85,-128.04572646,0.319903815,533.5,155.677208,-7.4261105,24.5899355,-1.6,-0.9,470.0
121.9,-128.045703,0.31995689,532.0,153.367386,-7.281712,24.826752,-1.9,-1.1,470.0
121.95,-128.045679535,0.320009385,531.0,149.636444,-7.168499499999999,25.1862945,-2.2,-1.3,469.5
122.0,-128.04565607,0.32006188,530.0,145.905502,-7.055287,25.545837,-2.5,-1.5,469.0
122.05,-128.04563031499998,0.32011842,529.0,143.6002425,-6.985336,25.767967,-2.75,-1.65,468.5
122.1,-128.04560456,0.32017496,528.0,141.294983,-6.915385,25.990097,-3.0,-1.8,468.0
122.15,-128.04558453,0.320219955,527.0,86.654215,-7.196808,26.351822,-3.15,-1.85,467.5
122.2,-128.0455645,0.32026495,526.0,32.013447,-7.478231,26.713547,-3.3,-1.9,467.0
122.25,-128.045541035,0.32031687,524.5,-5.086706,-7.669312,26.95916,-3.4,-1.9,467.0
122.3,-128.04551757,0.32036879,523.0,-42.186859,-7.860393,27.204773,-3.5,-1.9,467.0
122.35,-128.04549296,0.320421865,522.0,-63.7185365,-8.2380475,27.371643,-3.55,-1.85,466.5
122.4,-128.04546835,0.32047494,521.0,-85.250214,-8.615702,27.538513,-3.6,-1.8,466.0
122.45,-128.045446605,0.3205228249999999,519.5,-96.0785715,-9.0893935,27.6483,-3.6,-1.7000000000000002,465.5
122.5,-128.04542486,0.32057071,518.0,-106.906929,-9.563085,27.758087,-3.6,-1.6,465.0
122.55,-128.04539796,0.3206284,516.5,-114.191036,-9.8817315,27.831932,-3.6,-1.4500000000000002,465.0
122.6,-128.04537106,0.32068609,515.0,-121.475143,-10.200378,27.905777,-3.6,-1.3,465.0
122.65,-128.04534874,0.320735125,513.5,-119.848167,-10.7902715,27.945526,-3.6,-1.15,464.5
122.7,-128.04532642,0.32078416,512.0,-118.221191,-11.380165,27.985275,-3.6,-1.0,464.0
122.75,-128.045302385,0.320835505,510.5,-116.900074,-11.775296,28.010414,-3.55,-0.85,464.0
122.8,-128.04527835,0.32088685,509.0,-115.578957,-12.170427,28.035553,-3.5,-0.7,464.0
122.85,-128.04525946,0.32092781,508.0,-113.187279,-12.479664,28.0613555,-3.5,-0.55,464.0
122.9,-128.04524057,0.32096877,507.0,-110.795601,-12.788901,28.087158,-3.5,-0.4,464.0
122.95,-128.04521482,0.321024155,505.0,-105.0605815,-13.3101425,28.1383515,-3.5,-0.2,463.5
123.0,-128.04518907,0.32107954,503.0,-99.325562,-13.831384,28.189545,-3.5,-0.0,463.0
123.05,-128.04516961000002,0.32112223,501.5,-96.806351,-14.060348,28.2120365,-3.45,0.15,463.0
123.1,-128.04515015,0.32116492,500.0,-94.28714,-14.289312,28.234528,-3.4,0.3,463.0
123.15,-128.04512726000002,0.321214535,498.5,-87.79512399999999,-14.7166415,27.718094,-3.25,0.4499999999999999,463.0
