Time,Longitude,Latitude,Altitude,Roll,Pitch,Yaw,AOA,AOS,TAS
63.2,-128.13363733,0.25586916,372.0,4.625565,-5.706545,41.149521,-1.7,0.1,913.0
63.25,-128.13356576,0.255951655,371.0,4.5435885,-5.652255500000001,41.161743,-1.7,0.1,913.0
63.3,-128.13349419,0.25603415,370.0,4.461612,-5.597966,41.173965,-1.7,0.1,913.0
63.35,-128.13341631999998,0.2561235699999999,369.0,4.3655305,-5.528423,41.188362,-1.7,0.1,912.5
63.4,-128.13333845,0.25621299,368.0,4.269449,-5.45888,41.202759,-1.7,0.1,912.0
63.45,-128.133268025,0.25629318,367.0,4.192595,-5.401328,41.2142945,-1.7,0.1,912.0
63.5,-128.1331976,0.25637337,366.0,4.115741,-5.343776,41.22583,-1.7,0.1,912.0
63.55,-128.13311743999998,0.256465095,365.0,4.0659515,-5.306490999999999,41.233307,-1.65,0.1,912.0
63.6,-128.13303728,0.25655682,364.0,4.016162,-5.269206,41.240784,-1.6,0.1,912.0
63.65,-128.132967995,0.25663643,363.5,3.9500885,-5.202106,41.254555,-1.6,0.05,912.0
63.7,-128.13289871,0.25671604,363.0,3.884015,-5.135006,41.268326,-1.6,0.0,912.0
63.75,-128.13282198500002,0.25680373,362.0,3.8405065,-5.090821999999999,41.2773975,-1.6,0.0,912.0
63.8,-128.13274526,0.25689142,361.0,3.796998,-5.046638,41.286469,-1.6,0.0,912.0
63.85,-128.132671975,0.2569750699999999,360.5,3.7592535,-4.9853025,41.300232,-1.65,0.0,911.5
63.9,-128.13259869,0.25705872,360.0,3.721509,-4.923967,41.313995,-1.7,0.0,911.0
63.95,-128.13253456,0.257131405,359.5,3.691149,-4.864681,41.327606,-1.7,0.05,911.0
64.0,-128.13247043,0.25720409,359.0,3.660789,-4.805395,41.341217,-1.7,0.1,911.0
64.05,-128.132391415,0.257294665,358.0,3.639216,-4.763268999999999,41.3508985,-1.7,0.1,911.0
64.1,-128.1323124,0.25738524,357.0,3.617643,-4.721143,41.36058,-1.7,0.1,911.0
64.15,-128.13224369,0.257463695,356.5,3.518534,-4.642192,41.379608000000005,-1.7,0.1,910.5
64.2,-128.13217498,0.25754215,356.0,3.419425,-4.563241,41.398636,-1.7,0.1,910.0
64.25,-128.132100545,0.257626955,355.0,3.357355,-4.513795999999999,41.410553,-1.7,0.05,910.0
64.3,-128.13202611,0.25771176,354.0,3.295285,-4.464351,41.42247,-1.7,0.0,910.0
64.35,-128.13195339499998,0.25779368,353.5,3.2045785,-4.435759,41.4332885,-1.7,0.05,910.0
64.4,-128.13188068,0.2578756,353.0,3.113872,-4.407167,41.444107,-1.7,0.1,910.0
64.45,-128.131809105,0.25795752,352.5,3.0082975000000003,-4.3897525,41.4543075,-1.75,0.1,909.5
64.5,-128.13173753,0.25803944,352.0,2.902723,-4.372338,41.464508,-1.8,0.1,909.0
64.55,-128.13166309500002,0.25812367,351.5,2.8415980000000003,-4.362255,41.470413,-1.8,0.1,909.0
64.6,-128.13158866,0.2582079,351.0,2.780473,-4.352172,41.476318,-1.8,0.1,909.0
64.65,-128.131506785,0.2583013549999999,350.0,2.6666525,-4.348807000000001,41.4827805,-1.8,0.1,909.0
64.7,-128.13142491,0.25839481,349.0,2.552832,-4.345442,41.489243,-1.8,0.1,909.0
64.75,-128.13135677,0.258472115,348.5,2.4985275,-4.343837000000001,41.492325,-1.8,0.1,908.5
64.8,-128.13128863,0.25854942,348.0,2.444223,-4.342232,41.495407,-1.8,0.1,908.0
64.85,-128.13121419499998,0.258634225,347.5,2.3895735,-4.335455,41.498558,-1.85,0.1,908.0
64.9,-128.13113976,0.25871903,347.0,2.334924,-4.328678,41.501709,-1.9,0.1,908.0
64.95,-128.13107048,0.25879691,346.5,2.2926345,-4.3209885,41.5041505,-1.9,0.1,908.0
65.0,-128.1310012,0.25887479,346.0,2.250345,-4.313299,41.506592,-1.9,0.1,908.0
65.05,-128.13093936,0.25894517,345.5,2.2279525,-4.3092275,41.5078815,-1.85,0.05,908.0
65.1,-128.13087752,0.25901555,345.0,2.20556,-4.305156,41.509171,-1.8,0.0,908.0
65.15,-128.130791635,0.2591130499999999,344.5,2.1970135,-4.306023,41.508385,-1.8,-0.05,908.0
65.2,-128.13070575,0.25921055,344.0,2.188467,-4.30689,41.507599,-1.8,-0.1,908.0
65.25,-128.13063876,0.2592867,343.5,2.185817,-4.307783000000001,41.507019,-1.85,-0.1,907.5
65.3,-128.13057177,0.25936285,343.0,2.183167,-4.308676,41.506439,-1.9,-0.1,907.0
65.35,-128.13048931999998,0.259456305,342.5,2.324584,-4.291286,41.498024,-1.9,-0.1,907.0
65.4,-128.13040687,0.25954976,342.0,2.466001,-4.273896,41.489609,-1.9,-0.1,907.0
65.45,-128.130339875,0.259625915,341.5,2.641174,-4.2520535,41.4795685,-1.9,-0.1,907.0
65.5,-128.13027288,0.25970207,341.0,2.816347,-4.230211,41.469528,-1.9,-0.1,907.0
65.55,-128.13019902000002,0.25978572,340.5,2.9350745,-4.215407,41.4627225,-1.9,-0.1,906.5
65.6,-128.13012516,0.25986937,340.0,3.053802,-4.200603,41.455917,-1.9,-0.1,906.0
65.65,-128.130064465,0.259937445,339.5,3.5165875,-4.1354690000000005,41.442749,-1.9,-0.05,906.0
65.7,-128.13000377,0.26000552,339.0,3.979373,-4.070335,41.429581,-1.9,-0.0,906.0
65.75,-128.129919605,0.2601012849999999,338.5,4.3224835,-4.022045,41.419815,-1.85,0.0,906.0
65.8,-128.12983544,0.26019705,338.0,4.665594,-3.973755,41.410049,-1.8,-0.0,906.0
65.85,-128.12976272,0.26027897,337.5,5.0637550000000005,-3.9375035,41.404312,-1.8,0.0,906.0
65.9,-128.12969,0.26036089,337.0,5.461916,-3.901252,41.398575,-1.8,0.0,906.0
65.95,-128.12960927,0.260452615,336.0,5.980832,-3.862498,41.393463,-1.8,0.0,906.0
66.0,-128.12952854,0.26054434,335.0,6.499748,-3.823744,41.388351,-1.8,0.0,906.0
66.05,-128.12948044,0.26059857,335.0,6.714224,-3.8077265,41.3862455,-1.8,0.0,906.0
66.1,-128.12943234,0.2606528,335.0,6.9287,-3.791709,41.38414,-1.8,0.0,906.0
66.15,-128.12934359,0.2607526049999999,334.5,7.5753825,-3.7863045,41.380478,-1.8,0.0,905.5
66.2,-128.12925484,0.26085241,334.0,8.222065,-3.7809,41.376816,-1.8,-0.0,905.0
66.25,-128.129175255,0.260942405,333.5,8.5873805,-3.778892,41.3748095,-1.8,0.0,905.0
66.3,-128.12909567,0.2610324,333.0,8.952696,-3.776884,41.372803,-1.8,-0.0,905.0
66.35,-128.12902925,0.2611074,332.5,9.3837945,-3.778063,41.371521,-1.85,0.0,904.5
66.4,-128.12896283,0.2611824,332.0,9.814893,-3.779242,41.370239,-1.9,0.0,904.0
66.45,-128.128875225,0.2612804749999999,331.5,10.397901,-3.7822845,41.368965,-1.9,0.0,904.0
66.5,-128.12878762,0.26137855,331.0,10.980909,-3.785327,41.367691,-1.9,0.0,904.0
66.55,-128.12872979,0.26144374,330.5,11.210667,-3.7865265,41.3671875,-1.9,0.0,904.0
66.6,-128.12867196,0.26150893,330.0,11.440425,-3.787726,41.366684,-1.9,0.0,904.0
66.65,-128.12860039,0.26158912,329.5,12.0787635,-3.788971,41.369377,-1.9,0.0,903.5
66.7,-128.12852882,0.26166931,329.0,12.717102,-3.790216,41.37207,-1.9,-0.0,903.0
66.75,-128.1284498,0.26175815,328.5,13.125085,-3.791012,41.3737945,-1.9,0.0,903.0
66.8,-128.12837078,0.26184699,328.0,13.533068,-3.791808,41.375519,-1.9,-0.0,903.0
66.85,-128.12830035500002,0.26192603,327.5,13.9761015,-3.797372,41.379593,-1.9,-0.05,903.0
66.9,-128.12822993,0.26200507,327.0,14.419135,-3.802936,41.383667,-1.9,-0.1,903.0
66.95,-128.128149195,0.262095065,326.5,14.9553555,-3.811743,41.38958,-1.9,-0.1,902.5
67.0,-128.12806846,0.26218506,326.0,15.491576,-3.82055,41.395493,-1.9,-0.1,902.0
67.05,-128.128000895,0.262260635,326.0,15.7441475,-3.824698,41.398262,-1.9,-0.1,902.0
67.1,-128.12793333,0.26233621,326.0,15.996719,-3.828846,41.401031,-1.9,-0.1,902.0
67.15,-128.12784973499998,0.262429095,325.5,16.6662655,-3.858598,41.407768,-1.9,-0.1,902.0
67.2,-128.12776614,0.26252198,325.0,17.335812,-3.88835,41.414505,-1.9,-0.1,902.0
67.25,-128.12769514,0.262601015,324.5,17.69043,-3.904374,41.4180605,-1.9,-0.05,902.0
67.3,-128.12762414,0.26268005,324.0,18.045048,-3.920398,41.421616,-1.9,-0.0,902.0
67.35,-128.12756402,0.26274697,323.5,18.447381,-3.934286,41.4292145,-1.9,-0.05,902.0
67.4,-128.1275039,0.26281389,323.0,18.849714,-3.948174,41.436813,-1.9,-0.1,902.0
67.45,-128.12742144499998,0.262904465,322.5,19.4132185,-3.9653795,41.449333,-1.9,-0.1,901.5
67.5,-128.12733899,0.26299504,322.0,19.976723,-3.982585,41.461853,-1.9,-0.1,901.0
67.55,-128.127277155,0.263063695,321.5,20.2240775,-3.9901375,41.4673385,-1.9,-0.1,901.0
67.6,-128.12721532,0.26313235,321.0,20.471432,-3.99769,41.472824,-1.9,-0.1,901.0
67.65,-128.127125995,0.263231,320.5,21.143178,-4.0179795,41.492378,-1.9,-0.15,901.0
67.7,-128.12703667,0.26332965,320.0,21.814924,-4.038269,41.511932,-1.9,-0.2,901.0
67.75,-128.12696567,0.263407535,319.5,22.147378,-4.0483065,41.52169,-1.9,-0.15,900.5
67.8,-128.12689467,0.26348542,319.0,22.479832,-4.058344,41.531448,-1.9,-0.1,900.0
67.85,-128.12682023500005,0.26356734,318.5,22.9075585,-4.0939695,41.546318,-1.9,-0.1,900.0
67.9,-128.1267458,0.26364926,318.0,23.335285,-4.129595,41.561188,-1.9,-0.1,900.0
67.95,-128.12667995,0.263721375,317.5,23.6989355,-4.167562,41.574608,-1.9,-0.1,900.0
68.0,-128.1266141,0.26379349,317.0,24.062586,-4.205529,41.588028,-1.9,-0.1,900.0
68.05,-128.126530505,0.26388522,316.0,24.317921,-4.232187,41.597458,-1.95,-0.1,900.0
68.1,-128.12644691,0.26397695,315.0,24.573256,-4.258845,41.606888,-2.0,-0.1,900.0
68.15,-128.12637132999998,0.26405945,314.5,24.931451000000003,-4.308815,41.654808,-2.0,-0.1,900.0
68.2,-128.12629575,0.26414195,314.0,25.289646,-4.358785,41.702728,-2.0,-0.1,900.0
68.25,-128.126228185,0.264215795,313.5,25.476181,-4.3848075,41.7276915,-2.0,-0.1,900.0
68.3,-128.12616062,0.26428964,313.0,25.662716,-4.41083,41.752655,-2.0,-0.1,900.0
68.35,-128.126075875,0.26438137,312.5,25.8188685,-4.425658,41.81723,-2.0,-0.1,900.0
68.4,-128.12599113,0.2644731,312.0,25.975021,-4.440486,41.881805,-2.0,-0.1,900.0
68.45,-128.12592471,0.264545215,311.5,26.061675,-4.445106,41.9403225,-1.95,-0.1,900.0
68.5,-128.12585829,0.26461733,311.0,26.148329,-4.449726,41.99884,-1.9,-0.1,900.0
68.55,-128.12578042,0.264700985,310.0,26.207864,-4.4529005,42.039024,-1.9,-0.1,900.0
68.6,-128.12570255,0.26478464,309.0,26.267399,-4.456075,42.079208,-1.9,-0.1,900.0
68.65,-128.12563269499998,0.264860215,308.5,26.2631045,-4.460555,42.1474685,-1.9,-0.1,900.0
68.7,-128.12556284,0.26493579,308.0,26.25881,-4.465035,42.215729,-1.9,-0.1,900.0
68.75,-128.12548611,0.26501829,307.5,26.2560225,-4.4679425,42.2600175,-1.9,-0.15,899.5
68.8,-128.12540938,0.26510079,307.0,26.253235,-4.47085,42.304306,-1.9,-0.2,899.0
68.85,-128.12533723500002,0.265178095,306.5,26.2242575,-4.477438,42.3560105,-1.9,-0.2,899.0
68.9,-128.12526509,0.2652554,306.0,26.19528,-4.484026,42.407715,-1.9,-0.2,899.0
68.95,-128.12518606999998,0.265339635,305.0,26.1576565,-4.4917295,42.460129,-1.9,-0.2,899.0
69.0,-128.12510705,0.26542387,304.0,26.120033,-4.499433,42.512543,-1.9,-0.2,899.0
69.05,-128.12503777,0.26549656,303.5,26.1023675,-4.5030495,42.537163,-1.9,-0.2,899.0
69.1,-128.12496849,0.26556925,303.0,26.084702,-4.506666,42.561783,-1.9,-0.2,899.0
69.15,-128.12489119,0.2656517499999999,302.5,26.0854885,-4.5142645,42.6207125,-1.9,-0.15,899.0
69.2,-128.12481389,0.26573425,302.0,26.086275,-4.521863,42.679642,-1.9,-0.1,899.0
69.25,-128.124732005,0.2658202149999999,301.0,26.087609,-4.526856,42.7185215,-1.9,-0.1,899.0
69.3,-128.12465012,0.26590618,300.0,26.088943,-4.531849,42.757401,-1.9,-0.1,899.0
69.35,-128.12458084000002,0.26597887,299.5,26.091058500000003,-4.523770000000001,42.815506,-1.9,-0.15,899.0
69.4,-128.12451156,0.26605156,299.0,26.093174,-4.515691,42.873611,-1.9,-0.2,899.0
69.45,-128.12443082,0.266136945,298.5,26.096032,-4.500223,42.9510725,-1.9,-0.2,899.0
69.5,-128.12435008,0.26622233,298.0,26.09889,-4.484755,43.028534,-1.9,-0.2,899.0
69.55,-128.124284235,0.26629041,297.5,26.1001385,-4.4779925,43.0624085,-1.9,-0.25,898.5
69.6,-128.12421839,0.26635849,297.0,26.101387,-4.47123,43.096283,-1.9,-0.3,898.0
69.65,-128.124129635,0.2664508,296.0,26.070548,-4.4236665,43.1970215,-1.9,-0.3,898.0
69.7,-128.12404088,0.26654311,295.0,26.039709,-4.376103,43.29776,-1.9,-0.3,898.0
69.75,-128.12397045,0.26661638,294.5,26.022436,-4.350168999999999,43.3510895,-1.85,-0.25,898.0
69.8,-128.12390002,0.26668965,294.0,26.005163,-4.324235,43.404419,-1.8,-0.2,898.0
69.85,-128.12381814,0.26677388,293.5,25.9893085,-4.2935105,43.4781725,-1.8,-0.2,898.0
69.9,-128.12373626,0.26685811,293.0,25.973454,-4.262786,43.551926,-1.8,-0.2,898.0
69.95,-128.123660675,0.26693542,292.0,25.9615765,-4.235251,43.623360000000005,-1.8,-0.2,898.0
70.0,-128.12358509,0.26701273,291.0,25.949699,-4.207716,43.694794,-1.8,-0.2,898.0
70.05,-128.12350550000002,0.26709408,290.5,25.942542,-4.1911225,43.737839,-1.8,-0.25,897.5
70.1,-128.12342591,0.26717543,290.0,25.935385,-4.174529,43.780884,-1.8,-0.3,897.0
70.15,-128.12335147,0.2672510099999999,289.5,25.8880695,-4.140622499999999,43.871048,-1.8,-0.3,897.0
70.2,-128.12327703,0.26732659,289.0,25.840754,-4.106716,43.961212,-1.8,-0.3,897.0
70.25,-128.123209465,0.267394665,288.5,25.814993,-4.0882565,44.0102845,-1.8,-0.3,897.0
70.3,-128.1231419,0.26746274,288.0,25.789232,-4.069797,44.059357,-1.8,-0.3,897.0
70.35,-128.123055435,0.26754986,287.5,25.733874,-4.033618000000001,44.141434,-1.8,-0.3,897.0
70.4,-128.12296897,0.26763698,287.0,25.678516,-3.997439,44.223511,-1.8,-0.3,897.0
70.45,-128.12289854,0.267707945,286.5,25.630611,-3.9668295,44.289848500000005,-1.8,-0.25,897.0
70.5,-128.12282811,0.26777891,286.0,25.582706,-3.93622,44.356186,-1.8,-0.2,897.0
70.55,-128.12275138,0.2678556399999999,285.5,25.552053,-3.916634,44.398643500000006,-1.8,-0.2,897.0
70.6,-128.12267465,0.26793237,285.0,25.5214,-3.897048,44.441101,-1.8,-0.2,897.0
70.65,-128.12260422,0.26800218,284.5,25.4649925,-3.8320855,44.54113,-1.8,-0.2,897.0
70.7,-128.12253379,0.26807199,284.0,25.408585,-3.767123,44.641159,-1.8,-0.2,897.0
70.75,-128.122447325,0.26815738,283.5,25.3659545,-3.717178,44.7173995,-1.8,-0.2,897.0
70.8,-128.12236086,0.26824277,283.0,25.323324,-3.667233,44.79364,-1.8,-0.2,897.0
70.85,-128.12229215,0.26831085,282.5,25.274206,-3.615264,44.8681105,-1.75,-0.2,896.5
70.9,-128.12222344,0.26837893,282.0,25.225088,-3.563295,44.942581,-1.7,-0.2,896.0
70.95,-128.12214041,0.26846028,281.5,25.153904,-3.4906805,45.044029,-1.65,-0.2,896.0
71.0,-128.12205738,0.26854163,281.0,25.08272,-3.418066,45.145477,-1.6,-0.2,896.0
71.05,-128.12197836,0.268618365,280.5,25.046202,-3.380814,45.1975325,-1.65,-0.2,896.0
71.1,-128.12189934,0.2686951,280.0,25.009684,-3.343562,45.249588,-1.7,-0.2,896.0
71.15,-128.12182088999998,0.268771255,279.5,24.8803465,-3.260601,45.362465,-1.7,-0.2,895.5
71.2,-128.12174244,0.26884741,279.0,24.751009,-3.17764,45.475342,-1.7,-0.2,895.0
71.25,-128.12166342,0.26892357,278.5,24.6772805,-3.13035,45.5397035,-1.7,-0.2,895.0
71.3,-128.1215844,0.26899973,278.0,24.603552,-3.08306,45.604065,-1.7,-0.2,895.0
71.35,-128.12150022499998,0.269080505,277.5,24.488497,-3.018255,45.6912535,-1.7,-0.2,895.0
71.4,-128.12141605,0.26916128,277.0,24.373442,-2.95345,45.778442,-1.7,-0.2,895.0
71.45,-128.12133989,0.269233975,277.0,24.2699175,-2.8974035,45.8535385,-1.7,-0.2,895.0
71.5,-128.12126373,0.26930667,277.0,24.166393,-2.841357,45.928635,-1.7,-0.2,895.0
71.55,-128.12118929000002,0.26937706,276.5,24.102763,-2.8069095,45.974808,-1.7,-0.2,895.0
71.6,-128.12111485,0.26944745,276.0,24.039133,-2.772462,46.020981,-1.7,-0.2,895.0
71.65,-128.12103353999998,0.2695241849999999,276.0,23.9218885,-2.696254,46.12146,-1.7,-0.15,895.0
71.7,-128.12095223,0.26960092,276.0,23.804644,-2.620046,46.221939,-1.7,-0.1,895.0
71.75,-128.120875495,0.26967304,275.5,23.736228,-2.57528,46.280922,-1.7,-0.1,894.5
71.8,-128.12079876,0.26974516,275.0,23.667812,-2.530514,46.339905,-1.7,-0.1,894.0
71.85,-128.12071344,0.26982478,275.0,23.5794455,-2.4658175,46.4240645,-1.7,-0.1,894.0
71.9,-128.12062812,0.2699044,275.0,23.491079,-2.401121,46.508224,-1.7,-0.1,894.0
71.95,-128.120559405,0.269968445,274.5,23.421093,-2.3478975,46.5771865,-1.7,-0.1,894.0
72.0,-128.12049069,0.27003249,274.0,23.351107,-2.294674,46.646149,-1.7,-0.1,894.0
72.05,-128.12040422500002,0.27011211,274.0,23.300931,-2.2565165,46.695572,-1.7,-0.15,894.0
72.1,-128.12031776,0.27019173,274.0,23.250755,-2.218359,46.744995,-1.7,-0.2,894.0
72.15,-128.120247325,0.27025693,273.5,23.1371555,-2.1458565,46.836067,-1.7,-0.2,894.0
72.2,-128.12017689,0.27032213,273.0,23.023556,-2.073354,46.927139,-1.7,-0.2,894.0
72.25,-128.12009329,0.270398865,273.0,22.9474545,-2.0247845,46.988144,-1.7,-0.25,893.5
72.3,-128.12000969,0.2704756,273.0,22.871353,-1.976215,47.049149,-1.7,-0.3,893.0
72.35,-128.11992150499998,0.2705558,273.0,22.783061,-1.933062,47.1166995,-1.7,-0.3,893.0
72.4,-128.11983332,0.270636,273.0,22.694769,-1.889909,47.18425,-1.7,-0.3,893.0
72.45,-128.11976403,0.27069889,273.0,22.622118,-1.8599795,47.2384875,-1.7,-0.3,893.0
72.5,-128.11969474,0.27076178,273.0,22.549467,-1.83005,47.292725,-1.7,-0.3,893.0
72.55,-128.11960770000002,0.27084025,273.0,22.4979255,-1.8088165,47.3312075,-1.7,-0.25,893.0
72.6,-128.11952066,0.27091872,273.0,22.446384,-1.787583,47.36969,-1.7,-0.2,893.0
72.65,-128.11943763,0.2709937249999999,272.5,22.3620555,-1.7478525,47.4541705,-1.7,-0.15,893.0
72.7,-128.1193546,0.27106873,272.0,22.277727,-1.708122,47.538651,-1.7,-0.1,893.0
72.75,-128.119266415,0.271147775,272.0,22.22639,-1.683935,47.590088,-1.7,-0.1,892.5
72.8,-128.11917823,0.27122682,272.0,22.175053,-1.659748,47.641525,-1.7,-0.1,892.0
72.85,-128.119108365,0.2712891349999999,272.0,22.128129,-1.6313434999999998,47.691124,-1.7,-0.1,892.0
72.9,-128.1190385,0.27135145,272.0,22.081205,-1.602939,47.740723,-1.7,-0.1,892.0
72.95,-128.118960625,0.2714212649999999,272.0,22.018115,-1.5600965,47.809349,-1.7,-0.1,892.0
73.0,-128.11888275,0.27149108,272.0,21.955025,-1.517254,47.877975,-1.7,-0.1,892.0
73.05,-128.11879571,0.27156782,272.0,21.916982,-1.491419,47.919357,-1.7,-0.15,891.5
73.1,-128.11870867,0.27164456,272.0,21.878939,-1.465584,47.960739,-1.7,-0.2,891.0
73.15,-128.11863022,0.271713795,272.0,21.8246205,-1.432201,48.027519,-1.7,-0.2,891.0
73.2,-128.11855177,0.27178303,272.0,21.770302,-1.398818,48.094299,-1.7,-0.2,891.0
73.25,-128.118461865,0.27186208,272.0,21.7336925,-1.3764195,48.139511,-1.7,-0.2,891.0
73.3,-128.11837196,0.27194113,272.0,21.697083,-1.354021,48.184723,-1.7,-0.2,891.0
73.35,-128.11829408,0.27200921,272.0,21.711031,-1.3281755,48.2333605,-1.7,-0.2,890.5
73.4,-128.1182162,0.27207729,272.0,21.724979,-1.30233,48.281998,-1.7,-0.2,890.0
73.45,-128.11812114,0.27216038,272.0,21.7638625,-1.2709865,48.339554,-1.7,-0.2,890.0
73.5,-128.11802608,0.27224347,272.0,21.802746,-1.239643,48.39711,-1.7,-0.2,890.0
73.55,-128.117953355,0.272306935,272.5,21.820035,-1.225705,48.4227295,-1.7,-0.2,890.0
73.6,-128.11788063,0.2723704,273.0,21.837324,-1.211767,48.448349,-1.7,-0.2,890.0
73.65,-128.11779645500002,0.272443105,273.0,22.037098,-1.142941,48.530075,-1.7,-0.2,890.0
73.7,-128.11771228,0.27251581,273.0,22.236872,-1.074115,48.611801,-1.7,-0.2,890.0
73.75,-128.11763382499998,0.272583315,273.0,22.343344,-1.0377345,48.654663,-1.7,-0.25,890.0
73.8,-128.11755537,0.27265082,273.0,22.449816,-1.001354,48.697525,-1.7,-0.3,890.0
73.85,-128.117480355,0.272714865,273.0,22.6681875,-0.9447755,48.751892,-1.7,-0.3,889.5
73.9,-128.11740534,0.27277891,273.0,22.886559,-0.888197,48.806259,-1.7,-0.3,889.0
73.95,-128.11730971,0.27286142,273.0,23.1912785,-0.814378,48.8725585,-1.65,-0.35,889.0
74.0,-128.11721408,0.27294393,273.0,23.495998,-0.740559,48.938858,-1.6,-0.4,889.0
74.05,-128.117141925,0.273005095,273.5,23.6325025,-0.70749,48.968567,-1.6,-0.4,889.0
74.1,-128.11706977,0.27306626,274.0,23.769007,-0.674421,48.998276,-1.6,-0.4,889.0
74.15,-128.11698101000002,0.27314127,274.0,24.453833,-0.54762,49.0899355,-1.6,-0.4,888.5
74.2,-128.11689225,0.27321628,274.0,25.138659,-0.420819,49.181595,-1.6,-0.4,888.0
74.25,-128.11681665999998,0.27327975,274.0,25.492264,-0.35564,49.2285005,-1.6,-0.4,888.0
74.3,-128.11674107,0.27334322,274.0,25.845869,-0.290461,49.275406,-1.6,-0.4,888.0
74.35,-128.11666319,0.27340842,274.5,26.4299155,-0.199639,49.3421555,-1.55,-0.4,887.5
74.4,-128.11658531,0.27347362,275.0,27.013962,-0.108817,49.408905,-1.5,-0.4,887.0
74.45,-128.116488535,0.2735544,275.0,27.9426385,0.026508,49.509247,-1.5,-0.4,886.5
74.5,-128.11639176,0.27363518,275.0,28.871315,0.161833,49.609589,-1.5,-0.4,886.0
74.55,-128.116319605,0.2736946099999999,275.5,29.2656165,0.2192895,49.652199,-1.5,-0.4,886.0
74.6,-128.11624745,0.27375404,276.0,29.659918,0.276746,49.694809,-1.5,-0.4,886.0
74.65,-128.116153535,0.2738313599999999,276.5,30.822371500000003,0.4150295,49.830284,-1.5,-0.4,886.0
74.7,-128.11605962,0.27390868,277.0,31.984825,0.553313,49.965759,-1.5,-0.4,886.0
74.75,-128.115983455,0.273971,277.0,32.653951500000005,0.631847,50.044067,-1.5,-0.4,885.5
74.8,-128.11590729,0.27403332,277.0,33.323078,0.710381,50.122375,-1.5,-0.4,885.0
74.85,-128.11581337500002,0.27410833,277.5,34.177946000000006,0.804531,50.2430645,-1.5,-0.4,885.0
74.9,-128.11571946,0.27418334,278.0,35.032814,0.898681,50.363754,-1.5,-0.4,885.0
74.95,-128.115635855,0.27425085,278.5,35.8819505,0.9887355,50.4952085,-1.5,-0.4,885.0
75.0,-128.11555225,0.27431836,279.0,36.731087,1.07879,50.626663,-1.5,-0.4,885.0
75.05,-128.11547150500002,0.274381835,279.5,37.2256625,1.1312415,50.7032315,-1.5,-0.45,884.5
75.1,-128.11539076,0.27444531,280.0,37.720238,1.183693,50.7798,-1.5,-0.5,884.0
75.15,-128.11531173,0.27450705,280.5,38.4092695,1.2559365,50.9524915,-1.5,-0.5,884.0
75.2,-128.1152327,0.27456879,281.0,39.098301,1.32818,51.125183,-1.5,-0.5,884.0
75.25,-128.11514451,0.274638035,281.5,39.5361805,1.374091,51.2349395,-1.5,-0.5,884.0
75.3,-128.11505632,0.27470728,282.0,39.97406,1.420002,51.344696,-1.5,-0.5,884.0
75.35,-128.11497443000002,0.274770175,282.5,40.3026945,1.4426005,51.4473495,-1.5,-0.45,883.5
75.4,-128.11489254,0.27483307,283.0,40.631329,1.465199,51.550003,-1.5,-0.4,883.0
75.45,-128.114800915,0.274903465,283.5,40.9398365,1.4792785,51.6585695,-1.55,-0.4,883.0
75.5,-128.11470929,0.27497386,284.0,41.248344,1.493358,51.767136,-1.6,-0.4,883.0
75.55,-128.11463198,0.275031565,284.5,41.3902395,1.4998334999999998,51.817078,-1.6,-0.4,883.0
75.6,-128.11455467,0.27508927,285.0,41.532135,1.506309,51.86702,-1.6,-0.4,883.0
75.65,-128.11445845999998,0.2751614,285.5,41.646448,1.426732,51.92495,-1.7000000000000002,-0.4,882.5
75.7,-128.11436225,0.27523353,286.0,41.760761,1.347155,51.98288,-1.8,-0.4,882.0
75.75,-128.11427807,0.27529643,286.5,41.815033,1.3055115000000002,52.011177,-1.85,-0.4,882.0
75.8,-128.11419389,0.27535933,287.0,41.869305,1.263868,52.039474,-1.9,-0.4,882.0
75.85,-128.114120015,0.27541415,287.5,41.8780635,1.225028,52.092323,-1.9,-0.4,882.0
75.9,-128.11404614,0.27546897,288.0,41.886822,1.186188,52.145172,-1.9,-0.4,882.0
75.95,-128.11395451,0.27553706,288.5,41.861914,1.135082,52.237724,-1.9,-0.35,881.5
76.0,-128.11386288,0.27560515,289.0,41.837006,1.083976,52.330276,-1.9,-0.3,881.0
76.05,-128.113779845,0.275666315,289.5,41.82451450000001,1.058342,52.376686,-1.9,-0.35,881.0
76.1,-128.11369681,0.27572748,290.0,41.812023,1.032708,52.423096,-1.9,-0.4,881.0
76.15,-128.11360460499998,0.275794995,290.5,41.708273000000005,1.031715,52.5731815,-1.9,-0.4,880.5
76.2,-128.1135124,0.27586251,291.0,41.604523,1.030722,52.723267,-1.9,-0.4,880.0
76.25,-128.1134265,0.275924835,291.5,41.5460475,1.031086,52.806847000000005,-1.9,-0.4,880.0
76.3,-128.1133406,0.27598716,292.0,41.487572,1.03145,52.890427,-1.9,-0.4,880.0
76.35,-128.11324324499998,0.27605756,292.5,41.36467,1.021099,52.993027,-1.85,-0.4,880.0
76.4,-128.11314589,0.27612796,293.0,41.241768,1.010748,53.095627,-1.8,-0.4,880.0
76.45,-128.11306457,0.27618624,293.5,41.114622,0.997426,53.184593500000005,-1.85,-0.4,879.5
76.5,-128.11298325,0.27624452,294.0,40.987476,0.984104,53.27356,-1.9,-0.4,879.0
76.55,-128.11289391000005,0.276308,294.5,40.9049605,0.975458,53.331291500000006,-1.85,-0.35,879.0
76.6,-128.11280457,0.27637148,295.0,40.822445,0.966812,53.389023,-1.8,-0.3,879.0
76.65,-128.11273012499998,0.27642457,295.0,40.636614,0.925425,53.4719925,-1.85,-0.3,879.0
76.7,-128.11265568,0.27647766,295.0,40.450783,0.884038,53.554962,-1.9,-0.3,879.0
76.75,-128.112573215,0.276535365,295.5,40.331604,0.857495,53.608177,-1.9,-0.3,878.5
76.8,-128.11249075,0.27659307,296.0,40.212425,0.830952,53.661392,-1.9,-0.3,878.0
76.85,-128.1123911,0.2766628949999999,296.5,40.057077500000005,0.778899,53.717598,-1.9,-0.35,878.0
76.9,-128.11229145,0.27673272,297.0,39.90173,0.726846,53.773804,-1.9,-0.4,878.0
76.95,-128.112209555,0.27678985,297.5,39.7637465,0.6729085,53.81794,-1.95,-0.4,878.0
77.0,-128.11212766,0.27684698,298.0,39.625763,0.618971,53.862076,-2.0,-0.4,878.0
77.05,-128.11202858500002,0.27691565,298.5,39.498564,0.5773520000000001,53.899353000000005,-2.0,-0.35,877.5
77.1,-128.11192951,0.27698432,299.0,39.371365,0.535733,53.93663,-2.0,-0.3,877.0
77.15,-128.111852775,0.27703741,299.5,39.08288,0.4834465,54.0034635,-2.0,-0.3,877.0
77.2,-128.11177604,0.2770905,300.0,38.794395,0.43116,54.070297,-2.0,-0.3,877.0
77.25,-128.11167582000002,0.27715975,300.5,38.579681,0.3922445,54.120041,-2.0,-0.3,877.0
77.3,-128.1115756,0.277229,301.0,38.364967,0.353329,54.169785,-2.0,-0.3,877.0
77.35,-128.11148683,0.27729017,301.0,37.895845,0.296578,54.23831199999999,-2.0,-0.3,876.5
77.4,-128.11139806,0.27735134,301.0,37.426723,0.239827,54.306839,-2.0,-0.3,876.0
77.45,-128.11131731,0.27740674,301.5,36.928606,0.1837145,54.3737105,-2.0,-0.3,876.0
77.5,-128.11123656,0.27746214,302.0,36.430489,0.127602,54.440582,-2.0,-0.3,876.0
77.55,-128.11114207,0.277526195,302.5,36.0994035,0.090305,54.485031,-2.0,-0.35,876.0
77.6,-128.11104758,0.27759025,303.0,35.768318,0.053008,54.52948,-2.0,-0.4,876.0
77.65,-128.110969695,0.27764334,303.0,34.811945,-0.010917,54.639847,-2.0,-0.4,876.0
77.7,-128.11089181,0.27769643,303.0,33.855572,-0.074842,54.750214,-2.0,-0.4,876.0
77.75,-128.110797885,0.27775991,303.5,33.2199155,-0.1173299999999999,54.8235705,-2.0,-0.4,876.0
77.8,-128.11070396,0.27782339,304.0,32.584259,-0.159818,54.896927,-2.0,-0.4,876.0
77.85,-128.11062092,0.27787937,304.0,31.83463,-0.2046224999999999,54.962448,-2.0,-0.4,875.5
77.9,-128.11053788,0.27793535,304.0,31.085001,-0.249427,55.027969,-2.0,-0.4,875.0
77.95,-128.11044167,0.27799998,304.5,30.139386,-0.303706,55.101738,-1.95,-0.35,875.0
78.0,-128.11034546,0.27806461,305.0,29.193771,-0.357985,55.175507,-1.9,-0.3,875.0
78.05,-128.1102607,0.278121165,305.0,28.7473905,-0.3836075,55.2103195,-1.9,-0.3,875.0
78.1,-128.11017594,0.27817772,305.0,28.30101,-0.40923,55.245132,-1.9,-0.3,875.0
78.15,-128.110076865,0.27824351,305.5,26.9002105,-0.460187,55.3490675,-1.9,-0.3,874.5
78.2,-128.10997779,0.2783093,306.0,25.499411,-0.511144,55.453003,-1.9,-0.3,874.0
78.25,-128.109897615,0.27836297,306.0,24.850367,-0.534754,55.5011675,-1.9,-0.3,874.0
78.3,-128.10981744,0.27841664,306.0,24.201323,-0.558364,55.549332,-1.9,-0.3,874.0
78.35,-128.10972523499998,0.27847781,306.5,23.085976,-0.5963324999999999,55.624916,-1.9,-0.3,874.0
78.4,-128.10963303,0.27853898,307.0,21.970629,-0.634301,55.7005,-1.9,-0.3,874.0
78.45,-128.109552855,0.278592075,307.0,20.921236,-0.6692555,55.7695155,-1.9,-0.35,873.5
78.5,-128.10947268,0.27864517,307.0,19.871843,-0.70421,55.838531,-1.9,-0.4,873.0
78.55,-128.109371885,0.278711535,307.0,19.174112,-0.7274505,55.884407,-1.9,-0.35,873.0
78.6,-128.10927109,0.2787779,307.0,18.476381,-0.750691,55.930283,-1.9,-0.3,873.0
78.65,-128.109195495,0.278828105,307.5,17.08475,-0.8047305,55.999123,-1.9,-0.3,873.0
78.7,-128.1091199,0.27887831,308.0,15.693119,-0.85877,56.067963,-1.9,-0.3,873.0
78.75,-128.10903285,0.278935445,308.0,14.7367065,-0.8959090000000001,56.1152725,-1.85,-0.3,872.5
78.8,-128.1089458,0.27899258,308.0,13.780294,-0.933048,56.162582,-1.8,-0.3,872.0
78.85,-128.10885531,0.2790520199999999,308.0,12.590719,-0.968326,56.219963,-1.8,-0.3,872.0
78.9,-128.10876482,0.27911146,308.0,11.401144,-1.003604,56.277344,-1.8,-0.3,872.0
78.95,-128.10866689,0.2791760949999999,308.5,9.88721,-1.0413345,56.3494265,-1.85,-0.3,871.5
79.0,-128.10856896,0.27924073,309.0,8.373276,-1.079065,56.421509,-1.9,-0.3,871.0
79.05,-128.10848592000002,0.2792949799999999,309.0,7.62867,-1.097622,56.4569475,-1.85,-0.3,871.0
79.1,-128.10840288,0.27934923,309.0,6.884064,-1.116179,56.492386,-1.8,-0.3,871.0
79.15,-128.108329575,0.279397705,309.0,5.2692975,-1.0821335,56.5514145,-1.8,-0.3,871.0
79.2,-128.10825627,0.27944618,309.0,3.654531,-1.048088,56.610443,-1.8,-0.3,871.0
79.25,-128.10815662,0.27951139,309.5,2.455383,-1.0228055,56.6542665,-1.75,-0.25,871.0
79.3,-128.10805697,0.2795766,310.0,1.256235,-0.997523,56.69809,-1.7,-0.2,871.0
79.35,-128.107976795,0.279629115,310.0,0.035663,-0.9638095,56.729752000000005,-1.7,-0.15,871.0
79.4,-128.10789662,0.27968163,310.0,-1.184909,-0.930096,56.761414,-1.7,-0.1,871.0
79.45,-128.10779983499998,0.279745115,310.0,-2.758284,-0.8828104999999999,56.796013,-1.7,-0.05,871.0
79.5,-128.10770305,0.2798086,310.0,-4.331659,-0.835525,56.830612,-1.7,-0.0,871.0
79.55,-128.107615425,0.27986631,310.5,-5.1467105,-0.8110295,56.848541,-1.65,0.0,870.5
79.6,-128.1075278,0.27992402,311.0,-5.961762,-0.786534,56.86647,-1.6,-0.0,870.0
79.65,-128.10743788500002,0.2799834599999999,311.0,-7.9433925,-0.7528634999999999,56.886131,-1.6,-0.05,870.0
79.7,-128.10734797,0.2800429,311.0,-9.925023,-0.719193,56.905792,-1.6,-0.1,870.0
79.75,-128.107265505,0.280097145,311.5,-10.9494705,-0.7021664999999999,56.915619,-1.65,-0.1,870.0
79.8,-128.10718304,0.28015139,312.0,-11.973918,-0.68514,56.925446,-1.7,-0.1,870.0
79.85,-128.107088545,0.280214295,312.0,-13.3070795,-0.6585209999999999,56.9207535,-1.7,-0.1,869.5
79.9,-128.10699405,0.2802772,312.0,-14.640241,-0.631902,56.916061,-1.7,-0.1,869.0
79.95,-128.10690929,0.280333755,312.0,-15.9359965,-0.6038635,56.9030075,-1.7,-0.1,869.0
80.0,-128.10682453,0.28039031,312.0,-17.231752,-0.575825,56.889954,-1.7,-0.1,869.0
80.05,-128.106730035,0.280453215,312.5,-18.059554,-0.557913,56.881615,-1.7,-0.05,868.5
80.1,-128.10663554,0.28051612,313.0,-18.887356,-0.540001,56.873276,-1.7,-0.0,868.0
80.15,-128.10655593500002,0.28056921,313.0,-20.370971,-0.503149,56.8345645,-1.7,0.0,868.0
80.2,-128.10647633,0.2806223,313.0,-21.854586,-0.466297,56.795853,-1.7,0.0,868.0
80.25,-128.10638126499998,0.2806869349999999,313.5,-22.909496500000003,-0.439986,56.767792,-1.7,0.05,868.0
80.3,-128.1062862,0.28075157,314.0,-23.964407,-0.413675,56.739731,-1.7,0.1,868.0
80.35,-128.106204305,0.28080697,314.0,-24.8278915,-0.4310315,56.711838,-1.7,0.1,868.0
80.4,-128.10612241,0.28086237,314.0,-25.691376,-0.448388,56.683945,-1.7,0.1,868.0
80.45,-128.10603364000002,0.2809223899999999,314.5,-26.5872215,-0.486043,56.6525195,-1.7,0.05,868.0
80.5,-128.10594487,0.28098241,315.0,-27.483067,-0.523698,56.621094,-1.7,0.0,868.0
80.55,-128.105854385,0.281044735,315.0,-28.0232785,-0.546405,56.60215,-1.75,0.0,868.0
80.6,-128.1057639,0.28110706,315.0,-28.56349,-0.569112,56.583206,-1.8,0.0,868.0
80.65,-128.10569346,0.281154955,315.0,-29.1910125,-0.6066389999999999,56.4952925,-1.8,0.0,867.5
80.7,-128.10562302,0.28120285,315.0,-29.818535,-0.644166,56.407379,-1.8,0.0,867.0
80.75,-128.10552223,0.2812721,315.5,-30.3514615,-0.6765395000000001,56.3297425,-1.8,0.05,867.0
80.8,-128.10542144,0.28134135,316.0,-30.884388,-0.708913,56.252106,-1.8,0.1,867.0
80.85,-128.10533496,0.28140137,316.0,-31.2924825,-0.6979525,56.1496125,-1.8,0.05,867.0
80.9,-128.10524848,0.28146139,316.0,-31.700577,-0.686992,56.047119,-1.8,0.0,867.0
80.95,-128.105164295,0.2815196749999999,316.5,-32.083559,-0.657204,55.9274445,-1.75,0.0,867.0
81.0,-128.10508011,0.28157796,317.0,-32.466541,-0.627416,55.80777,-1.7,-0.0,867.0
81.05,-128.10498905499998,0.28164259,317.0,-32.711317,-0.6083784999999999,55.731285,-1.7,-0.05,867.0
81.1,-128.104898,0.28170722,317.0,-32.956093,-0.589341,55.6548,-1.7,-0.1,867.0
81.15,-128.104826985,0.281757425,317.0,-33.194292000000004,-0.6031219999999999,55.5643005,-1.7,-0.1,866.5
81.2,-128.10475597,0.28180763,317.0,-33.432491,-0.616903,55.473801,-1.7,-0.1,866.0
81.25,-128.10465518,0.28187919,317.5,-33.6100845,-0.627178,55.406326500000006,-1.7,-0.15,866.0
81.3,-128.10455439,0.28195075,318.0,-33.787678,-0.637453,55.338852,-1.7,-0.2,866.0
81.35,-128.10447421499998,0.282008455,318.0,-33.863857499999995,-0.692674,55.305473500000005,-1.7,-0.2,866.0
81.4,-128.10439404,0.28206616,318.0,-33.940037,-0.747895,55.272095,-1.7,-0.2,866.0
81.45,-128.104298975,0.282134255,318.0,-33.990549,-0.8590614999999999,55.243431,-1.75,-0.15,866.0
81.5,-128.10420391,0.28220235,318.0,-34.041061,-0.970228,55.214767,-1.8,-0.1,866.0
81.55,-128.104123735,0.28226006,318.5,-34.064952500000004,-1.022806,55.201202,-1.85,-0.1,866.0
81.6,-128.10404356,0.28231777,319.0,-34.088844,-1.075384,55.187637,-1.9,-0.1,866.0
81.65,-128.10395021,0.282385865,319.0,-33.9502905,-1.2397904999999998,55.145706,-1.9,-0.1,865.5
81.7,-128.10385686,0.28245396,319.0,-33.811737,-1.404197,55.103775,-1.9,-0.1,865.0
81.75,-128.10377726000002,0.2825122399999999,319.0,-33.737972,-1.4891519999999998,55.0821075,-1.95,-0.1,865.0
81.8,-128.10369766,0.28257052,319.0,-33.664207,-1.574107,55.06044,-2.0,-0.1,865.0
81.85,-128.10360946499998,0.282634575,319.0,-33.4795625,-1.675917,55.024437,-2.05,-0.1,865.0
81.9,-128.10352127,0.28269863,319.0,-33.294918,-1.777727,54.988434,-2.1,-0.1,865.0
81.95,-128.10344453,0.282754605,319.0,-33.082899,-1.868333,54.9514235,-2.1,-0.1,865.0
82.0,-128.10336779,0.28281058,319.0,-32.87088,-1.958939,54.914413,-2.1,-0.1,865.0
82.05,-128.103287615,0.28286944,319.0,-32.7417295,-2.0141305000000003,54.8918685,-2.1,-0.1,865.0
82.1,-128.10320744,0.2829283,319.0,-32.612579,-2.069322,54.869324,-2.1,-0.1,865.0
82.15,-128.103110085,0.28299986,319.0,-32.1817595,-2.0961625,54.741852,-2.05,-0.1,865.0
82.2,-128.10301273,0.28307142,319.0,-31.75094,-2.123003,54.61438,-2.0,-0.1,865.0
82.25,-128.10293599,0.28312797,319.0,-31.5262725,-2.134016,54.546898,-1.95,-0.05,865.0
82.3,-128.10285925,0.28318452,319.0,-31.301605,-2.145029,54.479416,-1.9,-0.0,865.0
82.35,-128.10276934,0.28325146,318.5,-30.9033305,-2.110824,54.3680345,-1.9,0.0,865.0
82.4,-128.10267943,0.2833184,318.0,-30.505056,-2.076619,54.256653,-1.9,-0.0,865.0
82.45,-128.102602695,0.28337553,318.0,-30.0764395,-2.01879,54.140007,-1.85,0.0,864.5
82.5,-128.10252596,0.28343266,318.0,-29.647823,-1.960961,54.023361,-1.8,-0.0,864.0
82.55,-128.10243261,0.28350306,318.0,-29.3559185,-1.9215765,53.943931500000005,-1.75,0.0,864.0
82.6,-128.10233926,0.28357346,318.0,-29.064014,-1.882192,53.864502,-1.7,0.0,864.0
82.65,-128.10225966000002,0.283633475,318.0,-28.37207,-1.8359525,53.7595595,-1.7,0.05,864.0
82.7,-128.10218006,0.28369349,318.0,-27.680126,-1.789713,53.654617,-1.7,0.1,864.0
82.75,-128.10208900499998,0.28376216,318.0,-27.202915,-1.757823,53.5822295,-1.7,0.15,864.0
82.8,-128.10199795,0.28383083,318.0,-26.725704,-1.725933,53.509842,-1.7,0.2,864.0
82.85,-128.101922355,0.28388911,318.0,-26.2235765,-1.6863199999999998,53.429184,-1.65,0.15,864.0
82.9,-128.10184676,0.28394739,318.0,-25.721449,-1.646707,53.348526,-1.6,0.1,864.0
82.95,-128.10175570500002,0.284017215,317.5,-24.971141,-1.5835425,53.225075,-1.6,0.1,864.0
83.0,-128.10166465,0.28408704,317.0,-24.220833,-1.520378,53.101624,-1.6,0.1,864.0
83.05,-128.10158963,0.284144745,317.0,-23.887623,-1.492327,53.0467915,-1.6,0.1,864.0
83.1,-128.10151461,0.28420245,317.0,-23.554413,-1.464276,52.991959,-1.6,0.1,864.0
83.15,-128.101421265,0.28427458,317.0,-22.59762,-1.34193,52.837952,-1.55,0.1,864.0
