Time,Longitude,Latitude,Altitude,Roll,Pitch,Yaw,AOA,AOS,TAS
3.2,-128.1507956,0.22482908,3340.0,-63.964909,-27.223806,-92.134628,11.6,0.9,563.0
3.25,-128.150855745,0.22484059,3335.0,-63.6686175,-27.027702,-92.945362,11.65,0.8500000000000001,563.5
3.3,-128.15091589,0.2248521,3330.0,-63.372326,-26.831598,-93.756096,11.7,0.8,564.0
3.35,-128.150968595,0.22485958,3326.5,-62.766075,-26.448038,-94.9460295,11.8,0.75,564.0
3.4,-128.1510213,0.22486706,3323.0,-62.159824,-26.064478,-96.135963,11.9,0.7,564.0
3.45,-128.151080875,0.22487569,3318.5,-61.55393,-25.6833495,-97.2667385,12.0,0.6,564.0
3.5,-128.15114045,0.22488432,3314.0,-60.948036,-25.302221,-98.397514,12.1,0.5,564.0
3.55,-128.15119544,0.224886605,3310.0,-60.549362,-25.0485135,-99.083023,12.45,0.35,564.0
3.6,-128.15125043,0.22488889,3306.0,-60.150688,-24.794806,-99.768532,12.8,0.2,564.0
3.65,-128.151317455,0.224892325,3301.5,-59.097614,-24.1067375,-101.2217485,13.25,0.0,564.0
3.7,-128.15138448,0.22489576,3297.0,-58.04454,-23.418669,-102.674965,13.7,-0.2,564.0
3.75,-128.15144176,0.224895165,3293.5,-57.5632285,-23.1041835,-103.3391685,13.6,-0.1,563.5
3.8,-128.15149904,0.22489457,3290.0,-57.081917,-22.789698,-104.003372,13.5,-0.0,563.0
3.85,-128.151565485,0.22489224,3285.5,-55.8192635,-22.0294085,-105.0654565,12.85,0.35,563.0
3.9,-128.15163193,0.22488991,3281.0,-54.55661,-21.269119,-106.127541,12.2,0.7,563.0
3.95,-128.15168119,0.224887585,3278.0,-53.833477,-20.836889,-106.702206,11.7,1.0,563.5
4.0,-128.15173045,0.22488526,3275.0,-53.110344,-20.404659,-107.276871,11.2,1.3,564.0
4.05,-128.15179632500002,0.224877165,3271.0,-51.9801445,-19.7985305,-107.8407365,11.35,1.2000000000000002,563.5
4.1,-128.1518622,0.22486907,3267.0,-50.849945,-19.192402,-108.404602,11.5,1.1,563.0
4.15,-128.151922915,0.22486155,3263.0,-49.092085,-18.3242685,-108.922325,11.6,1.05,563.0
4.2,-128.15198363,0.22485403,3259.0,-47.334225,-17.456135,-109.440048,11.7,1.0,563.0
4.25,-128.15203861499998,0.224844785,3256.0,-46.4331035,-17.0111075,-109.705444,11.75,0.9,562.5
4.3,-128.1520936,0.22483554,3253.0,-45.531982,-16.56608,-109.97084,11.8,0.8,562.0
4.35,-128.1521652,0.224821675,3249.0,-42.74036,-15.346311,-110.0577465,11.9,0.75,562.0
4.4,-128.1522368,0.22480781,3245.0,-39.948738,-14.126542,-110.144653,12.0,0.7,562.0
4.45,-128.15229064,0.22479741,3242.5,-38.0431955,-13.306323,-110.1466635,12.05,0.7,562.0
4.5,-128.15234448,0.22478701,3240.0,-36.137653,-12.486104,-110.148674,12.1,0.7,562.0
4.55,-128.15241550000002,0.224769685,3236.5,-33.6054265,-11.617896,-109.8144265,12.05,0.6,561.0
4.6,-128.15248652,0.22475236,3233.0,-31.0732,-10.749688,-109.480179,12.0,0.5,560.0
4.65,-128.1525438,0.22473792,3230.5,-27.780221,-9.8342335,-108.7210235,11.8,0.65,559.5
4.7,-128.15260108,0.22472348,3228.0,-24.487242,-8.918779,-107.961868,11.6,0.8,559.0
4.75,-128.15266293500002,0.22470731,3225.5,-22.374698,-8.331487000000001,-107.4748495,11.35,0.8500000000000001,559.0
4.8,-128.15272479,0.22469114,3223.0,-20.262154,-7.744195,-106.987831,11.1,0.9,559.0
4.85,-128.15278264,0.22467555,3220.5,-17.875259,-7.506271,-106.145153,10.65,1.05,559.0
4.9,-128.15284049,0.22465996,3218.0,-15.488364,-7.268347,-105.302475,10.2,1.2,559.0
4.95,-128.15290922499997,0.224641485,3215.5,-13.3922735,-7.1280925,-104.5152815,9.5,1.5,559.0
5.0,-128.15297796,0.22462301,3213.0,-11.296183,-6.987838,-103.728088,8.8,1.8,559.0
5.05,-128.1530381,0.22460684,3211.0,-10.752741,-7.156946,-103.2948455,8.2,2.1,559.5
5.1,-128.15309824,0.22459067,3209.0,-10.209299,-7.326054,-102.861603,7.6,2.4,560.0
5.15,-128.15316009499998,0.224573925,3207.0,-10.948399,-7.996809499999999,-102.4462815,6.65,2.7,560.5
5.2,-128.15322195,0.22455718,3205.0,-11.687499,-8.667565,-102.03096,5.7,3.0,561.0
5.25,-128.15328782,0.22453928,3203.0,-12.140538500000002,-9.078712,-101.776386,4.75,3.25,561.5
5.3,-128.15335369,0.22452138,3201.0,-12.593578,-9.489859,-101.521812,3.8,3.5,562.0
5.35,-128.15341611999995,0.224504635,3199.5,-15.651801,-10.2575055,-101.3939055,3.0,3.65,562.5
5.4,-128.15347855,0.22448789,3198.0,-18.710024,-11.025152,-101.265999,2.2,3.8,563.0
5.45,-128.15354671,0.22446999,3196.0,-21.5016825,-11.675035,-101.1895335,1.3,3.8,563.5
5.5,-128.15361487,0.22445209,3194.0,-24.293341,-12.324918,-101.113068,0.4,3.8,564.0
5.55,-128.15367272,0.2244370749999999,3192.0,-26.3383475,-12.58355,-101.276783,0.0,3.7,564.5
5.6,-128.15373057,0.22442206,3190.0,-28.383354,-12.842182,-101.440498,-0.4,3.6,565.0
5.65,-128.15380789,0.2244012699999999,3188.0,-33.6332815,-12.8459095,-102.5280035,-0.4,3.35,565.5
5.7,-128.15388521,0.22438048,3186.0,-38.883209,-12.849637,-103.615509,-0.4,3.1,566.0
5.75,-128.15394077000002,0.22436547,3184.0,-41.124111,-12.8512275,-104.079712,-0.3,2.95,566.5
5.8,-128.15399633,0.22435046,3182.0,-43.365013,-12.852818,-104.543915,-0.2,2.8,567.0
5.85,-128.15405704,0.224333715,3180.5,-46.760061,-12.472928,-105.960842,0.2,2.65,567.5
5.9,-128.15411775,0.22431697,3179.0,-50.155109,-12.093038,-107.377769,0.6,2.5,568.0
5.95,-128.15418018000005,0.224299645,3177.0,-52.844383,-11.738967,-108.599361,1.25,2.35,568.5
6.0,-128.15424261,0.22428232,3175.0,-55.533657,-11.384896,-109.820953,1.9,2.2,569.0
6.05,-128.15431077,0.224259805,3173.0,-57.3738515,-11.1197595,-110.8516385,2.35,2.2,569.0
6.1,-128.15437893,0.22423729,3171.0,-59.214046,-10.854623,-111.882324,2.8,2.2,569.0
6.15,-128.15444250500002,0.22421651,3169.0,-61.355505,-10.476726,-113.6728055,3.3,2.1500000000000004,569.5
6.2,-128.15450608,0.22419573,3167.0,-63.496964,-10.098829,-115.463287,3.8,2.1,570.0
6.25,-128.15456908,0.22417206,3165.0,-64.731133,-9.8810385,-116.4951855,4.3,2.1,570.5
6.3,-128.15463208,0.22414839,3163.0,-65.965302,-9.663248,-117.527084,4.8,2.1,571.0
6.35,-128.15470367,0.2241195349999999,3161.0,-67.18688599999999,-9.430591499999998,-119.354654,5.35,2.05,571.0
6.4,-128.15477526,0.22409068,3159.0,-68.40847,-9.197935,-121.182224,5.9,2.0,571.0
6.45,-128.15483368000002,0.224065285,3157.5,-69.1158255,-9.0595205,-122.414856,6.35,1.95,571.0
6.5,-128.1548921,0.22403989,3156.0,-69.823181,-8.921106,-123.647488,6.8,1.9,571.0
6.55,-128.15495338,0.224009305,3154.0,-70.314907,-8.816212,-124.9466175,7.1,1.7999999999999998,571.0
6.6,-128.15501466,0.22397872,3152.0,-70.806633,-8.711318,-126.245747,7.4,1.7,571.0
6.65,-128.15506735000002,0.223951595,3150.5,-71.111187,-8.635263,-127.6156525,7.65,1.6,571.0
6.7,-128.15512004,0.22392447,3149.0,-71.415741,-8.559208,-128.985558,7.9,1.5,571.0
6.75,-128.15518418,0.22388754,3147.0,-71.6288375,-8.5059925,-129.9440845,8.15,1.4,570.5
6.8,-128.15524832,0.22385061,3145.0,-71.841934,-8.452777,-130.902611,8.4,1.3,570.0
6.85,-128.15530731,0.2238136849999999,3143.5,-71.965374,-8.4088415,-132.3384155,8.45,1.2000000000000002,570.0
6.9,-128.1553663,0.22377676,3142.0,-72.088814,-8.364906,-133.77422,8.5,1.1,570.0
6.95,-128.155418415,0.223743295,3140.5,-72.15928650000001,-8.337045,-134.7804455,8.55,1.0,570.5
7.0,-128.15547053,0.22370983,3139.0,-72.229759,-8.309184,-135.786671,8.6,0.9,571.0
7.05,-128.155528365,0.22366598,3137.5,-72.2889785,-8.275559000000001,-136.7219795,8.7,0.8500000000000001,570.5
7.1,-128.1555862,0.22362213,3136.0,-72.348198,-8.241934,-137.657288,8.8,0.8,570.0
7.15,-128.15563831499998,0.2235829,3134.0,-72.40735649999999,-8.184308000000001,-138.80314249999998,8.8,0.75,570.0
7.2,-128.15569043,0.22354367,3132.0,-72.466515,-8.126682,-139.948997,8.8,0.7,570.0
7.25,-128.155745405,0.223496365,3130.5,-72.5040745,-8.0901025,-140.6763665,8.8,0.6499999999999999,569.5
7.3,-128.15580038,0.22344906,3129.0,-72.541634,-8.053523,-141.403736,8.8,0.6,569.0
7.35,-128.15584733499998,0.22340637,3127.5,-72.57346749999999,-7.951162500000001,-142.4944915,8.75,0.6,569.0
7.4,-128.15589429,0.22336368,3126.0,-72.605301,-7.848802,-143.585247,8.7,0.6,569.0
7.45,-128.155952125,0.223308875,3124.5,-72.63332,-7.740702000000001,-144.6649435,8.7,0.6,569.0
7.5,-128.15600996,0.22325407,3123.0,-72.661339,-7.632602,-145.74464,8.7,0.6,569.0
7.55,-128.156044315,0.223216575,3122.0,-72.662777,-7.5547105,-146.400049,8.75,0.6,568.5
7.6,-128.15607867,0.22317908,3121.0,-72.664215,-7.476819,-147.055458,8.8,0.6,568.0
7.65,-128.15612906,0.223124855,3119.5,-72.627533,-7.279441,-148.4526205,8.8,0.6,568.5
7.7,-128.15617945,0.22307063,3118.0,-72.590851,-7.082063,-149.849783,8.8,0.6,569.0
7.75,-128.15622009999998,0.223021595,3116.5,-72.57347899999999,-6.9885905,-150.5114395,8.8,0.6499999999999999,568.5
7.8,-128.15626075,0.22297256,3115.0,-72.556107,-6.895118,-151.173096,8.8,0.7,568.0
7.85,-128.15630312000002,0.22291834,3113.5,-72.4493145,-6.6985105,-152.372682,8.8,0.7,568.0
7.9,-128.15634549,0.22286412,3112.0,-72.342522,-6.501903,-153.572268,8.8,0.7,568.0
7.95,-128.156389005,0.22280644,3110.5,-72.2388575,-6.325177500000001,-154.6295645,8.850000000000001,0.75,568.0
8.0,-128.15643252,0.22274876,3109.0,-72.135193,-6.148452,-155.686861,8.9,0.8,568.0
8.05,-128.15646916,0.222691655,3108.0,-72.024666,-5.9954055,-156.552371,9.0,0.8,567.5
8.1,-128.1565058,0.22263455,3107.0,-71.914139,-5.842359,-157.417881,9.1,0.8,567.0
8.15,-128.156545875,0.22257283,3105.5,-71.6906055,-5.5799255,-158.81991399999998,9.15,0.8,566.5
8.2,-128.15658595,0.22251111,3104.0,-71.467072,-5.317492,-160.221947,9.2,0.8,566.0
8.25,-128.156615715,0.22245747,3103.0,-71.3587575,-5.1903285,-160.90130349999998,9.3,0.8,566.0
8.3,-128.15664548,0.22240383,3102.0,-71.250443,-5.063165,-161.58066,9.4,0.8,566.0
8.35,-128.156679255,0.22233981,3100.5,-70.981457,-4.805547,-162.8841815,9.45,0.8,565.5
8.4,-128.15671303,0.22227579,3099.0,-70.712471,-4.547929,-164.187703,9.5,0.8,565.0
8.45,-128.156742795,0.222217535,3098.0,-70.516472,-4.365433,-165.10310900000002,9.55,0.8,565.0
8.5,-128.15677256,0.22215928,3097.0,-70.320473,-4.182937,-166.018515,9.6,0.8,565.0
8.55,-128.1567966,0.22210276,3096.0,-70.15338550000001,-4.045282,-166.685659,9.6,0.75,564.5
8.6,-128.15682064,0.22204624,3095.0,-69.986298,-3.907627,-167.352803,9.6,0.7,564.0
8.65,-128.156841815,0.221994905,3094.0,-69.6323855,-3.66324,-168.4677995,9.55,0.7,564.0
8.7,-128.15686299,0.22194357,3093.0,-69.278473,-3.418853,-169.582796,9.5,0.7,564.0
8.75,-128.15689332,0.221863405,3092.0,-69.040581,-3.254581,-170.3322715,9.45,0.6499999999999999,563.5
8.8,-128.15692365,0.22178324,3091.0,-68.802689,-3.090309,-171.081747,9.4,0.6,563.0
8.85,-128.156947115,0.22171115,3089.5,-68.20539500000001,-2.7862355,-172.2629505,9.35,0.55,562.5
8.9,-128.15697058,0.22163906,3088.0,-67.608101,-2.482162,-173.444154,9.3,0.5,562.0
8.95,-128.156988885,0.2215790799999999,3087.5,-67.178078,-2.270042,-174.25061,9.25,0.45,562.0
9.0,-128.15700719,0.2215191,3087.0,-66.748055,-2.057922,-175.057066,9.2,0.4,562.0
9.05,-128.157022065,0.22145739,3086.0,-66.34520749999999,-1.86057,-161.186267,9.2,0.35,561.5
9.1,-128.15703694,0.22139568,3085.0,-65.94236,-1.663218,-147.315468,9.2,0.3,561.0
9.15,-128.15705467,0.22132186,3084.5,-64.971176,-1.191483,-70.402302,9.15,0.25,560.5
9.2,-128.1570724,0.22124804,3084.0,-63.999992,-0.719748,6.510864,9.1,0.2,560.0
9.25,-128.157083835,0.22118345,3083.0,-63.546562,-0.499504,42.4201965,9.1,0.15,559.5
9.3,-128.15709527,0.22111886,3082.0,-63.093132,-0.27926,78.329529,9.1,0.1,559.0
9.35,-128.1571067,0.22104677,3081.5,-62.2318325,0.2176754999999999,100.4572905,9.1,0.05,559.0
9.4,-128.15711813,0.22097468,3081.0,-61.370533,0.714611,122.585052,9.1,0.0,559.0
9.45,-128.157127275,0.22091413,3080.5,-60.71385,1.104269,133.134735,9.15,0.0,558.5
9.5,-128.15713642,0.22085358,3080.0,-60.057167,1.493927,143.684418,9.2,0.0,558.0
9.55,-128.157142695,0.220779185,3079.5,-59.483696,1.8602735,150.77207950000002,9.2,0.0,557.5
9.6,-128.15714897,0.22070479,3079.0,-58.910225,2.22662,157.859741,9.2,-0.0,557.0
9.65,-128.15715353000002,0.22064597,3078.5,-58.191307,2.762778,160.4755095,9.2,0.0,557.0
9.7,-128.15715809,0.22058715,3078.0,-57.472389,3.298936,163.091278,9.2,0.0,557.0
9.75,-128.15716093,0.220514485,3078.0,-56.949806,3.688667,164.9926605,9.2,0.05,556.5
9.8,-128.15716377,0.22044182,3078.0,-56.427223,4.078398,166.894043,9.2,0.1,556.0
9.85,-128.157164895,0.22037839,3078.0,-55.7942925,4.611309,167.36038200000002,9.25,0.1,555.5
9.9,-128.15716602,0.22031496,3078.0,-55.161362,5.14422,167.826721,9.3,0.1,555.0
9.95,-128.157165995,0.220241145,3078.0,-54.5719225,5.651774,167.921356,9.25,0.15,554.5
10.0,-128.15716597,0.22016733,3078.0,-53.982483,6.159328,168.015991,9.2,0.2,554.0
10.05,-128.15716308499998,0.2201079349999999,3078.0,-53.572542,6.50703,167.91900600000002,9.15,0.2,553.5
10.1,-128.1571602,0.22004854,3078.0,-53.162601,6.854732,167.822021,9.1,0.2,553.0
10.15,-128.15715616,0.21996896,3078.0,-52.3747215,7.5103525,167.24627650000002,9.05,0.2,552.5
10.2,-128.15715212,0.21988938,3078.0,-51.586842,8.165973,166.670532,9.0,0.2,552.0
10.25,-128.15714522500002,0.2198219149999999,3078.5,-51.212704,8.477305,166.3971405,8.95,0.2,551.5
10.3,-128.15713833,0.21975445,3079.0,-50.838566,8.788637,166.123749,8.9,0.2,551.0
10.35,-128.15713201,0.219695055,3079.5,-50.1676655,9.299026,165.5878295,8.850000000000001,0.15,550.5
10.4,-128.15712569,0.21963566,3080.0,-49.496765,9.809415,165.05191,8.8,0.1,550.0
10.45,-128.157115925,0.219558965,3080.5,-48.890144500000005,10.267128,164.563736,8.7,0.1,549.5
10.5,-128.15710616,0.21948227,3081.0,-48.283524,10.724841,164.075562,8.6,0.1,549.0
10.55,-128.15709755,0.21943095,3081.5,-47.898613,10.9856025,163.80452,8.55,0.05,548.5
10.6,-128.15708894,0.21937963,3082.0,-47.513702,11.246364,163.533478,8.5,0.0,548.0
10.65,-128.15707573999998,0.219301205,3083.0,-46.644638,11.7555565,163.0253905,8.3,0.0,547.5
10.7,-128.15706254,0.21922278,3084.0,-45.775574,12.264749,162.517303,8.1,-0.0,547.0
10.75,-128.15704991500002,0.21916339,3084.5,-45.4123725,12.4775525,162.3049465,8.0,0.0,546.5
10.8,-128.15703729,0.219104,3085.0,-45.049171,12.690356,162.09259,7.9,-0.0,546.0
10.85,-128.157022375,0.219034805,3086.0,-44.2930965,12.9779235,161.81343049999998,7.65,0.0,546.0
10.9,-128.15700746,0.21896561,3087.0,-43.537022,13.265491,161.534271,7.4,-0.0,546.0
10.95,-128.15699368999998,0.218903335,3088.0,-42.996605,13.4524285,161.35424799999998,7.15,0.0,545.5
11.0,-128.15697992,0.21884106,3089.0,-42.456188,13.639366,161.174225,6.9,0.0,545.0
11.05,-128.15696558000002,0.218785125,3090.5,-42.0008295,13.7770745,161.03331,6.7,0.0,544.5
11.1,-128.15695124,0.21872919,3092.0,-41.545471,13.914783,160.892395,6.5,-0.0,544.0
11.15,-128.15693461,0.21866519,3093.0,-40.7947175,14.105822,160.67967199999998,6.25,0.0,544.0
11.2,-128.15691798,0.21860119,3094.0,-40.043964,14.296861,160.466949,6.0,0.0,544.0
11.25,-128.1569002,0.21853776,3095.0,-39.647659,14.3977055,160.35466,5.8,0.0,543.5
11.3,-128.15688242,0.21847433,3096.0,-39.251354,14.49855,160.242371,5.6,0.0,543.0
11.35,-128.15686291999998,0.21840629,3097.5,-38.5607585,14.6893185,160.024826,5.4,0.0,542.5
11.4,-128.15684342,0.21833825,3099.0,-37.870163,14.880087,159.807281,5.2,0.0,542.0
11.45,-128.156826215,0.218279435,3100.5,-37.416298,15.006831,159.662277,5.050000000000001,0.05,542.0
11.5,-128.15680901,0.21822062,3102.0,-36.962433,15.133575,159.517273,4.9,0.1,542.0
11.55,-128.15678722,0.2181525799999999,3103.5,-36.534035,15.270211,159.35580449999998,4.75,0.05,541.5
11.6,-128.15676543,0.21808454,3105.0,-36.105637,15.406847,159.194336,4.6,0.0,541.0
11.65,-128.15674651,0.21802573,3106.5,-35.6965355,15.557262,159.0112915,4.5,0.0,541.0
11.7,-128.15672759,0.21796692,3108.0,-35.287434,15.707677,158.828247,4.4,-0.0,541.0
11.75,-128.15670752,0.21790695,3110.0,-35.0334265,15.801069,158.71455400000002,4.300000000000001,0.0,540.5
11.8,-128.15668745,0.21784698,3112.0,-34.779419,15.894461,158.600861,4.2,-0.0,540.0
11.85,-128.156663365,0.217776635,3113.5,-34.374652999999995,16.114941,158.31834450000002,4.1,0.0,540.0
11.9,-128.15663928,0.21770629,3115.0,-33.969887,16.335421,158.035828,4.0,0.0,540.0
11.95,-128.15661864,0.21764748,3116.5,-33.7247945,16.4747355,157.85650650000002,3.9,0.05,539.5
12.0,-128.156598,0.21758867,3118.0,-33.479702,16.61405,157.677185,3.8,0.1,539.0
12.05,-128.156576785,0.21753043,3120.0,-33.294279,16.822893,157.433243,3.85,0.05,538.5
12.1,-128.15655557,0.21747219,3122.0,-33.108856,17.031736,157.189301,3.9,0.0,538.0
12.15,-128.156532065,0.21740819,3124.0,-32.897812,17.470779999999998,156.700806,4.0,0.0,537.5
12.2,-128.15650856,0.21734419,3126.0,-32.686768,17.909824,156.212311,4.1,0.0,537.0
12.25,-128.156488495,0.217292295,3127.5,-32.5833455,18.124977,155.972916,4.199999999999999,0.0,537.0
12.3,-128.15646843,0.2172404,3129.0,-32.479923,18.34013,155.733521,4.3,0.0,537.0
12.35,-128.156443205,0.2171764,3131.0,-32.427614,19.053153,155.0481415,4.5,0.0,536.5
12.4,-128.15641798,0.2171124,3133.0,-32.375305,19.766176,154.362762,4.7,0.0,536.0
12.45,-128.156395045,0.217055895,3135.0,-32.351854,20.2307195,153.9201505,4.95,0.05,535.5
12.5,-128.15637211,0.21699939,3137.0,-32.328403,20.695263,153.477539,5.2,0.1,535.0
12.55,-128.15634574,0.2169371199999999,3139.5,-32.356897000000004,21.345478,152.8867035,5.45,0.05,534.5
12.6,-128.15631937,0.21687485,3142.0,-32.385391,21.995693,152.295868,5.7,0.0,534.0
12.65,-128.156295295,0.21681834,3144.0,-32.440172000000004,22.640597,151.7222595,5.9,0.0,533.0
12.7,-128.15627122,0.21676183,3146.0,-32.494953,23.285501,151.148651,6.1,-0.0,532.0
12.75,-128.156243705,0.216702445,3148.5,-32.529497000000006,23.692143,150.7869565,6.35,0.0,531.5
12.8,-128.15621619,0.21664306,3151.0,-32.564041,24.098785,150.425262,6.6,-0.0,531.0
12.85,-128.15618982,0.216586555,3153.5,-32.591633,24.8632325,149.7575985,6.75,-0.05,530.0
12.9,-128.15616345,0.21653005,3156.0,-32.619225,25.62768,149.089935,6.9,-0.1,529.0
12.95,-128.156141095,0.21648277,3158.0,-32.634947,26.107053,148.671768,7.1,-0.1,528.5
13.0,-128.15611874,0.21643549,3160.0,-32.650669,26.586426,148.253601,7.3,-0.1,528.0
13.05,-128.156092945,0.216385905,3162.5,-32.635906,27.0357315,147.866104,7.4,-0.15,527.0
13.1,-128.15606715,0.21633632,3165.0,-32.621143,27.485037,147.478607,7.5,-0.2,526.0
13.15,-128.156043075,0.216289045,3167.0,-32.53934099999999,28.1383895,146.92424,7.55,-0.2,525.5
13.2,-128.156019,0.21624177,3169.0,-32.457539,28.791742,146.369873,7.6,-0.2,525.0
13.25,-128.155988625,0.216185265,3172.0,-32.401936,29.235829,145.9930725,7.65,-0.25,524.0
13.3,-128.15595825,0.21612876,3175.0,-32.346333,29.679916,145.616272,7.7,-0.3,523.0
13.35,-128.15592558,0.216070525,3178.5,-32.1406395,30.4294815,144.992264,7.75,-0.35,522.0
13.4,-128.15589291,0.21601229,3182.0,-31.934946,31.179047,144.368256,7.8,-0.4,521.0
13.45,-128.155866545,0.21596617,3185.0,-31.8051035,31.625534,143.99733,7.85,-0.45,520.0
13.5,-128.15584018,0.21592005,3188.0,-31.675261,32.072021,143.626404,7.9,-0.5,519.0
13.55,-128.15581324,0.215875075,3191.0,-31.563428,32.467361,143.3001865,7.95,-0.5,518.5
13.6,-128.1557863,0.2158301,3194.0,-31.451595,32.862701,142.973969,8.0,-0.5,518.0
13.65,-128.15575478,0.21577879,3197.5,-31.240544,33.6388035,142.33955400000002,8.05,-0.5,517.0
13.7,-128.15572326,0.21572748,3201.0,-31.029493,34.414906,141.705139,8.1,-0.5,516.0
13.75,-128.15569632,0.215684815,3204.0,-30.926812,34.792494000000005,141.3964995,8.149999999999999,-0.5,515.0
13.8,-128.15566938,0.21564215,3207.0,-30.824131,35.170082,141.08786,8.2,-0.5,514.0
13.85,-128.15563729000002,0.2155931449999999,3210.5,-30.765829,36.002094,140.3972475,8.3,-0.5,513.0
13.9,-128.1556052,0.21554414,3214.0,-30.707527,36.834106,139.706635,8.4,-0.5,512.0
13.95,-128.155577115,0.21550205,3217.0,-30.6820895,37.416639,139.2221225,8.55,-0.5,511.0
14.0,-128.15554903,0.21545996,3220.0,-30.656652,37.999172,138.73761,8.7,-0.5,510.0
14.05,-128.15551865499998,0.21541672,3224.0,-30.662562,38.5318315,138.29231249999998,8.75,-0.5,508.5
14.1,-128.15548828,0.21537348,3228.0,-30.668472,39.064491,137.847015,8.8,-0.5,507.0
14.15,-128.15545791,0.21533082,3231.5,-30.758541,40.051668,137.0157165,8.95,-0.45,506.0
14.2,-128.15542754,0.21528816,3235.0,-30.84861,41.038845,136.184418,9.1,-0.4,505.0
14.25,-128.15539831,0.21524953,3238.5,-30.8969315,41.5684795,135.738388,9.25,-0.45,503.5
14.3,-128.15536908,0.2152109,3242.0,-30.945253,42.098114,135.292358,9.4,-0.5,502.0
14.35,-128.15533642000003,0.21516824,3246.5,-30.9836435,43.090101,134.468994,9.6,-0.5,500.5
14.4,-128.15530376,0.21512558,3251.0,-31.022034,44.082088,133.64563,9.8,-0.5,499.0
14.45,-128.155275105,0.21508868,3254.5,-31.0439205,44.797403,133.05320749999998,9.95,-0.5,498.0
14.5,-128.15524645,0.21505178,3258.0,-31.065807,45.512718,132.460785,10.1,-0.5,497.0
14.55,-128.15521608,0.21501604,3262.0,-31.066529,46.122564,131.9614565,10.2,-0.5,495.5
14.6,-128.15518571,0.2149803,3266.0,-31.067251,46.73241,131.462128,10.3,-0.5,494.0
14.65,-128.15515935000002,0.21494859,3269.5,-31.02913,47.5711955,130.78770450000002,10.35,-0.5,492.5
14.7,-128.15513299,0.21491688,3273.0,-30.991009,48.409981,130.113281,10.4,-0.5,491.0
14.75,-128.15510204499998,0.214881715,3277.5,-30.965809,48.964455,129.6674345,10.4,-0.5,489.5
14.8,-128.1550711,0.21484655,3282.0,-30.940609,49.518929,129.221588,10.4,-0.5,488.0
14.85,-128.15504073,0.21481369,3286.5,-30.9919595,50.2263875,128.5955505,10.4,-0.55,486.5
14.9,-128.15501036,0.21478083,3291.0,-31.04331,50.933846,127.969513,10.4,-0.6,485.0
14.95,-128.15497655,0.214743935,3296.0,-31.117398,51.6031935,127.3597565,10.35,-0.6,483.5
15.0,-128.15494274,0.21470704,3301.0,-31.191486,52.272541,126.75,10.3,-0.6,482.0
15.05,-128.15491580999998,0.2146799449999999,3305.5,-31.304700500000003,52.70432649999999,126.3452605,10.3,-0.6,480.5
15.1,-128.15488888,0.21465285,3310.0,-31.417915,53.136112,125.940521,10.3,-0.6,479.0
15.15,-128.154872265,0.21463671,3312.5,-31.6735885,53.668533,125.421234,10.25,-0.55,478.0
15.2,-128.15485565,0.21462057,3315.0,-31.929262,54.200954,124.901947,10.2,-0.5,477.0
15.25,-128.15481783,0.2145831,3321.5,-32.212054,54.789848000000006,124.327591,10.1,-0.45,475.5
15.3,-128.15478001,0.21454563,3328.0,-32.494846,55.378742,123.753235,10.0,-0.4,474.0
15.35,-128.15475135999998,0.2145196899999999,3332.5,-32.942310000000006,55.907055,123.08548,9.95,-0.4,472.5
15.4,-128.15472271,0.21449375,3337.0,-33.389774,56.435368,122.417725,9.9,-0.4,471.0
15.45,-128.154689475,0.214463195,3343.0,-33.883459,56.9785635,121.704697,9.8,-0.35,469.5
15.5,-128.15465624,0.21443264,3349.0,-34.377144,57.521759,120.991669,9.7,-0.3,468.0
15.55,-128.15463217500002,0.21441304,3353.0,-34.667826000000005,57.8110695,120.574921,9.7,-0.3,466.5
15.6,-128.15460811,0.21439344,3357.0,-34.958508,58.10038,120.158173,9.7,-0.3,465.0
15.65,-128.15458347499998,0.2143726899999999,3361.5,-35.6440145,58.643482000000006,119.189362,9.65,-0.25,463.5
15.7,-128.15455884,0.21435194,3366.0,-36.329521,59.186584,118.220551,9.6,-0.2,462.0
15.75,-128.154529045,0.214328305,3371.5,-36.820482,59.5755555,117.5266725,9.6,-0.2,460.5
15.8,-128.15449925,0.21430467,3377.0,-37.311443,59.964527,116.832794,9.6,-0.2,459.0
15.85,-128.15447461,0.21428565,3381.5,-37.984167,60.406532,115.8897705,9.6,-0.2,457.5
15.9,-128.15444997,0.21426663,3386.0,-38.656891,60.848537,114.946747,9.6,-0.2,456.0
15.95,-128.15441846,0.214242995,3392.0,-39.551199,61.402914,113.695938,9.55,-0.2,454.0
16.0,-128.15438695,0.21421936,3398.0,-40.445507,61.957291,112.445129,9.5,-0.2,452.0
16.05,-128.15436403,0.214204375,3402.5,-41.0471075,62.2974455,111.6200405,9.55,-0.25,451.0
16.1,-128.15434111,0.21418939,3407.0,-41.648708,62.6376,110.794952,9.6,-0.3,450.0
16.15,-128.154323925,0.214177285,3410.0,-42.652151,63.1076375,109.467285,9.65,-0.3,449.0
16.2,-128.15430674,0.21416518,3413.0,-43.655594,63.577675,108.139618,9.7,-0.3,448.0
16.25,-128.154274655,0.214144435,3420.0,-44.5674765,64.00482199999999,106.93309,9.65,-0.35,446.0
16.3,-128.15424257,0.21412369,3427.0,-45.479359,64.431969,105.726562,9.6,-0.4,444.0
16.35,-128.15421564000002,0.2141081249999999,3433.0,-46.7460615,64.889599,104.126312,9.6,-0.4,442.0
16.4,-128.15418871,0.21409256,3439.0,-48.012764,65.347229,102.526062,9.6,-0.4,440.0
16.45,-128.15416349999998,0.214078155,3444.0,-49.2191315,65.7533875,101.0186155,9.55,-0.4,438.5
16.5,-128.15413829,0.21406375,3449.0,-50.425499,66.159546,99.511169,9.5,-0.4,437.0
16.55,-128.15411824,0.21405395,3453.5,-51.0346735,66.364643,98.749954,9.6,-0.45,435.5
16.6,-128.15409819,0.21404415,3458.0,-51.643848,66.56974,97.988739,9.7,-0.5,434.0
16.65,-128.15407241000003,0.214031475,3464.0,-53.686977,67.0506935,95.433319,9.8,-0.55,432.0
16.7,-128.15404663,0.2140188,3470.0,-55.730106,67.531647,92.877899,9.9,-0.6,430.0
16.75,-128.154024285,0.214009005,3475.0,-56.851919,67.79274000000001,91.474777,9.9,-0.6,428.5
16.8,-128.15400194,0.21399921,3480.0,-57.973732,68.053833,90.071655,9.9,-0.6,427.0
16.85,-128.15397788,0.21398999,3486.0,-59.923464,68.368679,88.0474395,9.9,-0.6,425.5
16.9,-128.15395382,0.21398077,3492.0,-61.873196,68.683525,86.023224,9.9,-0.6,424.0
16.95,-128.15393319499998,0.21397328,3497.0,-63.3546585,68.900879,84.5504,9.9,-0.6,422.5
17.0,-128.15391257,0.21396579,3502.0,-64.836121,69.118233,83.077576,9.9,-0.6,421.0
17.05,-128.153889085,0.21395888,3507.5,-66.004929,69.26413,81.9652405,10.05,-0.6499999999999999,419.0
17.1,-128.1538656,0.21395197,3513.0,-67.173737,69.410027,80.852905,10.2,-0.7,417.0
17.15,-128.153846695,0.2139473599999999,3517.5,-69.57002650000001,69.5102235,78.958145,10.3,-0.7,415.5
17.2,-128.15382779,0.21394275,3522.0,-71.966316,69.61042,77.063385,10.4,-0.7,414.0
17.25,-128.153807165,0.213938145,3527.5,-73.556198,69.676895,75.8062515,10.45,-0.7,412.0
17.3,-128.15378654,0.21393354,3533.0,-75.14608,69.74337,74.549118,10.5,-0.7,410.0
17.35,-128.153767065,0.213930665,3538.0,-77.5312235,69.712166,72.811653,10.45,-0.6,408.5
17.4,-128.15374759,0.21392779,3543.0,-79.916367,69.680962,71.074188,10.4,-0.5,407.0
17.45,-128.15372811499998,0.213924335,3548.5,-82.2839395,69.61563899999999,69.3884735,10.3,-0.35,405.5
17.5,-128.15370864,0.21392088,3554.0,-84.651512,69.550316,67.702759,10.2,-0.2,404.0
17.55,-128.15368859,0.21392031,3559.0,-86.00189599999999,69.513058,66.7412875,9.6,0.1499999999999999,402.0
17.6,-128.15366854,0.21391974,3564.0,-87.35228,69.4758,65.779816,9.0,0.5,400.0
17.65,-128.15364963500002,0.21391917,3569.0,-90.57325,69.190323,63.420784,8.35,0.8,398.5
17.7,-128.15363073,0.2139186,3574.0,-93.79422,68.904846,61.061752,7.7,1.1,397.0
17.75,-128.153610685,0.21391976,3580.0,-95.7706565,68.729675,59.614212,7.45,1.25,395.5
17.8,-128.15359064,0.21392092,3586.0,-97.747093,68.554504,58.166672,7.2,1.4,394.0
17.85,-128.1535746,0.213922655,3590.5,-99.892719,68.2209395,56.427704,7.5,1.25,392.5
17.9,-128.15355856,0.21392439,3595.0,-102.038345,67.887375,54.688736,7.8,1.1,391.0
17.95,-128.15353850999998,0.213926705,3600.5,-104.179798,67.5199625,52.912857,8.2,0.95,389.0
18.0,-128.15351846,0.21392902,3606.0,-106.321251,67.15255,51.136978,8.6,0.8,387.0
18.05,-128.153502425,0.21393306,3610.5,-107.426163,66.9415095,50.1977995,8.75,0.75,385.5
18.1,-128.15348639,0.2139371,3615.0,-108.531075,66.730469,49.258621,8.9,0.7,384.0
18.15,-128.15347035000002,0.213941145,3619.5,-110.469727,66.1534805,47.390419,9.1,0.6499999999999999,382.5
18.2,-128.15345431,0.21394519,3624.0,-112.408379,65.576492,45.522217,9.3,0.6,381.0
18.25,-128.15343541,0.213952115,3629.5,-113.705162,65.19054,44.2725525,9.45,0.55,379.0
18.3,-128.15341651,0.21395904,3635.0,-115.001945,64.804588,43.022888,9.6,0.5,377.0
18.35,-128.15340105,0.2139653899999999,3639.5,-116.1448095,64.32973849999999,41.8634415,9.65,0.45,375.5
18.4,-128.15338559,0.21397174,3644.0,-117.287674,63.854889,40.703995,9.7,0.4,374.0
18.45,-128.15336783499998,0.213979815,3649.5,-118.472008,63.3125895,39.480812,9.75,0.3,372.5
18.5,-128.15335008,0.21398789,3655.0,-119.656342,62.77029,38.257629,9.8,0.2,371.0
18.55,-128.153334615,0.213997125,3659.5,-120.2710535,62.466692,37.59922,9.75,0.15,369.5
18.6,-128.15331915,0.21400636,3664.0,-120.885765,62.163094,36.940811,9.7,0.1,368.0
18.65,-128.15330196999997,0.21401617,3669.0,-121.5730285,61.5803395,35.94581599999999,9.55,0.0,366.0
18.7,-128.15328479,0.21402598,3674.0,-122.260292,60.997585,34.950821,9.4,-0.1,364.0
18.75,-128.15327047,0.214036365,3678.5,-122.6075555,60.703127,34.4480665,9.3,-0.15,362.5
18.8,-128.15325615,0.21404675,3683.0,-122.954819,60.408669,33.945312,9.2,-0.2,361.0
18.85,-128.15324298000002,0.214057135,3687.0,-123.017849,60.0882075,33.379363999999995,9.15,-0.3,359.5
18.9,-128.15322981,0.21406752,3691.0,-123.080879,59.767746,32.813416,9.1,-0.4,358.0
18.95,-128.153213205,0.214080785,3696.0,-122.9933965,59.412607,32.176857,8.95,-0.5,356.5
19.0,-128.1531966,0.21409405,3701.0,-122.905914,59.057468,31.540298,8.8,-0.6,355.0
19.05,-128.153184,0.214106165,3705.0,-122.85503,58.8786255,31.208488,8.65,-0.6499999999999999,353.5
19.1,-128.1531714,0.21411828,3709.0,-122.804146,58.699783,30.876678,8.5,-0.7,352.0
19.15,-128.15315708499998,0.214132125,3713.5,-122.627716,58.3385275,30.0850445,8.35,-0.75,351.0
19.2,-128.15314277,0.21414597,3718.0,-122.451286,57.977272,29.293411,8.2,-0.8,350.0
19.25,-128.153129025,0.214160395,3722.0,-122.356861,57.783922,28.869728,8.05,-0.8,348.5
19.3,-128.15311528,0.21417482,3726.0,-122.262436,57.590572,28.446045,7.9,-0.8,347.0
19.35,-128.15310268500002,0.2141886599999999,3730.0,-122.342781,57.296146,27.7573015,7.800000000000001,-0.8500000000000001,345.5
19.4,-128.15309009,0.2142025,3734.0,-122.423126,57.00172,27.068558,7.7,-0.9,344.0
19.45,-128.15307635,0.214218075,3738.5,-122.5501595,56.715555,26.3896255,7.6,-0.9,342.5
19.5,-128.15306261,0.21423365,3743.0,-122.677193,56.42939,25.710693,7.5,-0.9,341.0
19.55,-128.153051155,0.2142486499999999,3747.0,-122.7421075,56.283167,25.3637845,7.45,-0.8,340.0
19.6,-128.1530397,0.21426365,3751.0,-122.807022,56.136944,25.016876,7.4,-0.7,339.0
19.65,-128.15302710499998,0.214280375,3755.0,-123.40382,55.6570665,23.94339,7.35,-0.6499999999999999,337.5
19.7,-128.15301451,0.2142971,3759.0,-124.000618,55.177189,22.869904,7.3,-0.6,336.0
19.75,-128.15300363,0.2143121,3762.5,-124.303646,54.935694,22.3301395,7.3,-0.5,335.0
19.8,-128.15299275,0.2143271,3766.0,-124.606674,54.694199,21.790375,7.3,-0.4,334.0
19.85,-128.15297844,0.21434902,3770.5,-125.377369,54.2364445,20.969345,7.3,-0.3,332.0
19.9,-128.15296413,0.21437094,3775.0,-126.148064,53.77869,20.148315,7.3,-0.2,330.0
19.95,-128.152953825,0.21438709,3779.0,-126.8049165,53.417097,19.54924,7.35,-0.1,329.0
20.0,-128.15294352,0.21440324,3783.0,-127.461769,53.055504,18.950165,7.4,-0.0,328.0
20.05,-128.15293207000002,0.214424,3787.0,-127.9875145,52.783781000000005,18.5294115,7.35,0.1,326.5
20.1,-128.15292062,0.21444476,3791.0,-128.51326,52.512058,18.108658,7.3,0.2,325.0
20.15,-128.152910315,0.214462065,3794.0,-129.7475665,52.032705,17.647208999999997,7.25,0.35,324.0
20.2,-128.15290001,0.21447937,3797.0,-130.981873,51.553352,17.18576,7.2,0.5,323.0
20.25,-128.152890275,0.214498405,3801.0,-131.723114,51.2654875,16.9086455,7.1,0.6,321.5
20.3,-128.15288054,0.21451744,3805.0,-132.464355,50.977623,16.631531,7.0,0.7,320.0
20.35,-128.152869095,0.21454051,3809.0,-133.7740475,50.5253485,16.366478,6.85,0.85,318.5
20.4,-128.15285765,0.21456358,3813.0,-135.08374,50.073074,16.101425,6.7,1.0,317.0
20.45,-128.15284849,0.214582615,3816.0,-136.1243665,49.725086,15.9361875,6.550000000000001,1.1,316.0
20.5,-128.15283933,0.21460165,3819.0,-137.164993,49.377098,15.77095,6.4,1.2,315.0
20.55,-128.15282960000002,0.214623565,3823.0,-137.874939,49.1244145,15.661621,6.25,1.2999999999999998,314.0
20.6,-128.15281987,0.21464548,3827.0,-138.584885,48.871731,15.552292,6.1,1.4,313.0
20.65,-128.15281128499998,0.214664515,3830.0,-139.5787585,48.3968295,15.4261015,5.9,1.4,312.0
20.7,-128.1528027,0.21468355,3833.0,-140.572632,47.921928,15.299911,5.7,1.4,311.0
20.75,-128.152792395,0.21470835,3836.5,-141.26371,47.591711,15.212173,5.550000000000001,1.45,309.5
20.8,-128.15278209,0.21473315,3840.0,-141.954788,47.261494,15.124435,5.4,1.5,308.0
20.85,-128.152773505,0.21475449,3843.5,-142.478912,46.8390085,15.0501935,5.300000000000001,1.45,307.0
20.9,-128.15276492,0.21477583,3847.0,-143.003036,46.416523,14.975952,5.2,1.4,306.0
20.95,-128.152755765,0.2147989,3850.0,-143.4624095,45.97324,14.907608,5.1,1.35,304.5
21.0,-128.15274661,0.21482197,3853.0,-143.921783,45.529957,14.839264,5.0,1.3,303.0
21.05,-128.15273802500002,0.21484446,3856.0,-144.14347800000002,45.3160285,14.806282,4.9,1.3,302.0
21.1,-128.15272944,0.21486695,3859.0,-144.365173,45.1021,14.7733,4.8,1.3,301.0
21.15,-128.15272199999998,0.2148882899999999,3862.0,-144.5720215,44.517078,14.6701505,4.699999999999999,1.25,300.0
21.2,-128.15271456,0.21490963,3865.0,-144.77887,43.932056,14.567001,4.6,1.2,299.0
21.25,-128.152705405,0.2149350099999999,3868.5,-144.9183045,43.5377045,14.497467,4.5,1.1,298.0
21.3,-128.15269625,0.21496039,3872.0,-145.057739,43.143353,14.427933,4.4,1.0,297.0
21.35,-128.152688235,0.21498288,3874.5,-145.12034599999998,42.6913855,14.3323595,4.35,0.95,296.0
21.4,-128.15268022,0.21500537,3877.0,-145.182953,42.239418,14.236786,4.3,0.9,295.0
21.45,-128.15267164,0.21503017,3880.0,-145.21462250000002,41.6320685,14.099762,4.3,0.8,294.0
21.5,-128.15266306,0.21505497,3883.0,-145.246292,41.024719,13.962738,4.3,0.7,293.0
21.55,-128.15265562000002,0.215078615,3886.0,-145.26176450000003,40.728037,13.895813,4.25,0.6,292.0
21.6,-128.15264818,0.21510226,3889.0,-145.277237,40.431355,13.828888,4.2,0.5,291.0
21.65,-128.15263959499998,0.21512879,3891.5,-145.245201,39.6851715,13.598259,4.15,0.45,290.0
21.7,-128.15263101,0.21515532,3894.0,-145.213165,38.938988,13.36763,4.1,0.4,289.0
21.75,-128.152624145,0.21517839,3896.5,-145.19705950000002,38.563639,13.2516175,4.1,0.35,288.5
21.8,-128.15261728,0.21520146,3899.0,-145.180954,38.18829,13.135605,4.1,0.3,288.0
21.85,-128.152608695,0.215229145,3902.0,-145.1204985,37.65074,12.9312515,4.1,0.3,287.0
21.9,-128.15260011,0.21525683,3905.0,-145.060043,37.11319,12.726898,4.1,0.3,286.0
21.95,-128.15259382,0.2152799,3907.5,-144.990234,36.621164500000006,12.5250775,4.1,0.25,285.0
22.0,-128.15258753,0.21530297,3910.0,-144.920425,36.129139,12.323257,4.1,0.2,284.0
22.05,-128.15257952000002,0.2153312299999999,3912.5,-144.853111,35.748388500000004,12.161613,4.05,0.25,283.5
22.1,-128.15257151,0.21535949,3915.0,-144.785797,35.367638,11.999969,4.0,0.3,283.0
22.15,-128.15256635999998,0.215377365,3916.5,-144.59371950000002,34.83391,11.7332685,3.95,0.3,282.5
22.2,-128.15256121,0.21539524,3918.0,-144.401642,34.300182,11.466568,3.9,0.3,282.0
22.25,-128.152552055,0.2154286899999999,3921.5,-144.25534850000005,33.893732,11.2634505,3.85,0.35,281.0
22.3,-128.1525429,0.21546214,3925.0,-144.109055,33.487282,11.060333,3.8,0.4,280.0
22.35,-128.152536035,0.215490975,3927.5,-143.8549425,33.045826000000005,10.805023,3.75,0.45,279.0
22.4,-128.15252917,0.21551981,3930.0,-143.60083,32.60437,10.549713,3.7,0.5,278.0
22.45,-128.152522305,0.215545765,3932.0,-143.34883100000002,32.213374,10.3137665,3.65,0.6,277.0
22.5,-128.15251544,0.21557172,3934.0,-143.096832,31.822378,10.07782,3.6,0.7,276.0
22.55,-128.15250915,0.21559825,3936.0,-142.958572,31.607867,9.948349,3.5,0.8,275.5
22.6,-128.15250286,0.21562478,3938.0,-142.820312,31.393356,9.818878,3.4,0.9,275.0
22.65,-128.15249656499998,0.2156513099999999,3940.0,-142.472694,30.916558,9.49041,3.35,1.0,274.5
22.7,-128.15249027,0.21567784,3942.0,-142.125076,30.43976,9.161942,3.3,1.1,274.0
22.75,-128.15248341,0.215706675,3944.0,-141.909927,30.144661,8.9586565,3.25,1.2000000000000002,273.5
22.8,-128.15247655,0.21573551,3946.0,-141.694778,29.849562,8.755371,3.2,1.3,273.0
22.85,-128.15247083,0.215762615,3948.0,-141.434433,29.5125525,8.517433,3.1500000000000004,1.4,272.0
22.9,-128.15246511,0.21578972,3950.0,-141.174088,29.175543,8.279495,3.1,1.5,271.0
22.95,-128.15245882,0.215818555,3952.0,-140.8672565,28.7871325,8.002594,3.0,1.6,270.5
23.0,-128.15245253,0.21584739,3954.0,-140.560425,28.398722,7.725693,2.9,1.7,270.0
23.05,-128.15244681,0.215874495,3956.0,-140.410019,28.2083065,7.589935499999999,2.8,1.7999999999999998,269.5
23.1,-128.15244109,0.2159016,3958.0,-140.259613,28.017891,7.454178,2.7,1.9,269.0
23.15,-128.15243536999998,0.215932165,3959.5,-139.55702200000002,27.554758,7.180854999999999,2.6,2.0,268.5
