Time,Longitude,Latitude,Altitude,Roll,Pitch,Yaw,AOA,AOS,TAS
83.2,-128.10132792,0.28434671,317.0,-21.640827,-1.219584,52.683945,-1.5,0.1,864.0
83.25,-128.10125634,0.284402685,317.0,-21.1983145,-1.162594,52.6127625,-1.5,0.05,863.5
83.3,-128.10118476,0.28445866,317.0,-20.755802,-1.105604,52.54158,-1.5,0.0,863.0
83.35,-128.10110172,0.284523865,317.5,-20.086898,-1.032233,52.452522,-1.45,0.0,863.0
83.4,-128.10101868,0.28458907,318.0,-19.417994,-0.958862,52.363464,-1.4,-0.0,863.0
83.45,-128.10092992,0.2846588949999999,318.0,-18.6364565,-0.879176,52.268211,-1.45,0.0,863.0
83.5,-128.10084116,0.28472872,318.0,-17.854919,-0.79949,52.172958,-1.5,-0.0,863.0
83.55,-128.100756405,0.284795655,318.0,-17.4234475,-0.7554970000000001,52.120369,-1.45,0.0,862.5
83.6,-128.10067165,0.28486259,318.0,-16.991976,-0.711504,52.06778,-1.4,-0.0,862.0
83.65,-128.100602355,0.28491799,318.0,-16.1437155,-0.6209450000000001,51.9888765,-1.4,0.0,862.0
83.7,-128.10053306,0.28497339,318.0,-15.295455,-0.530386,51.909973,-1.4,0.0,862.0
83.75,-128.100442005,0.28504552,318.5,-14.64119,-0.4605375,51.8491135,-1.4,0.0,862.0
83.8,-128.10035095,0.28511765,319.0,-13.986925,-0.390689,51.788254,-1.4,0.0,862.0
83.85,-128.10027994,0.285174775,319.0,-13.3438805,-0.30453,51.758797,-1.4,0.0,862.0
83.9,-128.10020893,0.2852319,319.0,-12.700836,-0.218371,51.72934,-1.4,0.0,862.0
83.95,-128.100133915,0.2852919149999999,319.5,-11.9955125,-0.1175335,51.7080235,-1.4,0.05,862.0
84.0,-128.1000589,0.28535193,320.0,-11.290189,-0.016696,51.686707,-1.4,0.1,862.0
84.05,-128.09996612499998,0.285426945,320.0,-10.8245625,0.0498725,51.672638,-1.4,0.1,861.5
84.1,-128.09987335,0.28550196,320.0,-10.358936,0.116441,51.658569,-1.4,0.1,861.0
84.15,-128.09979948,0.285561395,320.5,-9.3706825,0.154816,51.7512435,-1.4,0.2,861.0
84.2,-128.09972561,0.28562083,321.0,-8.382429,0.193191,51.843918,-1.4,0.3,861.0
84.25,-128.09963112,0.28569642,321.5,-7.5982565,0.2215504999999999,51.919937,-1.45,0.35,861.0
84.3,-128.09953663,0.28577201,322.0,-6.814084,0.24991,51.995956,-1.5,0.4,861.0
84.35,-128.099465045,0.285830295,322.0,-6.027574,0.2327385,52.06002,-1.5,0.45,860.5
84.4,-128.09939346,0.28588858,322.0,-5.241064,0.215567,52.124084,-1.5,0.5,860.0
84.45,-128.09930126,0.28596244,322.5,-3.7390485,0.138078,52.234489,-1.55,0.6,860.0
84.5,-128.09920906,0.2860363,323.0,-2.237033,0.060589,52.344894,-1.6,0.7,860.0
84.55,-128.099132895,0.28609689,323.5,-1.5748775,0.026429,52.393547,-1.65,0.75,860.0
84.6,-128.09905673,0.28615748,324.0,-0.912722,-0.007731,52.4422,-1.7,0.8,860.0
84.65,-128.09896396,0.28623192,324.5,1.065244,-0.0421715,52.469368,-1.7,0.8,859.5
84.7,-128.09887119,0.28630636,325.0,3.04321,-0.076612,52.496536,-1.7,0.8,859.0
84.75,-128.098797315,0.28636464,325.0,4.040799,-0.0932045,52.5088805,-1.7,0.8,859.0
84.8,-128.09872344,0.28642292,325.0,5.038388,-0.109797,52.521225,-1.7,0.8,859.0
84.85,-128.098638685,0.286489855,325.5,6.3974865,-0.118798,52.523773000000006,-1.7,0.8,859.0
84.9,-128.09855393,0.28655679,326.0,7.756585,-0.127799,52.526321,-1.7,0.8,859.0
84.95,-128.098477195,0.28661796,326.5,9.3570485,-0.130246,52.5207825,-1.7,0.75,858.5
85.0,-128.09840046,0.28667913,327.0,10.957512,-0.132693,52.515244,-1.7,0.7,858.0
85.05,-128.098322005,0.286740295,327.0,11.87163,-0.1340905,52.512093,-1.7,0.7,858.0
85.1,-128.09824355,0.28680146,327.0,12.785748,-0.135488,52.508942,-1.7,0.7,858.0
85.15,-128.098161655,0.28686494,327.5,14.596086499999998,-0.1500675,52.5378115,-1.7,0.7,858.0
85.2,-128.09807976,0.28692842,328.0,16.406425,-0.164647,52.566681,-1.7,0.7,858.0
85.25,-128.09800016,0.28699074,328.5,17.5437545,-0.174275,52.5862045,-1.7,0.6499999999999999,858.0
85.3,-128.09792056,0.28705306,329.0,18.681084,-0.183903,52.605728,-1.7,0.6,858.0
85.35,-128.097822635,0.28712808,329.5,20.1524745,-0.200453,52.663849,-1.7,0.6,858.0
85.4,-128.09772471,0.2872031,330.0,21.623865,-0.217003,52.72197,-1.7,0.6,858.0
85.45,-128.097648545,0.28726138,330.0,22.8220615,-0.232242,52.78344,-1.7,0.6,857.5
85.5,-128.09757238,0.28731966,330.0,24.020258,-0.247481,52.84491,-1.7,0.6,857.0
85.55,-128.09748647499998,0.28738487,330.5,24.826433,-0.2577345,52.8862535,-1.7,0.6,857.0
85.6,-128.09740057,0.28745008,331.0,25.632608,-0.267988,52.927597,-1.7,0.6,857.0
85.65,-128.09732154,0.2875095199999999,331.0,26.92794,-0.2984795,53.0414965,-1.75,0.6,857.0
85.7,-128.09724251,0.28756896,331.0,28.223272,-0.328971,53.155396,-1.8,0.6,857.0
85.75,-128.09715203000002,0.287636475,331.5,29.1057335,-0.349744,53.2329945,-1.8,0.6,856.5
85.8,-128.09706155,0.28770399,332.0,29.988195,-0.370517,53.310593,-1.8,0.6,856.0
85.85,-128.09699111,0.287756505,332.5,30.631111,-0.385394,53.3814165,-1.8,0.6,856.0
85.9,-128.09692067,0.28780902,333.0,31.274027,-0.400271,53.45224,-1.8,0.6,856.0
85.95,-128.09682732,0.28787769,333.0,32.2644605,-0.422861,53.5796205,-1.8,0.6,856.0
86.0,-128.09673397,0.28794636,333.0,33.254894,-0.445451,53.707001,-1.8,0.6,856.0
86.05,-128.09666296,0.2879983,333.5,33.6795005,-0.455136,53.761612,-1.8,0.6,856.0
86.1,-128.09659195,0.28805024,334.0,34.104107,-0.464821,53.816223,-1.8,0.6,856.0
86.15,-128.096505475,0.288112565,334.0,34.8985405,-0.4656035,53.972168,-1.8,0.6,856.0
86.2,-128.096419,0.28817489,334.0,35.692974,-0.466386,54.128113,-1.8,0.6,856.0
86.25,-128.09632965999998,0.2882395199999999,334.5,36.2539635,-0.465762,54.2418825,-1.75,0.6,856.0
86.3,-128.09624032,0.28830415,335.0,36.814953,-0.465138,54.355652,-1.7,0.6,856.0
86.35,-128.096158995,0.288361285,335.0,37.3266945,-0.4472965,54.503151,-1.7,0.6,856.0
86.4,-128.09607767,0.28841842,335.0,37.838436,-0.429455,54.65065,-1.7,0.6,856.0
86.45,-128.09598375000002,0.2884847849999999,335.5,38.502117,-0.394194,54.872635,-1.65,0.55,856.0
86.5,-128.09588983,0.28855115,336.0,39.165798,-0.358933,55.09462,-1.6,0.5,856.0
86.55,-128.09580564499998,0.288609435,336.5,39.501604,-0.3410915,55.206932,-1.55,0.5,855.5
86.6,-128.09572146,0.28866772,337.0,39.83741,-0.32325,55.319244,-1.5,0.5,855.0
86.65,-128.09563269,0.28872774,337.0,40.6874295,-0.272557,55.5341335,-1.5,0.5,855.0
86.7,-128.09554392,0.28878776,337.0,41.537449,-0.221864,55.749023,-1.5,0.5,855.0
86.75,-128.09546775500002,0.2888397,337.5,42.0155735,-0.19326,55.868782,-1.45,0.5,855.0
86.8,-128.09539159,0.28889164,338.0,42.493698,-0.164656,55.988541,-1.4,0.5,855.0
86.85,-128.09529365499998,0.288956855,338.0,43.17506,-0.139676,56.151581,-1.4,0.5,854.5
86.9,-128.09519572,0.28902207,338.0,43.856422,-0.114696,56.314621,-1.4,0.5,854.0
86.95,-128.09511096,0.28907805,338.5,44.679243,-0.095637,56.506157,-1.45,0.45,854.0
87.0,-128.0950262,0.28913403,339.0,45.502064,-0.076578,56.697693,-1.5,0.4,854.0
87.05,-128.094944305,0.289185975,339.0,45.967152,-0.0658044999999999,56.8059615,-1.5,0.4,854.0
87.1,-128.09486241,0.28923792,339.0,46.43224,-0.055031,56.91423,-1.5,0.4,854.0
87.15,-128.09476619499998,0.28929967,339.5,47.5008375,-0.051704,57.1713485,-1.5,0.4,854.0
87.2,-128.09466998,0.28936142,340.0,48.569435,-0.048377,57.428467,-1.5,0.4,854.0
87.25,-128.094590375,0.289411635,340.0,49.122032,-0.047017,57.561577,-1.5,0.45,854.0
87.3,-128.09451077,0.28946185,340.0,49.674629,-0.045657,57.694687,-1.5,0.5,854.0
87.35,-128.09442257,0.2895161,340.5,50.3211515,-0.052811,57.849617,-1.5,0.45,853.5
87.4,-128.09433437,0.28957035,341.0,50.967674,-0.059965,58.004547,-1.5,0.4,853.0
87.45,-128.09425132500002,0.28962114,341.0,51.8177815,-0.078045,58.2074815,-1.5,0.45,853.0
87.5,-128.09416828,0.28967193,341.0,52.667889,-0.096125,58.410416,-1.5,0.5,853.0
87.55,-128.0940755,0.289727335,341.5,53.1839715,-0.107101,58.5336,-1.5,0.5,853.0
87.6,-128.09398272,0.28978274,342.0,53.700054,-0.118077,58.656784,-1.5,0.5,853.0
87.65,-128.09388822,0.28983815,342.5,54.5575085,-0.2127175,58.7866745,-1.55,0.5,853.0
87.7,-128.09379372,0.28989356,343.0,55.414963,-0.307358,58.916565,-1.6,0.5,853.0
87.75,-128.09369979500002,0.28994839,343.0,55.9400675,-0.367192,58.9942625,-1.65,0.5,853.0
87.8,-128.09360587,0.29000322,343.0,56.465172,-0.427026,59.07196,-1.7,0.5,853.0
87.85,-128.09352168,0.290051705,343.0,56.897051000000005,-0.502857,59.149414,-1.7,0.5,853.0
87.9,-128.09343749,0.29010019,343.0,57.32893,-0.578688,59.226868,-1.7,0.5,853.0
87.95,-128.093335545,0.29015791,343.5,57.9006385,-0.704976,59.3425675,-1.75,0.5,852.5
88.0,-128.0932336,0.29021563,344.0,58.472347,-0.831264,59.458267,-1.8,0.5,852.0
88.05,-128.09315628000002,0.29025892,344.0,58.7230165,-0.8866355,59.5089875,-1.85,0.5,852.0
88.1,-128.09307896,0.29030221,344.0,58.973686,-0.942007,59.559708,-1.9,0.5,852.0
88.15,-128.092977015,0.29035935,344.0,59.516658500000005,-1.0070815,59.840683,-1.85,0.45,852.0
88.2,-128.09287507,0.29041649,344.0,60.059631,-1.072156,60.121658,-1.8,0.4,852.0
88.25,-128.09279145,0.29046267,344.0,60.341676500000005,-1.103957,60.273857,-1.75,0.4,852.0
88.3,-128.09270783,0.29050885,344.0,60.623722,-1.135758,60.426056,-1.7,0.4,852.0
88.35,-128.09262135,0.2905550249999999,344.0,60.919943,-1.1066505,60.5906145,-1.7,0.4,852.0
88.4,-128.09253487,0.2906012,344.0,61.216164,-1.077543,60.755173,-1.7,0.4,852.0
88.45,-128.09243177500002,0.290656615,344.0,61.577511,-1.000082,60.9590685,-1.7,0.3,852.0
88.5,-128.09232868,0.29071203,344.0,61.938858,-0.922621,61.162964,-1.7,0.2,852.0
88.55,-128.092250215,0.29075301,344.0,62.1003115,-0.888012,61.254059,-1.7,0.15,852.0
88.6,-128.09217175,0.29079399,344.0,62.261765,-0.853403,61.345154,-1.7,0.1,852.0
88.65,-128.09206751,0.290847095,344.0,62.4230235,-0.7469795,61.4847415,-1.7,-0.05,851.5
88.7,-128.09196327,0.2909002,344.0,62.584282,-0.640556,61.624329,-1.7,-0.2,851.0
88.75,-128.091882515,0.290941765,344.0,62.663088,-0.5815555,61.6972735,-1.7,-0.25,851.0
88.8,-128.09180176,0.29098333,344.0,62.741894,-0.522555,61.770218,-1.7,-0.3,851.0
88.85,-128.09169752000005,0.291034705,344.0,62.698620000000005,-0.488374,61.853775,-1.7,-0.4,851.0
88.9,-128.09159328,0.29108608,344.0,62.655346,-0.454193,61.937332,-1.7,-0.5,851.0
88.95,-128.091511375,0.291127065,344.0,62.56015,-0.4438775,62.000679,-1.75,-0.6,850.5
89.0,-128.09142947,0.29116805,344.0,62.464954,-0.433562,62.064026,-1.8,-0.7,850.0
89.05,-128.09132695,0.291217695,344.0,62.398897,-0.426404,62.107994,-1.85,-0.75,850.0
89.1,-128.09122443,0.29126734,344.0,62.33284,-0.419246,62.151962,-1.9,-0.8,850.0
89.15,-128.091136225,0.29131006,344.0,62.0585135,-0.5176959999999999,62.1516875,-1.95,-0.8,850.0
89.2,-128.09104802,0.29135278,344.0,61.784187,-0.616146,62.151413,-2.0,-0.8,850.0
89.25,-128.09095867,0.291396075,343.5,61.6143475,-0.677099,62.1512375,-2.05,-0.8,850.0
89.3,-128.09086932,0.29143937,343.0,61.444508,-0.738052,62.151062,-2.1,-0.8,850.0
89.35,-128.09076622499998,0.2914884399999999,343.0,61.222647,-0.8516085,62.098114,-2.1,-0.8,850.0
89.4,-128.09066313,0.29153751,343.0,61.000786,-0.965165,62.045166,-2.1,-0.8,850.0
89.45,-128.09057951,0.2915779149999999,343.0,60.7682095,-1.102777,61.960808,-2.2,-0.8,850.0
89.5,-128.09049589,0.29161832,343.0,60.535633,-1.240389,61.87645,-2.3,-0.8,850.0
89.55,-128.090394515,0.291666815,343.0,60.3843195,-1.3299165,61.8215485,-2.35,-0.8500000000000001,850.0
89.6,-128.09029314,0.29171531,343.0,60.233006,-1.419444,61.766647,-2.4,-0.9,850.0
89.65,-128.09021238,0.291753985,342.5,59.8162045,-1.462232,61.8358685,-2.4,-0.95,850.0
89.7,-128.09013162,0.29179266,342.0,59.399403,-1.50502,61.90509,-2.4,-1.0,850.0
89.75,-128.09002794999998,0.291842885,342.0,59.0614185,-1.5363495,61.9648815,-2.35,-1.1,850.0
89.8,-128.08992428,0.29189311,342.0,58.723434,-1.567679,62.024673,-2.3,-1.2,850.0
89.85,-128.089829205,0.291938135,341.5,58.0511205,-1.5574545,62.1504515,-2.25,-1.2,850.0
89.9,-128.08973413,0.29198316,341.0,57.378807,-1.54723,62.27623,-2.2,-1.2,850.0
89.95,-128.08965108,0.292022995,340.5,56.665825,-1.523301,62.4108505,-2.2,-1.2,850.0
90.0,-128.08956803,0.29206283,340.0,55.952843,-1.499372,62.545471,-2.2,-1.2,850.0
90.05,-128.0894615,0.292113055,340.0,55.4283505,-1.4817695,62.644493,-2.1500000000000004,-1.25,850.0
90.1,-128.08935497,0.29216328,340.0,54.903858,-1.464167,62.743515,-2.1,-1.3,850.0
90.15,-128.08926619,0.292204845,339.5,53.451151,-1.443307,62.91922,-2.05,-1.3,850.0
90.2,-128.08917741,0.29224641,339.0,51.998444,-1.422447,63.094925,-2.0,-1.3,850.0
90.25,-128.08908119,0.29229086,339.0,50.953619,-1.407855,63.219864,-2.0,-1.3,850.0
90.3,-128.08898497,0.29233531,339.0,49.908794,-1.393263,63.344803,-2.0,-1.3,850.0
90.35,-128.08889791,0.292375145,338.5,48.754791,-1.3781925,63.4583285,-1.95,-1.3,850.0
90.4,-128.08881085,0.29241498,338.0,47.600788,-1.363122,63.571854,-1.9,-1.3,850.0
90.45,-128.08870603499997,0.292462895,338.0,45.804245,-1.340477,63.729477,-1.85,-1.3,850.0
90.5,-128.08860122,0.29251081,338.0,44.007702,-1.317832,63.8871,-1.8,-1.3,850.0
90.55,-128.08852045999998,0.292547185,337.5,43.243574,-1.3082005,63.954132,-1.75,-1.3,850.0
90.6,-128.0884397,0.29258356,337.0,42.479446,-1.298569,64.021164,-1.7,-1.3,850.0
90.65,-128.0883303,0.292632055,337.0,40.250389,-1.226533,64.1787415,-1.65,-1.25,850.0
90.7,-128.0882209,0.29268055,337.0,38.021332,-1.154497,64.336319,-1.6,-1.2,850.0
90.75,-128.08813957,0.29271692,337.0,36.893381000000005,-1.1169295,64.415085,-1.55,-1.2,849.5
90.8,-128.08805824,0.29275329,337.0,35.76543,-1.079362,64.493851,-1.5,-1.2,849.0
90.85,-128.08796488000002,0.2927942799999999,336.5,34.395679,-1.0190845,64.56703949999999,-1.5,-1.2,849.0
90.9,-128.08787152,0.29283527,336.0,33.025928,-0.958807,64.640228,-1.5,-1.2,849.0
90.95,-128.08776842,0.2928803049999999,336.0,31.1984125,-0.8669585,64.7203825,-1.55,-1.25,849.0
91.0,-128.08766532,0.29292534,336.0,29.370897,-0.77511,64.800537,-1.6,-1.3,849.0
91.05,-128.08757654,0.292963445,336.0,28.502034,-0.7314419999999999,64.8386305,-1.55,-1.3,849.0
91.1,-128.08748776,0.29300155,336.0,27.633171,-0.687774,64.876724,-1.5,-1.3,849.0
91.15,-128.087386955,0.2930454249999999,336.0,25.997923,-0.571239,64.92261500000001,-1.45,-1.25,849.0
91.2,-128.08728615,0.2930893,336.0,24.362675,-0.454704,64.968506,-1.4,-1.2,849.0
91.25,-128.0872031,0.293125095,336.0,23.524401,-0.3938775,64.9912185,-1.4,-1.2,849.0
91.3,-128.08712005,0.29316089,336.0,22.686127,-0.333051,65.013931,-1.4,-1.2,849.0
91.35,-128.08701351500002,0.2932065,336.5,21.5925295,-0.2327765,65.04296099999999,-1.4,-1.25,849.0
91.4,-128.08690698,0.29325211,337.0,20.498932,-0.132502,65.071991,-1.4,-1.3,849.0
91.45,-128.086822785,0.293288485,337.0,19.5038205,-0.0293005,65.09807599999999,-1.4,-1.35,849.0
91.5,-128.08673859,0.29332486,337.0,18.508709,0.073901,65.124161,-1.4,-1.4,849.0
91.55,-128.08663377,0.293369895,337.0,17.8097735,0.146387,65.14247900000001,-1.4,-1.45,848.5
91.6,-128.08652895,0.29341493,337.0,17.110838,0.218873,65.160797,-1.4,-1.5,848.0
91.65,-128.0864396,0.293453035,337.5,15.629381,0.359185,65.17459099999999,-1.35,-1.5,848.0
91.7,-128.08635025,0.29349114,338.0,14.147924,0.499497,65.188385,-1.3,-1.5,848.0
91.75,-128.08625116000002,0.29353386,338.0,13.113535,0.5972505,65.1976165,-1.3,-1.5,848.0
91.8,-128.08615207,0.29357658,338.0,12.079146,0.695004,65.206848,-1.3,-1.5,848.0
91.85,-128.0860547,0.29361873,338.5,10.9842995,0.8160365,65.19264999999999,-1.25,-1.45,848.0
91.9,-128.08595733,0.29366088,339.0,9.889453,0.937069,65.178452,-1.2,-1.4,848.0
91.95,-128.08587485,0.293696095,339.5,8.8166885,1.064138,65.15295449999999,-1.2,-1.4,848.0
92.0,-128.08579237,0.29373131,340.0,7.743924,1.191207,65.127457,-1.2,-1.4,848.0
92.05,-128.08568641,0.29377692,340.5,6.9533785,1.2848475,65.10867350000001,-1.2,-1.35,847.5
92.1,-128.08558045,0.29382253,341.0,6.162833,1.378488,65.08989,-1.2,-1.3,847.0
92.15,-128.085498545,0.293858325,341.5,5.168036,1.5891025,65.024315,-1.2,-1.3,847.0
92.2,-128.08541664,0.29389412,342.0,4.173239,1.799717,64.95874,-1.2,-1.3,847.0
92.25,-128.08530724000002,0.2939414649999999,342.5,3.4161075,1.9625155,64.907692,-1.2,-1.35,847.0
92.3,-128.08519784,0.29398881,343.0,2.658976,2.125314,64.856644,-1.2,-1.4,847.0
92.35,-128.08510447999998,0.2940303749999999,344.0,2.00289,2.2501915,64.79988900000001,-1.2,-1.35,846.5
92.4,-128.08501112,0.29407194,345.0,1.346804,2.375069,64.743134,-1.2,-1.3,846.0
92.45,-128.08491203,0.2941152449999999,345.5,0.6375265,2.5008855,64.67465250000001,-1.2,-1.3,846.0
92.5,-128.08481294,0.29415855,346.0,-0.071751,2.626702,64.606171,-1.2,-1.3,846.0
92.55,-128.084724735,0.294197805,347.0,-0.4450065,2.6929125000000003,64.570137,-1.2,-1.35,846.0
92.6,-128.08463653,0.29423706,348.0,-0.818262,2.759123,64.534103,-1.2,-1.4,846.0
92.65,-128.08454259500002,0.294279205,348.5,-1.5303654999999998,2.8154625,64.4407195,-1.25,-1.4,845.5
92.7,-128.08444866,0.29432135,349.0,-2.242469,2.871802,64.347336,-1.3,-1.4,845.0
92.75,-128.08435702,0.29436292,350.0,-2.673548,2.9044785,64.290306,-1.3,-1.45,845.0
92.8,-128.08426538,0.29440449,351.0,-3.104627,2.937155,64.233276,-1.3,-1.5,845.0
92.85,-128.084181185,0.29444259,352.0,-3.469249,2.9740390000000003,64.1632995,-1.35,-1.5,845.0
92.9,-128.08409699,0.29448069,353.0,-3.833871,3.010923,64.093323,-1.4,-1.5,845.0
92.95,-128.08399962,0.294525145,354.0,-4.303124,3.0671185000000003,63.98275,-1.4,-1.45,844.5
93.0,-128.08390225,0.2945696,355.0,-4.772377,3.123314,63.872177,-1.4,-1.4,844.0
93.05,-128.083804305,0.294615205,356.0,-5.0123585,3.1520535,63.8156205,-1.4,-1.4,844.0
93.1,-128.08370636,0.29466081,357.0,-5.25234,3.180793,63.759064,-1.4,-1.4,844.0
93.15,-128.083614145,0.294703535,357.5,-5.576277,3.1242265,63.624969500000006,-1.45,-1.4,844.0
93.2,-128.08352193,0.29474626,358.0,-5.900214,3.06766,63.490875,-1.5,-1.4,844.0
93.25,-128.083437165,0.29478609,359.0,-6.0861855,3.032713,63.412384,-1.55,-1.4,843.5
93.3,-128.0833524,0.29482592,360.0,-6.272157,2.997766,63.333893,-1.6,-1.4,843.0
93.35,-128.08325331,0.294872685,361.0,-6.4546685,2.889443,63.2371905,-1.6,-1.45,843.0
93.4,-128.08315422,0.29491945,362.0,-6.63718,2.78112,63.140488,-1.6,-1.5,843.0
93.45,-128.083067735,0.294960435,363.0,-6.7647745,2.6578985,63.060257,-1.65,-1.55,842.5
93.5,-128.08298125,0.29500142,364.0,-6.892369,2.534677,62.980026,-1.7,-1.6,842.0
93.55,-128.082888465,0.295045875,365.0,-6.9737445000000005,2.45609,62.928856,-1.75,-1.6,842.0
93.6,-128.08279568,0.29509033,366.0,-7.05512,2.377503,62.877686,-1.8,-1.6,842.0
93.65,-128.08272294,0.29512554,366.5,-7.070567,2.2982105,62.85981,-1.8,-1.55,841.5
93.7,-128.0826502,0.29516075,367.0,-7.086014,2.218918,62.841934,-1.8,-1.5,841.0
93.75,-128.082539655,0.29521444,368.5,-7.095349499999999,2.150608,62.828552,-1.8,-1.45,841.0
93.8,-128.08242911,0.29526813,370.0,-7.104685,2.082298,62.81517,-1.8,-1.4,841.0
93.85,-128.082342625,0.29531027,370.5,-6.9643875,2.0712995000000003,62.826286,-1.85,-1.35,840.5
93.9,-128.08225614,0.29535241,371.0,-6.82409,2.060301,62.837402,-1.9,-1.3,840.0
93.95,-128.08215418999998,0.2954026349999999,372.0,-6.508327,2.08175,62.870895,-1.85,-1.2000000000000002,840.0
94.0,-128.08205224,0.29545286,373.0,-6.192564,2.103199,62.904388,-1.8,-1.1,840.0
94.05,-128.08196919,0.295494425,373.5,-6.047326,2.1130645,62.919792,-1.75,-1.0,840.0
94.1,-128.08188614,0.29553599,374.0,-5.902088,2.12293,62.935196,-1.7,-0.9,840.0
94.15,-128.0817819,0.295587365,375.0,-4.91753,2.0806595000000003,63.016243,-1.75,-0.8,839.5
94.2,-128.08167766,0.29563874,376.0,-3.932972,2.038389,63.09729,-1.8,-0.7,839.0
94.25,-128.08159461,0.295680305,377.0,-3.4165615000000003,2.0155515,63.1396635,-1.85,-0.6,839.0
94.3,-128.08151156,0.29572187,378.0,-2.900151,1.992714,63.182037,-1.9,-0.5,839.0
94.35,-128.08143424,0.295760545,378.5,-2.1061655,1.9830365,63.2031705,-1.9,-0.45,838.5
94.4,-128.08135692,0.29579922,379.0,-1.31218,1.973359,63.224304,-1.9,-0.4,838.0
94.45,-128.08125554,0.295849445,380.0,0.185351,1.9726665,63.2338255,-1.85,-0.3,837.5
94.5,-128.08115416,0.29589967,381.0,1.682882,1.971974,63.243347,-1.8,-0.2,837.0
94.55,-128.081065955,0.29594412,381.5,2.378939,1.9716525,63.247772,-1.8,-0.2,837.0
94.6,-128.08097775,0.29598857,382.0,3.074996,1.971331,63.252197,-1.8,-0.2,837.0
94.65,-128.08087981,0.2960370599999999,383.0,5.064949,2.007233,63.269180000000006,-1.8,-0.2,837.0
94.7,-128.08078187,0.29608555,384.0,7.054902,2.043135,63.286163,-1.8,-0.2,837.0
94.75,-128.08069195000002,0.29613,385.0,8.2708515,2.0661345,63.296669,-1.75,-0.2,836.5
94.8,-128.08060203,0.29617445,386.0,9.486801,2.089134,63.307175,-1.7,-0.2,836.0
94.85,-128.080505805,0.296222365,386.5,11.1916645,2.1087420000000003,63.338837,-1.75,-0.2,836.0
94.9,-128.08040958,0.29627028,387.0,12.896528,2.12835,63.370499,-1.8,-0.2,836.0
94.95,-128.08032309499998,0.2963129949999999,388.0,14.5736065,2.143084,63.4077455,-1.8,-0.15,835.5
95.0,-128.08023661,0.29635571,389.0,16.250685,2.157818,63.444992,-1.8,-0.1,835.0
95.05,-128.08013695,0.29640478,389.5,17.3271865,2.167275,63.4688875,-1.8,-0.1,835.0
95.1,-128.08003729,0.29645385,390.0,18.403688,2.176732,63.492783,-1.8,-0.1,835.0
95.15,-128.07995252,0.296495415,391.0,20.599965,2.1962135,63.561699,-1.8,-0.05,835.0
95.2,-128.07986775,0.29653698,392.0,22.796242,2.215695,63.630615,-1.8,0.0,835.0
95.25,-128.079777255,0.296580855,392.5,24.2649405,2.228726,63.677055,-1.75,0.05,834.5
95.3,-128.07968676,0.29662473,393.0,25.733639,2.241757,63.723495,-1.7,0.1,834.0
95.35,-128.07959569,0.296668025,394.0,27.541565,2.2732845,63.7967985,-1.7,0.1,834.0
95.4,-128.07950462,0.29671132,395.0,29.349491,2.304812,63.870102,-1.7,0.1,834.0
95.45,-128.079420425,0.29675231,395.5,31.1706945,2.3440835,63.9517825,-1.7,0.1,834.0
95.5,-128.07933623,0.2967933,396.0,32.991898,2.383355,64.033463,-1.7,0.1,834.0
95.55,-128.07923198999998,0.2968417949999999,397.0,34.1851845,2.4090865,64.0869755,-1.65,0.1,833.5
95.6,-128.07912775,0.29689029,398.0,35.378471,2.434818,64.140488,-1.6,0.1,833.0
95.65,-128.07904298,0.296930125,399.0,37.618164,2.523423,64.3186725,-1.55,0.1,833.0
95.7,-128.07895821,0.29696996,400.0,39.857857,2.612028,64.496857,-1.5,0.1,833.0
95.75,-128.07886141,0.2970144099999999,400.5,41.3294125,2.670245,64.61391449999999,-1.45,0.05,833.0
95.8,-128.07876461,0.29705886,401.0,42.800968,2.728462,64.730972,-1.4,0.0,833.0
95.85,-128.078675835,0.2970987,402.0,44.4111615,2.779611,64.873039,-1.45,-0.05,832.5
95.9,-128.07858706,0.29713854,403.0,46.021355,2.83076,65.015106,-1.5,-0.1,832.0
95.95,-128.078481095,0.297186455,404.0,48.043734,2.888739,65.200508,-1.5,-0.1,832.0
96.0,-128.07837513,0.29723437,405.0,50.066113,2.946718,65.38591,-1.5,-0.1,832.0
96.05,-128.078290935,0.297270745,405.5,51.017157,2.9739835,65.47309849999999,-1.5,-0.1,832.0
96.1,-128.07820674,0.29730712,406.0,51.968201,3.001249,65.560287,-1.5,-0.1,832.0
96.15,-128.07811853,0.29734465,407.0,53.881779,3.013738,65.8114545,-1.5,-0.1,831.5
96.2,-128.07803032,0.29738218,408.0,55.795357,3.026227,66.062622,-1.5,-0.1,831.0
96.25,-128.07793982,0.297420285,408.5,57.0046255,3.0334145,66.22261800000001,-1.55,-0.1,831.0
96.3,-128.07784932,0.29745839,409.0,58.213894,3.040602,66.382614,-1.6,-0.1,831.0
96.35,-128.07776455,0.29749361,409.5,59.308265500000005,3.042024,66.58547200000001,-1.6,-0.15,831.0
96.4,-128.07767978,0.29752883,410.0,60.402637,3.043446,66.78833,-1.6,-0.2,831.0
96.45,-128.077579545,0.297569825,411.0,61.9530635,3.0402595,67.1351625,-1.55,-0.15,830.5
96.5,-128.07747931,0.29761082,412.0,63.50349,3.037073,67.481995,-1.5,-0.1,830.0
96.55,-128.07739511,0.29764316,412.5,64.30345299999999,3.0354285,67.660927,-1.5,-0.1,830.0
96.6,-128.07731091,0.2976755,413.0,65.103416,3.033784,67.839859,-1.5,-0.1,830.0
96.65,-128.077202655,0.297717075,414.0,66.3249165,2.9855665,68.2253035,-1.5,-0.1,829.5
96.7,-128.0770944,0.29775865,415.0,67.546417,2.937349,68.610748,-1.5,-0.1,829.0
96.75,-128.077001605,0.297793295,416.0,68.2006375,2.9115245,68.8171995,-1.5,-0.1,829.0
96.8,-128.07690881,0.29782794,417.0,68.854858,2.8857,69.023651,-1.5,-0.1,829.0
96.85,-128.07680628,0.2978649,417.5,69.5061225,2.856001,69.4936445,-1.5,-0.1,829.0
96.9,-128.07670375,0.29790186,418.0,70.157387,2.826302,69.963638,-1.5,-0.1,829.0
96.95,-128.07661955,0.29793189,418.5,70.65005099999999,2.8018685000000003,70.449501,-1.4,-0.1,828.5
97.0,-128.07653535,0.29796192,419.0,71.142715,2.777435,70.935364,-1.3,-0.1,828.0
97.05,-128.07643969,0.29799311,419.5,71.4610785,2.761646,71.2493515,-1.3,-0.05,828.0
97.1,-128.07634403,0.2980243,420.0,71.779442,2.745857,71.563339,-1.3,-0.0,828.0
97.15,-128.07624723,0.29805549,421.0,72.2259025,2.737002,72.26469399999999,-1.2000000000000002,0.0,828.0
97.2,-128.07615043,0.29808668,422.0,72.672363,2.728147,72.966049,-1.1,0.0,828.0
97.25,-128.07605248,0.29811614,422.5,72.95401749999999,2.723223,73.421539,-1.0,0.05,827.5
97.3,-128.07595453,0.2981456,423.0,73.235672,2.718299,73.877029,-0.9,0.1,827.0
97.35,-128.075854285,0.29817333,423.5,73.508339,2.663269,74.2144695,-0.8500000000000001,0.1,827.0
97.4,-128.07575404,0.29820106,424.0,73.781006,2.608239,74.55191,-0.8,0.1,827.0
97.45,-128.075669835,0.298224745,424.5,74.01286300000001,2.531101,74.77635950000001,-0.9,0.1,827.0
97.5,-128.07558563,0.29824843,425.0,74.24472,2.453963,75.000809,-1.0,0.1,827.0
97.55,-128.07547793999998,0.29827501,426.0,74.40445700000001,2.40082,75.1554415,-1.05,0.1,827.0
97.6,-128.07537025,0.29830159,427.0,74.564194,2.347677,75.310074,-1.1,0.1,827.0
97.65,-128.07527516,0.2983247049999999,427.5,74.5601085,2.216355,75.6027755,-1.15,0.1,827.0
97.7,-128.07518007,0.29834782,428.0,74.556023,2.085033,75.895477,-1.2,0.1,827.0
97.75,-128.07509128499998,0.2983692,428.5,74.5488855,2.008619,76.0647275,-1.25,0.1,827.0
97.8,-128.0750025,0.29839058,429.0,74.541748,1.932205,76.233978,-1.3,0.1,827.0
97.85,-128.07489766999998,0.29841312,429.5,74.427685,1.9113,76.5888215,-1.35,0.05,827.0
97.9,-128.07479284,0.29843566,430.0,74.313622,1.890395,76.943665,-1.4,0.0,827.0
97.95,-128.07470920499998,0.298454155,430.5,74.1538775,1.913339,77.338364,-1.35,-0.05,827.0
98.0,-128.07462557,0.29847265,431.0,73.994133,1.936283,77.733063,-1.3,-0.1,827.0
98.05,-128.074521315,0.298492885,431.5,73.8826105,1.952301,78.0086215,-1.3,-0.15,826.5
98.1,-128.07441706,0.29851312,432.0,73.771088,1.968319,78.28418,-1.3,-0.2,826.0
98.15,-128.074331135,0.29852931,432.0,73.47535350000001,2.046729,78.57536350000001,-1.3,-0.25,826.0
98.2,-128.07424521,0.2985455,432.0,73.179619,2.125139,78.866547,-1.3,-0.3,826.0
98.25,-128.07413866,0.29856516,432.5,72.94229899999999,2.1887595,79.09170549999999,-1.35,-0.4,826.0
98.3,-128.07403211,0.29858482,433.0,72.704979,2.25238,79.316864,-1.4,-0.5,826.0
98.35,-128.07394217,0.2985987,433.5,72.49312599999999,2.2916155,79.446121,-1.4,-0.6,825.5
98.4,-128.07385223,0.29861258,434.0,72.281273,2.330851,79.575378,-1.4,-0.7,825.0
98.45,-128.07373766,0.29863109,434.5,71.79015749999999,2.3912645,79.7502135,-1.45,-0.8,825.0
98.5,-128.07362309,0.2986496,435.0,71.299042,2.451678,79.925049,-1.5,-0.9,825.0
98.55,-128.073529715,0.29866291,435.5,71.081856,2.4783945,80.002365,-1.55,-1.0,825.0
98.6,-128.07343634,0.29867622,436.0,70.86467,2.505111,80.079681,-1.6,-1.1,825.0
98.65,-128.07333552,0.2986906849999999,436.5,69.8300745,2.550364,80.2694855,-1.6,-1.15,824.5
98.7,-128.0732347,0.29870515,437.0,68.795479,2.595617,80.45929,-1.6,-1.2,824.0
98.75,-128.07313216,0.29871904,437.5,68.056557,2.625792,80.590195,-1.6,-1.25,824.0
98.8,-128.07302962,0.29873293,438.0,67.317635,2.655967,80.7211,-1.6,-1.3,824.0
98.85,-128.072930515,0.29874509,438.0,65.9091075,2.6522490000000003,80.8904115,-1.6,-1.35,823.5
98.9,-128.07283141,0.29875725,438.0,64.50058,2.648531,81.059723,-1.6,-1.4,823.0
98.95,-128.07274490999998,0.298768245,438.5,62.8514405,2.625294,81.233185,-1.6,-1.4,823.0
99.0,-128.07265841,0.29877924,439.0,61.202301,2.602057,81.406647,-1.6,-1.4,823.0
99.05,-128.07254899,0.298791405,439.5,60.0843675,2.5863045,81.524231,-1.5,-1.2999999999999998,823.0
99.1,-128.07243957,0.29880357,440.0,58.966434,2.570552,81.641815,-1.4,-1.2,823.0
99.15,-128.07235478500002,0.298812835,440.5,56.8512075,2.5305475,81.82217399999999,-1.2999999999999998,-1.15,823.0
99.2,-128.07227,0.2988221,441.0,54.735981,2.490543,82.002533,-1.2,-1.1,823.0
99.25,-128.07215314,0.298834845,441.5,52.6350155,2.4500450000000003,82.1785125,-1.1,-0.95,822.5
99.3,-128.07203628,0.29884759,442.0,50.53405,2.409547,82.354492,-1.0,-0.8,822.0
99.35,-128.07194061,0.29885686,442.5,48.390232,2.396022,82.49859599999999,-1.1,-0.8500000000000001,822.0
99.4,-128.07184494,0.29886613,443.0,46.246414,2.382497,82.6427,-1.2,-0.9,822.0
99.45,-128.071761875,0.298874245,443.5,44.019472,2.3805095,82.777008,-1.25,-0.95,822.0
99.5,-128.07167881,0.29888236,444.0,41.79253,2.378522,82.911316,-1.3,-1.0,822.0
99.55,-128.071562515,0.29889337,444.5,40.03479,2.376953,83.017334,-1.3,-1.0,822.0
99.6,-128.07144622,0.29890438,445.0,38.27705,2.375384,83.123352,-1.3,-1.0,822.0
99.65,-128.071351125,0.2989125,445.5,35.692234,2.411439,83.2271425,-1.3,-0.95,822.0
99.7,-128.07125603,0.29892062,446.0,33.107418,2.447494,83.330933,-1.3,-0.9,822.0
99.75,-128.071147185,0.298930475,446.5,30.9292975,2.480711,83.4145355,-1.25,-0.8500000000000001,821.5
99.8,-128.07103834,0.29894033,447.0,28.751177,2.513928,83.498138,-1.2,-0.8,821.0
99.85,-128.07094954500002,0.29894787,448.0,26.9874385,2.546163,83.55474849999999,-1.2,-0.8,821.0
99.9,-128.07086075,0.29895541,449.0,25.2237,2.578398,83.611359,-1.2,-0.8,821.0
99.95,-128.070751905,0.29896411,449.5,22.284271500000003,2.6404285,83.6884005,-1.25,-0.8500000000000001,820.5
100.0,-128.07064306,0.29897281,450.0,19.344843,2.702459,83.765442,-1.3,-0.9,820.0
100.05,-128.07054166,0.2989815099999999,451.0,17.811536,2.7348160000000004,83.8056335,-1.35,-0.95,819.5
100.1,-128.07044026,0.29899021,452.0,16.278229,2.767173,83.845825,-1.4,-1.0,819.0
100.15,-128.07034001,0.29899833,452.5,13.188804,2.847561,83.89128099999999,-1.35,-1.05,819.0
100.2,-128.07023976,0.29900645,453.0,10.099379,2.927949,83.936737,-1.3,-1.1,819.0
100.25,-128.07014580499998,0.29901457,454.0,8.379763,2.9729555,83.9614565,-1.3,-1.1,819.0
100.3,-128.07005185,0.29902269,455.0,6.660147,3.017962,83.986176,-1.3,-1.1,819.0
100.35,-128.06994358,0.29903139,455.5,4.4140215000000005,3.0900805,83.990662,-1.25,-0.95,818.5
100.4,-128.06983531,0.29904009,456.0,2.167896,3.162199,83.995148,-1.2,-0.8,818.0
100.45,-128.069735055,0.2990487899999999,457.0,-0.2699449999999999,3.2475370000000003,83.98529049999999,-1.2,-0.65,818.0
100.5,-128.0696348,0.29905749,458.0,-2.707786,3.332875,83.975433,-1.2,-0.5,818.0
100.55,-128.06953054,0.2990667649999999,459.0,-4.184581,3.384571,83.969467,-1.15,-0.4,817.5
100.6,-128.06942628,0.29907604,460.0,-5.661376,3.436267,83.963501,-1.1,-0.3,817.0
100.65,-128.06934092,0.2990841549999999,461.0,-8.438293999999999,3.5467785000000003,83.89253249999999,-1.15,-0.2,817.0
100.7,-128.06925556,0.29909227,462.0,-11.215212,3.65729,83.821564,-1.2,-0.1,817.0
100.75,-128.06916389999998,0.29910039,463.0,-12.979704,3.7275105,83.7764895,-1.2,-0.1,817.0
100.8,-128.06907224,0.29910851,464.0,-14.744196,3.797731,83.731415,-1.2,-0.1,817.0
100.85,-128.0689697,0.299118935,465.0,-16.848755,3.9413615,83.5944215,-1.2,-0.1,816.5
100.9,-128.06886716,0.29912936,466.0,-18.953314,4.084992,83.457428,-1.2,-0.1,816.0
100.95,-128.0687818,0.299138055,467.0,-21.128649,4.27375,83.259781,-1.15,-0.15,815.5
101.0,-128.06869644,0.29914675,468.0,-23.303984,4.462508,83.062134,-1.1,-0.2,815.0
101.05,-128.068579575,0.29916007,469.0,-24.9116545,4.6020085,82.91609199999999,-1.1,-0.2,815.0
101.1,-128.06846271,0.29917339,470.0,-26.519325,4.741509,82.77005,-1.1,-0.2,815.0
101.15,-128.068365895,0.2991843899999999,471.5,-28.628871,5.077005,82.32244850000001,-1.0,-0.25,814.5
101.2,-128.06826908,0.29919539,473.0,-30.738417,5.412501,81.874847,-0.9,-0.3,814.0
101.25,-128.06816482,0.2992087049999999,474.0,-32.0661595,5.623661,81.5931395,-0.8500000000000001,-0.35,814.0
101.3,-128.06806056,0.29922202,475.0,-33.393902,5.834821,81.311432,-0.8,-0.4,814.0
101.35,-128.06797749499998,0.2992341699999999,476.5,-34.318985,5.960710499999999,81.073044,-0.8,-0.45,813.5
101.4,-128.06789443,0.29924632,478.0,-35.244068,6.0866,80.834656,-0.8,-0.5,813.0
101.45,-128.06778387,0.299261945,479.5,-36.2999135,6.2116815,80.525635,-0.8500000000000001,-0.5,813.0
101.5,-128.06767331,0.29927757,481.0,-37.355759,6.336763,80.216614,-0.9,-0.5,813.0
101.55,-128.067585665,0.29929203,482.0,-37.8339025,6.3934075,80.076706,-0.9,-0.55,812.5
101.6,-128.06749802,0.29930649,483.0,-38.312046,6.450052,79.936798,-0.9,-0.6,812.0
101.65,-128.067409225,0.299321525,484.5,-38.508173,6.287893,79.785736,-1.0,-0.6499999999999999,811.5
101.7,-128.06732043,0.29933656,486.0,-38.7043,6.125734,79.634674,-1.1,-0.7,811.0
101.75,-128.067220755,0.29935391,487.5,-38.825319500000006,5.9989585,79.5279235,-1.25,-0.75,811.0
101.8,-128.06712108,0.29937126,489.0,-38.946339,5.872183,79.421173,-1.4,-0.8,811.0
101.85,-128.067029425,0.29938745,490.5,-38.710825,5.69534,79.300766,-1.45,-0.9,810.5
101.9,-128.06693777,0.29940364,492.0,-38.475311,5.518497,79.180359,-1.5,-1.0,810.0
101.95,-128.066832365,0.299422725,493.5,-37.856104,5.225213,78.99674999999999,-1.55,-1.1,810.0
102.0,-128.06672696,0.29944181,495.0,-37.236897,4.931929,78.813141,-1.6,-1.2,810.0
102.05,-128.06664046,0.2994585749999999,496.5,-36.9637205,4.8025405,78.7321475,-1.65,-1.2999999999999998,809.5
102.1,-128.06655396,0.29947534,498.0,-36.690544,4.673152,78.651154,-1.7,-1.4,809.0
102.15,-128.06645371,0.29949442,499.5,-36.0020675,4.372705,78.472748,-1.75,-1.5499999999999998,809.0
102.2,-128.06635346,0.2995135,501.0,-35.313591,4.072258,78.294342,-1.8,-1.7,809.0
102.25,-128.06626066,0.29953142,502.0,-34.908207000000004,3.896321,78.19026199999999,-1.85,-1.7999999999999998,808.5
102.3,-128.06616786,0.29954934,503.0,-34.502823,3.720384,78.086182,-1.9,-1.9,808.0
102.35,-128.066075635,0.299568415,504.0,-34.3332235,3.511839,78.0429995,-1.95,-1.85,808.0
102.4,-128.06598341,0.29958749,505.0,-34.163624,3.303294,77.999817,-2.0,-1.8,808.0
102.45,-128.065872275,0.29960946,506.5,-34.180023500000004,2.9411180000000003,78.004959,-2.1,-1.75,807.5
102.5,-128.06576114,0.29963143,508.0,-34.196423,2.578942,78.010101,-2.2,-1.7,807.0
102.55,-128.065673495,0.29964935,509.0,-34.2041095,2.409186,78.012512,-2.3,-1.7,807.0
102.6,-128.06558585,0.29966727,510.0,-34.211796,2.23943,78.014923,-2.4,-1.7,807.0
102.65,-128.065492475,0.299686345,511.0,-35.078804,2.153245,77.83642549999999,-2.35,-1.65,807.0
102.7,-128.0653991,0.29970542,512.0,-35.945812,2.06706,77.657928,-2.3,-1.6,807.0
102.75,-128.065304585,0.299725655,513.0,-36.6047535,2.020783,77.52181999999999,-2.15,-1.55,806.5
102.8,-128.06521007,0.29974589,514.0,-37.263695,1.974506,77.385712,-2.0,-1.5,806.0
102.85,-128.06510925,0.299767275,515.0,-38.579178,2.0170775,77.2144625,-1.9,-1.55,806.0
102.9,-128.06500843,0.29978866,516.0,-39.894661,2.059649,77.043213,-1.8,-1.6,806.0
102.95,-128.06491849,0.2998083099999999,517.0,-41.6764545,2.1664935,76.84794600000001,-1.65,-1.6,806.0
103.0,-128.06482855,0.29982796,518.0,-43.458248,2.273338,76.652679,-1.5,-1.6,806.0
103.05,-128.064722005,0.2998528099999999,518.5,-44.633333,2.343801,76.5239105,-1.4,-1.55,805.5
103.1,-128.06461546,0.29987766,519.0,-45.808418,2.414264,76.395142,-1.3,-1.5,805.0
103.15,-128.06452609500002,0.299899045,520.0,-48.6681555,2.4903995,76.0123065,-1.25,-1.4,805.0
